[
    {
        "id": 1,
        "name": "康瑞甜品",
        "address": "深水埗荔枝角道323號地舖",
        "district": "深水埗",
        "areas": "九龍區",
        "desc": " ",
        "type": "restaurant",
        "image": "https://gotchainfo2019.github.io/images/ArmChannelImage.png",
        "fb": "330920327037381",
        "brand": "康瑞甜品 ",
        "lat": 22.3285555,
        "lon": 114.1601569
    },
    {
        "id": 2,
        "name": "屋子生活 Uchi Coffee",
        "address": "馬鞍山烏溪沙路8號迎海薈地下4A舖",
        "district": "沙田",
        "areas": "新界區",
        "desc": " ",
        "type": "restaurant",
        "image": "https://gotchainfo2019.github.io/images/ArmChannelImage.png",
        "fb": "330920327037381",
        "brand": "屋子生活 Uchi Coffee",
        "lat": 22.4318558,
        "lon": 114.2410972
    },
    {
        "id": 3,
        "name": "滑嘟嘟",
        "address": "大埔鄉事會街8號大埔墟街市及熟食中心2樓CFS29號舖",
        "district": "大埔",
        "areas": "新界區",
        "type": "restaurant",
        "image": "https://gotchainfo2019.github.io/images/ArmChannelImage.png",
        "fb": "330920327037381",
        "brand": "滑嘟嘟",
        "lat": 22.4463146,
        "lon": 114.1663225
    },
    {
        "id": 4,
        "name": "三多",
        "address": "大埔北盛街29A號地下",
        "district": "大埔",
        "areas": "新界區",
        "desc": " ",
        "type": "restaurant",
        "image": "https://gotchainfo2019.github.io/images/ArmChannelImage.png",
        "fb": "330920327037381",
        "brand": "三多",
        "lat": 22.4495434,
        "lon": 114.1632555
    },
    {
        "id": 5,
        "name": "正宗山西刀削麵皇",
        "address": "荃灣沙咀道245號坤德樓地下",
        "district": "荃灣",
        "areas": "新界區",
        "desc": " ",
        "type": "restaurant",
        "image": "https://gotchainfo2019.github.io/images/ArmChannelImage.png",
        "fb": "330920327037381",
        "brand": "正宗山西刀削麵皇",
        "lat": 22.3702036,
        "lon": 114.1162053
    },
    {
        "id": 6,
        "name": "Ideas Dessert",
        "address": "荃灣荃貴街10A號富麗花園商場A座地下13B及15號舖",
        "district": "荃灣",
        "areas": "新界區",
        "desc": " ",
        "type": "restaurant",
        "image": "https://gotchainfo2019.github.io/images/ArmChannelImage.png",
        "fb": "330920327037381",
        "brand": "Ideas Dessert \r",
        "lat": 22.3690328,
        "lon": 114.122199
    },
    {
        "id": 7,
        "name": "拉麵天王",
        "address": " 紅磡德民街17-27號B5B地下",
        "district": "九龍城",
        "areas": "九龍區",
        "desc": " ",
        "type": "restaurant",
        "image": "https://gotchainfo2019.github.io/images/ArmChannelImage.png",
        "fb": "330920327037381",
        "brand": "拉麵天王",
        "lat": 22.3061885,
        "lon": 114.1876941
    },
    {
        "id": 8,
        "name": "時新漢堡飽",
        "address": "紅磡黃埔天地家居庭(第12期)地下G22-G23號舖",
        "district": "九龍城",
        "areas": "九龍區",
        "desc": " ",
        "type": "restaurant",
        "image": "https://gotchainfo2019.github.io/images/ArmChannelImage.png",
        "fb": "330920327037381",
        "brand": "時新漢堡飽\r",
        "lat": 22.3059444,
        "lon": 114.191103
    },
    {
        "id": 9,
        "name": "Little Break Coffee & Kitchen",
        "address": "荔枝角長義街9號D2 Place一期地下G03舖",
        "district": "深水埗",
        "areas": "九龍區",
        "desc": " ",
        "type": "restaurant",
        "image": "https://gotchainfo2019.github.io/images/ArmChannelImage.png",
        "fb": "330920327037381",
        "brand": "Little Break Coffee & Kitchen\r",
        "lat": 22.3359549,
        "lon": 114.1486681
    },
    {
        "id": 10,
        "name": "程班長台灣美食",
        "address": "荔枝角長沙灣道883號億利工業中心1樓102室",
        "district": "深水埗",
        "areas": "九龍區",
        "desc": " ",
        "type": "restaurant",
        "image": "https://gotchainfo2019.github.io/images/ArmChannelImage.png",
        "fb": "330920327037381",
        "brand": "程班長台灣美食",
        "lat": 22.3367772,
        "lon": 114.1473646
    },
    {
        "id": 11,
        "name": "百味閣餐廳",
        "address": "九龍塘聯合道320號建新中心地下2-4號舖",
        "district": "九龍城",
        "areas": "九龍區",
        "desc": " ",
        "type": "restaurant",
        "image": "https://gotchainfo2019.github.io/images/ArmChannelImage.png",
        "fb": "330920327037381",
        "brand": "百味閣餐廳\r",
        "lat": 22.3392691,
        "lon": 114.1807791
    },
    {
        "id": 12,
        "name": "Villa Villa",
        "address": "北角錦屏街後街25A號東發大廈地下31號舖",
        "district": "東區",
        "areas": "香港島",
        "desc": " ",
        "type": "restaurant",
        "image": "https://gotchainfo2019.github.io/images/ArmChannelImage.png",
        "fb": "330920327037381",
        "brand": "Villa Villa",
        "lat": 22.290376,
        "lon": 114.200357
    },
    {
        "id": 13,
        "name": "JOMO Coffee & Cakes ",
        "address": "西環西營盤水街4號地下D號舖",
        "district": "中西區",
        "areas": "香港島",
        "desc": " ",
        "type": "restaurant",
        "image": "https://gotchainfo2019.github.io/images/ArmChannelImage.png",
        "fb": "330920327037381",
        "brand": "JOMO Coffee & Cakes \r",
        "lat": 22.2864878,
        "lon": 114.1393254
    },
    {
        "id": 14,
        "name": "華爾登麵包餅店",
        "address": "西環西營盤第二街120-126號仁福大廈地舖",
        "district": "中西區",
        "areas": "香港島",
        "desc": " ",
        "type": "restaurant",
        "image": "https://gotchainfo2019.github.io/images/ArmChannelImage.png",
        "fb": "330920327037381",
        "brand": "華爾登麵包餅店\r",
        "lat": 22.2860715,
        "lon": 114.1396854
    },
    {
        "id": 15,
        "name": "Dear Coffee & Bakery",
        "address": "大圍積運街2-8號海福花園地下22號舖",
        "district": "沙田",
        "areas": "新界區",
        "desc": " ",
        "type": "restaurant",
        "image": "https://gotchainfo2019.github.io/images/ArmChannelImage.png",
        "fb": "330920327037381",
        "brand": "Dear Coffee & Bakery",
        "lat": 22.3730816,
        "lon": 114.1769808
    },
    {
        "id": 16,
        "name": "顯徑車仔麵",
        "address": "大圍上徑口村105號地下",
        "district": "沙田",
        "areas": "新界區",
        "desc": " ",
        "type": "restaurant",
        "image": "https://gotchainfo2019.github.io/images/ArmChannelImage.png",
        "fb": "330920327037381",
        "brand": "顯徑車仔麵 \r",
        "lat": 22.3645253,
        "lon": 114.17465
    }
]
