[
    {
        "name": "冒險樂園",
        "address": "九龍奧海城 1期1樓115號舖",
        "district": "奧海城",
        "areas": "九龍區",
        "image": "https://www.jumpingym.com/image/data/logo_forward.jpg",
        "fb": "https://www.facebook.com/JumpinGymU.S.A/",
        "brand": "冒險樂園",
        "lat": 22.3182712,
        "lon": 114.1583674
    },
    {
        "name": "冒險樂園",
        "address": "慈雲山中心6樓608-610號舖",
        "district": "慈雲山",
        "areas": "九龍區",
        "openHours": "10:30–22:00",
        "image": "https://www.jumpingym.com/image/data/logo_forward.jpg",
        "fb": "https://www.facebook.com/JumpinGymU.S.A/",
        "brand": "冒險樂園",
        "lat": 22.348177,
        "lon": 114.200585999999
    },
    {
        "name": "冒險樂園",
        "address": "觀塘翠屏北邨商場地下9B號鋪",
        "district": "觀塘",
        "areas": "九龍區",
        "image": "https://www.jumpingym.com/image/data/logo_forward.jpg",
        "fb": "https://www.facebook.com/JumpinGymU.S.A/",
        "brand": "冒險樂園",
        "lat": 22.3151148,
        "lon": 114.2269962
    },
    {
        "name": "Big bear 娃娃機",
        "address": "觀塘興業街4號The Wave",
        "district": "觀塘",
        "areas": "九龍區",
        "image": "https://scontent.fhkg4-2.fna.fbcdn.net/v/t1.0-9/58602874_796120114093947_6396841015541497856_n.jpg?_nc_cat=103&_nc_oc=AQlF-sfnDXQf-bgQ5zGf_Je8ljXWTBBxKU6cYLS7TfVQ00ByqWupOB0wjs4yVGkRx6Y&_nc_ht=scontent.fhkg4-2.fna&oh=0a3015b51532f39d90407e913f4a89d7&oe=5D930056",
        "fb": "https://www.facebook.com/Big-Bear-796119764093982/",
        "brand": "Big bear 娃娃機",
        "lat": 22.30971,
        "lon": 114.224503
    },
    {
        "name": "Lucky Hand 禮品專門店",
        "address": "觀塘觀塘道418號創紀之城五期apm L4-25舖 Happy Moment",
        "district": "觀塘",
        "areas": "九龍區",
        "desc": "Lucky Hand 幸運禮品有限公司是一家專注於為市民帶來歡樂，提供一個老少咸宜的娛樂悠閒新去處的公司。",
        "image": "https://scontent.fhkg4-2.fna.fbcdn.net/v/t1.0-9/59727594_2850538451751798_670500551602995200_o.jpg?_nc_cat=104&_nc_ht=scontent.fhkg4-2.fna&oh=f22ce3deecc4858213c019fb6d4338e4&oe=5D521182",
        "fb": "https://www.facebook.com/luckyhandhk/",
        "brand": "Lucky Hand 禮品專門店",
        "video": "https://youtu.be/X2hRZR5hlvI",
        "lat": 22.312307,
        "lon": 114.225167
    },
    {
        "name": "Dream Gotcha 夢の抓物店",
        "address": "紅磡船澳街99號紅磡商場地下20A舖",
        "district": "紅磡",
        "areas": "九龍區",
        "image": "https://scontent.fhkg4-2.fna.fbcdn.net/v/t1.0-9/48393801_571017376657223_2852215411074662400_n.jpg?_nc_cat=109&_nc_oc=AQm--Lmc6-0fX1IYH_WLTYvDKUbO4RMUD_BFNa05z3QtDrgQVjgHgjwHoAfrVqNvrCY&_nc_ht=scontent.fhkg4-2.fna&oh=36eae1d920521fbc34286e51d36b41a8&oe=5D8F2418",
        "fb": "https://www.facebook.com/DreamGotcha/",
        "brand": "Dream Gotcha 夢の抓物店",
        "lat": 22.305855,
        "lon": 114.187642
    },
    {
        "name": "冒險樂園",
        "address": "黃埔花園十一期聚寶坊地庫",
        "district": "黃埔",
        "areas": "九龍區",
        "openHours": "星期六\n10:00–22:30\n星期五,日\n10:00–23:00\n星期一至四\n11:00–23:00",
        "image": "https://www.jumpingym.com/image/data/logo_forward.jpg",
        "fb": "https://www.facebook.com/JumpinGymU.S.A/",
        "brand": "冒險樂園",
        "lat": 22.3053656,
        "lon": 114.1895298
    },
    {
        "name": "Lucky Hand 禮品專門店",
        "address": "黃大仙正德街103黃大仙中心南館LG5舖",
        "district": "黃大仙",
        "areas": "九龍區",
        "desc": "Lucky Hand 幸運禮品有限公司是一家專注於為市民帶來歡樂，提供一個老少咸宜的娛樂悠閒新去處的公司。",
        "image": "https://scontent.fhkg4-2.fna.fbcdn.net/v/t1.0-9/59727594_2850538451751798_670500551602995200_o.jpg?_nc_cat=104&_nc_ht=scontent.fhkg4-2.fna&oh=f22ce3deecc4858213c019fb6d4338e4&oe=5D521182",
        "fb": "https://www.facebook.com/luckyhandhk/",
        "brand": "Lucky Hand 禮品專門店",
        "video": "https://youtu.be/X2hRZR5hlvI",
        "lat": 22.34153,
        "lon": 114.194325
    },
    {
        "name": "Lucky Hand 禮品專門店",
        "address": "黃大仙區竹園道15號竹園商場",
        "district": "黃大仙",
        "areas": "九龍區",
        "desc": "Lucky Hand 幸運禮品有限公司是一家專注於為市民帶來歡樂，提供一個老少咸宜的娛樂悠閒新去處的公司。",
        "image": "https://scontent.fhkg4-2.fna.fbcdn.net/v/t1.0-9/59727594_2850538451751798_670500551602995200_o.jpg?_nc_cat=104&_nc_ht=scontent.fhkg4-2.fna&oh=f22ce3deecc4858213c019fb6d4338e4&oe=5D521182",
        "fb": "https://www.facebook.com/luckyhandhk/",
        "brand": "Lucky Hand 禮品專門店",
        "video": "https://youtu.be/X2hRZR5hlvI",
        "lat": 22.34509,
        "lon": 114.193323
    },
    {
        "name": "冒險樂園",
        "address": "尖沙咀海運大厦地下G11號舖",
        "district": "尖沙咀",
        "areas": "九龍區",
        "image": "https://www.jumpingym.com/image/data/logo_forward.jpg",
        "fb": "https://www.facebook.com/JumpinGymU.S.A/",
        "brand": "冒險樂園",
        "lat": 22.295181,
        "lon": 114.168004
    },
    {
        "name": "娃娃星球 WaWa Planet - 尖沙咀店",
        "address": "尖沙咀金馬倫道首都廣場2/F",
        "district": "尖沙咀",
        "areas": "九龍區",
        "desc": "在尖沙咀首都廣場2樓，就有「娃娃星球 WaWa Planet 」夾公仔店，店內有多款靚靚公仔！",
        "openHours": "11:30–23:30",
        "image": "https://scontent.fhkg4-2.fna.fbcdn.net/v/t1.0-9/42938100_344740786070915_1762345967698313216_n.jpg?_nc_cat=111&_nc_oc=AQkautc33d--_G_OpViJMwfLI0BkAaq6IUCJ8FsGxHr5ie2oz7kSPXKDX8cMmOp5qTo&_nc_ht=scontent.fhkg4-2.fna&oh=fcbf3cdc0015ddc20fc2b3e55b148cc0&oe=5D7EE7B1",
        "fb": "https://www.facebook.com/wawaplanet.hk",
        "brand": "娃娃星球 WaWa Planet",
        "video": "https://www.facebook.com/wawaplanet.hk/videos/1006955549487691/",
        "lat": 22.299667,
        "lon": 114.175483
    },
    {
        "name": "Big bear 娃娃機",
        "address": "尖沙咀加連威老道65號",
        "district": "尖沙咀",
        "areas": "九龍區",
        "image": "https://scontent.fhkg4-2.fna.fbcdn.net/v/t1.0-9/58602874_796120114093947_6396841015541497856_n.jpg?_nc_cat=103&_nc_oc=AQlF-sfnDXQf-bgQ5zGf_Je8ljXWTBBxKU6cYLS7TfVQ00ByqWupOB0wjs4yVGkRx6Y&_nc_ht=scontent.fhkg4-2.fna&oh=0a3015b51532f39d90407e913f4a89d7&oe=5D930056",
        "fb": "https://www.facebook.com/Big-Bear-796119764093982/",
        "brand": "Big bear 娃娃機",
        "lat": 22.300705,
        "lon": 114.175613
    },
    {
        "name": "冒險樂園",
        "address": "九龍城廣場B110-111號舖",
        "district": "九龍城",
        "areas": "九龍區",
        "image": "https://www.jumpingym.com/image/data/logo_forward.jpg",
        "fb": "https://www.facebook.com/JumpinGymU.S.A/",
        "brand": "冒險樂園",
        "lat": 22.331051,
        "lon": 114.188462999999
    },
    {
        "name": "Lucky Hand 禮品專門店",
        "address": "九龍城賈炳達道九龍城廣場",
        "district": "九龍城",
        "areas": "九龍區",
        "desc": "Lucky Hand 幸運禮品有限公司是一家專注於為市民帶來歡樂，提供一個老少咸宜的娛樂悠閒新去處的公司。",
        "image": "https://scontent.fhkg4-2.fna.fbcdn.net/v/t1.0-9/59727594_2850538451751798_670500551602995200_o.jpg?_nc_cat=104&_nc_ht=scontent.fhkg4-2.fna&oh=f22ce3deecc4858213c019fb6d4338e4&oe=5D521182",
        "fb": "https://www.facebook.com/luckyhandhk/",
        "brand": "Lucky Hand 禮品專門店",
        "video": "https://youtu.be/X2hRZR5hlvI",
        "lat": 22.331105,
        "lon": 114.187962
    },
    {
        "name": "九龍灣放宮樂園",
        "address": "九龍灣宏照道38號 MegaBox 9樓",
        "district": "九龍灣",
        "areas": "九龍區",
        "desc": "九龍灣放宮樂園最近推出了任玩通行證計劃，最平只需$200就可以全日無限任玩所有遊戲設施及贏禮品，如掟彩虹、夾公仔機等，在指定價錢內任玩唔使驚使多咗！更有餐飲優惠，啱晒一家大細或者鍾意玩室內遊戲的朋友。",
        "image": "https://scontent-hkg3-2.xx.fbcdn.net/v/t1.0-9/48407341_1205546719592851_8477033473884815360_o.jpg?_nc_cat=108&_nc_ht=scontent-hkg3-2.xx&oh=47b7ea419cecd22065fd9da935b91c26&oe=5D853DEB",
        "fb": "https://www.facebook.com/95cafeOffworkKingdom/",
        "brand": "九龍灣放宮樂園",
        "lat": 22.31954,
        "lon": 114.20845
    },
    {
        "name": "冒險樂園",
        "address": "藍田啟田商場新翼二樓233-234號舖",
        "district": "藍田",
        "areas": "九龍區",
        "image": "https://www.jumpingym.com/image/data/logo_forward.jpg",
        "fb": "https://www.facebook.com/JumpinGymU.S.A/",
        "brand": "冒險樂園",
        "lat": 22.307981,
        "lon": 114.23505
    },
    {
        "name": "Dream Gotcha 夢の抓物店",
        "address": "藍田匯景廣場L5層183-187C舖",
        "district": "藍田",
        "areas": "九龍區",
        "image": "https://scontent.fhkg4-2.fna.fbcdn.net/v/t1.0-9/48393801_571017376657223_2852215411074662400_n.jpg?_nc_cat=109&_nc_oc=AQm--Lmc6-0fX1IYH_WLTYvDKUbO4RMUD_BFNa05z3QtDrgQVjgHgjwHoAfrVqNvrCY&_nc_ht=scontent.fhkg4-2.fna&oh=36eae1d920521fbc34286e51d36b41a8&oe=5D8F2418",
        "fb": "https://www.facebook.com/DreamGotcha/",
        "brand": "Dream Gotcha 夢の抓物店",
        "lat": 22.307104,
        "lon": 114.233581
    },
    {
        "name": "TAKE ME OUT 夾公仔機專門店",
        "address": "馬頭圍道37-39號-紅磡商業中心25號地舖",
        "district": "馬頭圍",
        "areas": "九龍區",
        "is24": true,
        "image": "https://scontent.fhkg4-1.fna.fbcdn.net/v/t1.0-9/53850273_594953354337739_8611386867016794112_n.jpg?_nc_cat=102&_nc_oc=AQmYgOBJJb2LUKgEcCXgNESuhtT3VcUB3c8rFSvU8Nms8UC6bpWHNoTTeqBufUqK86M&_nc_ht=scontent.fhkg4-1.fna&oh=eb2517f7602e34f945768d97938a4259&oe=5D907F83",
        "fb": "https://www.facebook.com/takemeouthongkong/",
        "brand": "TAKE ME OUT 夾公仔機專門店",
        "lat": 22.310465,
        "lon": 114.18801
    },
    {
        "name": "捕走屋 Catch & Run",
        "address": "鶴園馬頭圍道37-39號紅磡廣場地庫BC08號",
        "district": "馬頭圍",
        "areas": "九龍區",
        "image": "https://scontent.fhkg4-2.fna.fbcdn.net/v/t1.0-9/48384472_426881544515716_6496872109535395840_o.png?_nc_cat=109&_nc_oc=AQkwi5jkgc4saTz83DgtnzDMF0PmEIGWJk3OYWHJ9wOoVaYMXdxeWy-ELNUztixA2y4&_nc_ht=scontent.fhkg4-2.fna&oh=96dc4494b98b5e5a58481a8c222d80a9&oe=5DC63B20",
        "fb": "https://www.facebook.com/catchandrunHK/",
        "brand": "捕走屋 Catch & Run",
        "lat": 22.310579,
        "lon": 114.188032
    },
    {
        "name": "Dream Gotcha 夢の抓物店",
        "address": "美孚新邨吉利徑6-8號平台85號6B1號舖",
        "district": "美孚",
        "areas": "九龍區",
        "image": "https://scontent.fhkg4-2.fna.fbcdn.net/v/t1.0-9/48393801_571017376657223_2852215411074662400_n.jpg?_nc_cat=109&_nc_oc=AQm--Lmc6-0fX1IYH_WLTYvDKUbO4RMUD_BFNa05z3QtDrgQVjgHgjwHoAfrVqNvrCY&_nc_ht=scontent.fhkg4-2.fna&oh=36eae1d920521fbc34286e51d36b41a8&oe=5D8F2418",
        "fb": "https://www.facebook.com/DreamGotcha/",
        "brand": "Dream Gotcha 夢の抓物店",
        "lat": 22.336234,
        "lon": 114.139823
    },
    {
        "name": "冒險樂園",
        "address": "牛頭角振華道70號樂華商場地下121號",
        "district": "牛頭角",
        "areas": "九龍區",
        "image": "https://www.jumpingym.com/image/data/logo_forward.jpg",
        "fb": "https://www.facebook.com/JumpinGymU.S.A/",
        "brand": "冒險樂園",
        "lat": 22.321813,
        "lon": 114.219926
    },
    {
        "name": "冒險樂園",
        "address": "西九龍中心6樓601B號舖",
        "district": "深水埗",
        "areas": "九龍區",
        "openHours": "11:00–22:00",
        "image": "https://www.jumpingym.com/image/data/logo_forward.jpg",
        "fb": "https://www.facebook.com/JumpinGymU.S.A/",
        "brand": "冒險樂園",
        "lat": 22.331092,
        "lon": 114.1597845
    },
    {
        "name": "Big Bear娃娃機旗艦店",
        "address": "深水埗青山道201-203號",
        "district": "深水埗",
        "areas": "九龍區",
        "image": "https://scontent.fhkg4-2.fna.fbcdn.net/v/t1.0-9/58602874_796120114093947_6396841015541497856_n.jpg?_nc_cat=103&_nc_oc=AQlF-sfnDXQf-bgQ5zGf_Je8ljXWTBBxKU6cYLS7TfVQ00ByqWupOB0wjs4yVGkRx6Y&_nc_ht=scontent.fhkg4-2.fna&oh=0a3015b51532f39d90407e913f4a89d7&oe=5D930056",
        "fb": "https://www.facebook.com/Big-Bear-796119764093982/",
        "brand": "Big bear 娃娃機",
        "lat": 22.33622,
        "lon": 114.159139
    },
    {
        "name": "Lucky Hand 禮品專門店",
        "address": "深水埗欽州街37K西九龍中心3樓315舖",
        "district": "深水埗",
        "areas": "九龍區",
        "desc": "Lucky Hand 幸運禮品有限公司是一家專注於為市民帶來歡樂，提供一個老少咸宜的娛樂悠閒新去處的公司。",
        "image": "https://scontent.fhkg4-2.fna.fbcdn.net/v/t1.0-9/59727594_2850538451751798_670500551602995200_o.jpg?_nc_cat=104&_nc_ht=scontent.fhkg4-2.fna&oh=f22ce3deecc4858213c019fb6d4338e4&oe=5D521182",
        "fb": "https://www.facebook.com/luckyhandhk/",
        "brand": "Lucky Hand 禮品專門店",
        "video": "https://youtu.be/X2hRZR5hlvI",
        "lat": 22.331066,
        "lon": 114.159785
    },
    {
        "name": "冒險樂園",
        "address": "九龍土瓜灣馬頭角道33號欣榮花園商場地下12號舖",
        "district": "土瓜灣",
        "areas": "九龍區",
        "image": "https://www.jumpingym.com/image/data/logo_forward.jpg",
        "fb": "https://www.facebook.com/JumpinGymU.S.A/",
        "brand": "冒險樂園",
        "lat": 22.321952,
        "lon": 114.189374
    },
    {
        "name": "貓爪 Cat\\'s Claw",
        "address": "旺角通菜街150號2樓",
        "district": "旺角",
        "areas": "九龍區",
        "image": "https:
        "fb": "https://www.facebook.com/pages/category/Arts---Entertainment/%E8%B2%93%E7%88%AA-Cats-Claw-485833618500380/",
        "brand": "貓爪 Cat\\'s Claw",
        "lat": 22.322118,
        "lon": 114.170141
    },
    {
        "name": "娃娃星球 WaWa Planet - 旺角創興旗艦店",
        "address": "旺角砵蘭街170號地鋪全棟",
        "district": "旺角",
        "areas": "九龍區",
        "desc": "旺角旗艦店實施24小時開放，日日夜夜都可以任夾！",
        "image": "https://scontent.fhkg4-2.fna.fbcdn.net/v/t1.0-9/42938100_344740786070915_1762345967698313216_n.jpg?_nc_cat=111&_nc_oc=AQkautc33d--_G_OpViJMwfLI0BkAaq6IUCJ8FsGxHr5ie2oz7kSPXKDX8cMmOp5qTo&_nc_ht=scontent.fhkg4-2.fna&oh=fcbf3cdc0015ddc20fc2b3e55b148cc0&oe=5D7EE7B1",
        "fb": "https://www.facebook.com/wawaplanet.hk",
        "brand": "娃娃星球 WaWa Planet",
        "lat": 22.316354,
        "lon": 114.169287
    },
    {
        "name": "爪玩店",
        "address": "旺角銀城212號",
        "district": "旺角",
        "areas": "九龍區",
        "openHours": "8:00-00:00",
        "image": "https://scontent.fhkg4-2.fna.fbcdn.net/v/t1.0-9/60801034_407489203435994_8365963072694648832_o.jpg?_nc_cat=103&_nc_oc=AQk036avLRg4mDxg8mN_-JRrXYRdcSgzjmcJsGD_E6gKIxbtrpy-H3QGAqqiYMdEyYs&_nc_ht=scontent.fhkg4-2.fna&oh=cf401b14b92955c2397c0f83b6a30e17&oe=5DC1CD8A",
        "fb": "https://www.facebook.com/clawtoyhk/",
        "brand": "爪玩店",
        "lat": 22.316301,
        "lon": 114.170826
    },
    {
        "name": "爪玩店",
        "address": "旺角銀城210號",
        "district": "旺角",
        "areas": "九龍區",
        "openHours": "8:00-00:00",
        "image": "https://scontent.fhkg4-2.fna.fbcdn.net/v/t1.0-9/60801034_407489203435994_8365963072694648832_o.jpg?_nc_cat=103&_nc_oc=AQk036avLRg4mDxg8mN_-JRrXYRdcSgzjmcJsGD_E6gKIxbtrpy-H3QGAqqiYMdEyYs&_nc_ht=scontent.fhkg4-2.fna&oh=cf401b14b92955c2397c0f83b6a30e17&oe=5DC1CD8A",
        "fb": "https://www.facebook.com/clawtoyhk/",
        "brand": "爪玩店",
        "lat": 22.316301,
        "lon": 114.170826
    },
    {
        "name": "豬笨笨夾公仔樂園",
        "address": "彌敦道688號旺角中心2樓SB01舖",
        "district": "旺角",
        "areas": "九龍區",
        "desc": "娃娃宅急便夾公仔專門店，自2016年起，為香港台式保夾始祖店，曾榮幸獲得青雲路、亞洲電視等傳媒採訪推薦。今年更推出配合夾公仔的手機養成遊戲，一直秉承“易夾”、“保證取物”、“",
        "openHours": "14:30–22:30",
        "image": "https://scontent.fhkg4-2.fna.fbcdn.net/v/t1.0-9/40589328_599243953807194_2459475969371537408_o.jpg?_nc_cat=111&_nc_oc=AQn-xtkI-wUC08lSXnzNor4j4K2Iw9CX_uKBhdttJejGOwihvV1T6DJCWmwgXkxmqJ4&_nc_ht=scontent.fhkg4-2.fna&oh=7fe70cd0a95f55178ce53fa3fe6fb024&oe=5DC4721D",
        "fb": "https://www.facebook.com/DollsTakkyubin/photos/p.705830633148525/705830633148525/?type=1&theater",
        "brand": "豬笨笨夾公仔樂園",
        "lat": 22.319873,
        "lon": 114.169693
    },
    {
        "name": "Big bear 娃娃機",
        "address": "旺角洗衣街90號",
        "district": "旺角",
        "areas": "九龍區",
        "is24": true,
        "image": "https://scontent.fhkg4-2.fna.fbcdn.net/v/t1.0-9/58602874_796120114093947_6396841015541497856_n.jpg?_nc_cat=103&_nc_oc=AQlF-sfnDXQf-bgQ5zGf_Je8ljXWTBBxKU6cYLS7TfVQ00ByqWupOB0wjs4yVGkRx6Y&_nc_ht=scontent.fhkg4-2.fna&oh=0a3015b51532f39d90407e913f4a89d7&oe=5D930056",
        "fb": "https://www.facebook.com/Big-Bear-796119764093982/",
        "brand": "Big bear 娃娃機",
        "lat": 22.319557,
        "lon": 114.171873
    },
    {
        "name": "NAMCO朗豪坊店",
        "address": "旺角朗豪坊9樓03-11號舖",
        "district": "旺角",
        "areas": "九龍區",
        "desc": "來自日本的NAMCO在新界、九龍都設有分店，店內有夾公仔機、貼紙相機、擲彩虹等遊戲。而且不少夾公仔機內的貨品都是由日本直送，款式又多，另外，店內的UFO夾公仔機尤其多！",
        "image": "https://scontent.fhkg4-2.fna.fbcdn.net/v/t1.0-9/26220109_1585229458227215_4345640434871050398_n.jpg?_nc_cat=111&_nc_oc=AQkID3cpg2kaHuNt2D_YC7uJOXJHlrZLMar9SM8md93zuHAZcM59h-AxrQVTgDjaQfQ&_nc_ht=scontent.fhkg4-2.fna&oh=c1ff313496fb9f4bba03ded276d389fb&oe=5DC47C7F",
        "fb": "https://www.facebook.com/namco.hk/",
        "brand": "NAMCO",
        "lat": 22.317959,
        "lon": 114.168586
    },
    {
        "name": "The Claw ",
        "address": "旺角信和中心106舖",
        "district": "旺角",
        "areas": "九龍區",
        "image": "https://scontent.fhkg4-2.fna.fbcdn.net/v/t1.0-9/47680846_741953932845301_3388376687103180800_n.jpg?_nc_cat=103&_nc_oc=AQnTynjjXwZxv4-wYi_dC2mdoajr4MdqeDu61qDwoX1lsRk6_N9fCAwILjakXDoQ0j8&_nc_ht=scontent.fhkg4-2.fna&oh=9aa61ffbe2a124cdae619666ca8adaf1&oe=5DC22479",
        "fb": "https://www.facebook.com/pg/The-Claw-%E9%A6%99%E6%B8%AF%E6%97%BA%E8%A7%92%E4%BF%A1%E5%92%8C%E4%B8%AD%E5%BF%83210%E8%88%96%E6%8A%93%E5%A8%83%E5%A8%83%E5%BA%97-741942546179773/posts/",
        "brand": "The Claw ",
        "lat": 22.316127,
        "lon": 114.17032
    },
    {
        "name": "The Claw ",
        "address": "旺角信和中心210舖",
        "district": "旺角",
        "areas": "九龍區",
        "image": "https://scontent.fhkg4-2.fna.fbcdn.net/v/t1.0-9/47680846_741953932845301_3388376687103180800_n.jpg?_nc_cat=103&_nc_oc=AQnTynjjXwZxv4-wYi_dC2mdoajr4MdqeDu61qDwoX1lsRk6_N9fCAwILjakXDoQ0j8&_nc_ht=scontent.fhkg4-2.fna&oh=9aa61ffbe2a124cdae619666ca8adaf1&oe=5DC22479",
        "fb": "https://www.facebook.com/pg/The-Claw-%E9%A6%99%E6%B8%AF%E6%97%BA%E8%A7%92%E4%BF%A1%E5%92%8C%E4%B8%AD%E5%BF%83210%E8%88%96%E6%8A%93%E5%A8%83%E5%A8%83%E5%BA%97-741942546179773/posts/",
        "brand": "The Claw ",
        "lat": 22.316127,
        "lon": 114.17032
    },
    {
        "name": "The Claw ",
        "address": "旺角信和中心213舖",
        "district": "旺角",
        "areas": "九龍區",
        "image": "https://scontent.fhkg4-2.fna.fbcdn.net/v/t1.0-9/47680846_741953932845301_3388376687103180800_n.jpg?_nc_cat=103&_nc_oc=AQnTynjjXwZxv4-wYi_dC2mdoajr4MdqeDu61qDwoX1lsRk6_N9fCAwILjakXDoQ0j8&_nc_ht=scontent.fhkg4-2.fna&oh=9aa61ffbe2a124cdae619666ca8adaf1&oe=5DC22479",
        "fb": "https://www.facebook.com/pg/The-Claw-%E9%A6%99%E6%B8%AF%E6%97%BA%E8%A7%92%E4%BF%A1%E5%92%8C%E4%B8%AD%E5%BF%83210%E8%88%96%E6%8A%93%E5%A8%83%E5%A8%83%E5%BA%97-741942546179773/posts/",
        "brand": "The Claw ",
        "lat": 22.316127,
        "lon": 114.17032
    },
    {
        "name": "冒險樂園",
        "address": "鑽石山荷里活廣場3樓 316 - 317 號舖",
        "district": "鑽石山",
        "areas": "九龍區",
        "image": "https://www.jumpingym.com/image/data/logo_forward.jpg",
        "fb": "https://www.facebook.com/JumpinGymU.S.A/",
        "brand": "冒險樂園",
        "lat": 22.340722,
        "lon": 114.2022956
    },
    {
        "name": "Gotcha 鑽石山",
        "address": "鑽石山荷里活廣場2樓243號舖",
        "district": "鑽石山",
        "areas": "九龍區",
        "openHours": "10:00–22:00",
        "image": "https://scontent.fhkg4-1.fna.fbcdn.net/v/t1.0-9/33532977_1800221720286571_3879669938733973504_o.jpg?_nc_cat=101&_nc_oc=AQnUony74KLo-_Akj5msC-kiY8zSc6KgL_EQtLt_fwhPNOwY6_waSZqLBZiBB7xX23M&_nc_ht=scontent.fhkg4-1.fna&oh=913639b43204861b9b876d452c8ac984&oe=5DC1BEFC",
        "fb": "https://www.facebook.com/GotchaHK/",
        "brand": "Gotcha",
        "lat": 22.341016,
        "lon": 114.201526
    },
    {
        "name": "Big bear 娃娃機",
        "address": "北角馬寶道33號馬寶學林地下G02號舖",
        "district": "北角",
        "areas": "香港島",
        "image": "https://scontent.fhkg4-2.fna.fbcdn.net/v/t1.0-9/58602874_796120114093947_6396841015541497856_n.jpg?_nc_cat=103&_nc_oc=AQlF-sfnDXQf-bgQ5zGf_Je8ljXWTBBxKU6cYLS7TfVQ00ByqWupOB0wjs4yVGkRx6Y&_nc_ht=scontent.fhkg4-2.fna&oh=0a3015b51532f39d90407e913f4a89d7&oe=5D930056",
        "fb": "https://www.facebook.com/Big-Bear-796119764093982/",
        "brand": "Big bear 娃娃機",
        "lat": 22.292123,
        "lon": 114.200703
    },
    {
        "name": "NAMCO杏花新城店",
        "address": "柴灣盛泰道100號杏花新城2樓204 A&B號鋪",
        "district": "柴灣",
        "areas": "香港島",
        "desc": "來自日本的NAMCO在新界、九龍都設有分店，店內有夾公仔機、貼紙相機、擲彩虹等遊戲。而且不少夾公仔機內的貨品都是由日本直送，款式又多，另外，店內的UFO夾公仔機尤其多！",
        "image": "https://scontent.fhkg4-2.fna.fbcdn.net/v/t1.0-9/26220109_1585229458227215_4345640434871050398_n.jpg?_nc_cat=111&_nc_oc=AQkID3cpg2kaHuNt2D_YC7uJOXJHlrZLMar9SM8md93zuHAZcM59h-AxrQVTgDjaQfQ&_nc_ht=scontent.fhkg4-2.fna&oh=c1ff313496fb9f4bba03ded276d389fb&oe=5DC47C7F",
        "fb": "https://www.facebook.com/namco.hk/",
        "brand": "NAMCO",
        "lat": 22.276836,
        "lon": 114.239897
    },
    {
        "name": "冒險樂園",
        "address": "太古城中心第二期103B舖",
        "district": "太古城",
        "areas": "香港島",
        "desc": "冒險樂園，除了有機動遊戲、拋彩虹等等小遊戲外，大部分的冒險樂園分店，都有夾公仔的地帶！而且公仔非常吸引，有多個人氣卡通俾大家選擇。",
        "image": "https://www.jumpingym.com/image/data/logo_forward.jpg",
        "fb": "https://www.facebook.com/JumpinGymU.S.A/",
        "brand": "冒險樂園",
        "lat": 22.2861881,
        "lon": 114.2170072
    },
    {
        "name": "冒險樂園",
        "address": "銅鑼灣告士打道311號皇室堡二樓 215及216B號舖",
        "district": "銅鑼灣",
        "areas": "香港島",
        "image": "https://www.jumpingym.com/image/data/logo_forward.jpg",
        "fb": "https://www.facebook.com/JumpinGymU.S.A/",
        "brand": "冒險樂園",
        "lat": 22.2803669,
        "lon": 114.1864984
    },
    {
        "name": "Big Bear娃娃機",
        "address": "銅鑼灣波斯富街114-120號",
        "district": "銅鑼灣",
        "areas": "香港島",
        "image": "https://scontent.fhkg4-2.fna.fbcdn.net/v/t1.0-9/58602874_796120114093947_6396841015541497856_n.jpg?_nc_cat=103&_nc_oc=AQlF-sfnDXQf-bgQ5zGf_Je8ljXWTBBxKU6cYLS7TfVQ00ByqWupOB0wjs4yVGkRx6Y&_nc_ht=scontent.fhkg4-2.fna&oh=0a3015b51532f39d90407e913f4a89d7&oe=5D930056",
        "fb": "https://www.facebook.com/Big-Bear-796119764093982/",
        "brand": "Big bear 娃娃機",
        "lat": 22.278344,
        "lon": 114.183547
    },
    {
        "name": "Planet J Hong Kong",
        "address": "銅鑼灣時代廣場Square on 9F",
        "district": "銅鑼灣",
        "areas": "香港島",
        "desc": "冒險樂園是不少大人小朋友都愛的地方，今次銅鑼灣有新店Planet J Hong Kong，入面遊戲設施齊全，更有一大個夾公仔地帶！",
        "image": "https://scontent.fhkg4-1.fna.fbcdn.net/v/t1.0-9/48386786_2295282990618138_6266525909575008256_o.png?_nc_cat=101&_nc_oc=AQmNmgl_T1uEFv3w2-JH9Dzf1CL5KCeiyVem2aB6yreNLs02SKyRQ1ZI4tVHMN6AbD4&_nc_ht=scontent.fhkg4-1.fna&oh=a984a2387cbf4267fe79a832c4d70503&oe=5DC10421",
        "fb": "https://www.facebook.com/PlanetJHongKong/",
        "brand": "Planet J",
        "lat": 22.278442,
        "lon": 114.182621
    },
    {
        "name": "冒險樂園",
        "address": "香港仔中心2期2樓1號舖",
        "district": "香港仔",
        "areas": "香港島",
        "image": "https://www.jumpingym.com/image/data/logo_forward.jpg",
        "fb": "https://www.facebook.com/JumpinGymU.S.A/",
        "brand": "冒險樂園",
        "lat": 22.2483068,
        "lon": 114.1524398
    },
    {
        "name": "冒險樂園",
        "address": "小西灣藍灣廣場一樓101B號",
        "district": "小西灣",
        "areas": "香港島",
        "image": "https://www.jumpingym.com/image/data/logo_forward.jpg",
        "fb": "https://www.facebook.com/JumpinGymU.S.A/",
        "brand": "冒險樂園",
        "lat": 22.2659424,
        "lon": 114.2490227
    },
    {
        "name": "冒險樂園",
        "address": "新界大埔富善邨商場地下 GM01A & GM01B",
        "district": "大埔",
        "areas": "新界區",
        "image": "https://www.jumpingym.com/image/data/logo_forward.jpg",
        "fb": "https://www.facebook.com/JumpinGymU.S.A/",
        "brand": "冒險樂園",
        "lat": 22.453942,
        "lon": 114.174515
    },
    {
        "name": "冒險樂園",
        "address": "新界粉嶺新運路33號粉嶺中心地下G158A,158-166號舖",
        "district": "粉嶺",
        "areas": "新界區",
        "image": "https://www.jumpingym.com/image/data/logo_forward.jpg",
        "fb": "https://www.facebook.com/JumpinGymU.S.A/",
        "brand": "冒險樂園",
        "lat": 22.490642,
        "lon": 114.141778599999
    },
    {
        "name": "冒險樂園",
        "address": "將軍澳新都城3期1樓155,182-188號舖",
        "district": "將軍澳",
        "areas": "新界區",
        "image": "https://www.jumpingym.com/image/data/logo_forward.jpg",
        "fb": "https://www.facebook.com/JumpinGymU.S.A/",
        "brand": "冒險樂園",
        "lat": 22.322381,
        "lon": 114.257139
    },
    {
        "name": "Gotcha",
        "address": "將軍澳將軍澳廣場2樓077-078號舖",
        "district": "將軍澳",
        "areas": "新界區",
        "openHours": "10:00–22:00",
        "image": "https://scontent.fhkg4-1.fna.fbcdn.net/v/t1.0-9/33532977_1800221720286571_3879669938733973504_o.jpg?_nc_cat=101&_nc_oc=AQnUony74KLo-_Akj5msC-kiY8zSc6KgL_EQtLt_fwhPNOwY6_waSZqLBZiBB7xX23M&_nc_ht=scontent.fhkg4-1.fna&oh=913639b43204861b9b876d452c8ac984&oe=5DC1BEFC",
        "fb": "https://www.facebook.com/GotchaHK/",
        "brand": "Gotcha",
        "lat": 22.308869,
        "lon": 114.262446
    },
    {
        "name": "NAMCO PopCorn店",
        "address": "將軍澳唐俊街9號PopCorn 2期1樓F111及F112舖",
        "district": "將軍澳",
        "areas": "新界區",
        "desc": "來自日本的NAMCO在新界、九龍都設有分店，店內有夾公仔機、貼紙相機、擲彩虹等遊戲。而且不少夾公仔機內的貨品都是由日本直送，款式又多，另外，店內的UFO夾公仔機尤其多！",
        "image": "https://scontent.fhkg4-2.fna.fbcdn.net/v/t1.0-9/26220109_1585229458227215_4345640434871050398_n.jpg?_nc_cat=111&_nc_oc=AQkID3cpg2kaHuNt2D_YC7uJOXJHlrZLMar9SM8md93zuHAZcM59h-AxrQVTgDjaQfQ&_nc_ht=scontent.fhkg4-2.fna&oh=c1ff313496fb9f4bba03ded276d389fb&oe=5DC47C7F",
        "fb": "https://www.facebook.com/namco.hk/",
        "brand": "NAMCO",
        "lat": 22.308089,
        "lon": 114.259725
    },
    {
        "name": "冒險樂園",
        "address": "新界葵芳榮芳路9號恒景花園商場101-102號舖",
        "district": "葵芳",
        "areas": "新界區",
        "image": "https://www.jumpingym.com/image/data/logo_forward.jpg",
        "fb": "https://www.facebook.com/JumpinGymU.S.A/",
        "brand": "冒險樂園",
        "lat": 22.360465,
        "lon": 114.127839
    },
    {
        "name": "TAKE ME OUT 夾公仔機專門店",
        "address": "葵芳葵涌廣場3083號舖",
        "district": "葵芳",
        "areas": "新界區",
        "image": "https://scontent.fhkg4-1.fna.fbcdn.net/v/t1.0-9/53850273_594953354337739_8611386867016794112_n.jpg?_nc_cat=102&_nc_oc=AQmYgOBJJb2LUKgEcCXgNESuhtT3VcUB3c8rFSvU8Nms8UC6bpWHNoTTeqBufUqK86M&_nc_ht=scontent.fhkg4-1.fna&oh=eb2517f7602e34f945768d97938a4259&oe=5D907F83",
        "fb": "https://www.facebook.com/takemeouthongkong/",
        "brand": "TAKE ME OUT 夾公仔機專門店",
        "lat": 22.358087,
        "lon": 114.127985
    },
    {
        "name": "冒險樂園",
        "address": "葵涌村葵涌商場2樓208號舖",
        "district": "葵涌",
        "areas": "新界區",
        "image": "https://www.jumpingym.com/image/data/logo_forward.jpg",
        "fb": "https://www.facebook.com/JumpinGymU.S.A/",
        "brand": "冒險樂園",
        "lat": 22.367432,
        "lon": 114.127704999999
    },
    {
        "name": "Dream Gotcha 夢の抓物店",
        "address": "葵涌廣場3樓80號舖及303E號舖",
        "district": "葵涌",
        "areas": "新界區",
        "image": "https://scontent.fhkg4-2.fna.fbcdn.net/v/t1.0-9/48393801_571017376657223_2852215411074662400_n.jpg?_nc_cat=109&_nc_oc=AQm--Lmc6-0fX1IYH_WLTYvDKUbO4RMUD_BFNa05z3QtDrgQVjgHgjwHoAfrVqNvrCY&_nc_ht=scontent.fhkg4-2.fna&oh=36eae1d920521fbc34286e51d36b41a8&oe=5D8F2418",
        "fb": "https://www.facebook.com/DreamGotcha/",
        "brand": "Dream Gotcha 夢の抓物店",
        "lat": 22.357962,
        "lon": 114.127994
    },
    {
        "name": "Lucky Hand 禮品專門店",
        "address": "葵涌葵富路11號葵涌廣場2樓潮流廊2001舖",
        "district": "葵涌",
        "areas": "新界區",
        "desc": "Lucky Hand 幸運禮品有限公司是一家專注於為市民帶來歡樂，提供一個老少咸宜的娛樂悠閒新去處的公司。",
        "image": "https://scontent.fhkg4-2.fna.fbcdn.net/v/t1.0-9/59727594_2850538451751798_670500551602995200_o.jpg?_nc_cat=104&_nc_ht=scontent.fhkg4-2.fna&oh=f22ce3deecc4858213c019fb6d4338e4&oe=5D521182",
        "fb": "https://www.facebook.com/luckyhandhk/",
        "brand": "Lucky Hand 禮品專門店",
        "video": "https://youtu.be/X2hRZR5hlvI",
        "lat": 22.358051,
        "lon": 114.128058
    },
    {
        "name": "冒險樂園",
        "address": "新界馬鞍山海濱鞍駿街15號雅濤居購物商場一樓 32-38 及 42 號",
        "district": "馬鞍山",
        "areas": "新界區",
        "image": "https://www.jumpingym.com/image/data/logo_forward.jpg",
        "fb": "https://www.facebook.com/JumpinGymU.S.A/",
        "brand": "冒險樂園",
        "lat": 22.424878,
        "lon": 114.228144
    },
    {
        "name": "冒險樂園",
        "address": "青衣長發商場2樓226號舖",
        "district": "青衣",
        "areas": "新界區",
        "image": "https://www.jumpingym.com/image/data/logo_forward.jpg",
        "fb": "https://www.facebook.com/JumpinGymU.S.A/",
        "brand": "冒險樂園",
        "lat": 22.3624341,
        "lon": 114.103317
    },
    {
        "name": "冒險樂園",
        "address": "新界荃灣德士古道36-60號, 荃薈 二樓 S207-S209, S213-S214號舖",
        "district": "荃灣",
        "areas": "新界區",
        "image": "https://www.jumpingym.com/image/data/logo_forward.jpg",
        "fb": "https://www.facebook.com/JumpinGymU.S.A/",
        "brand": "冒險樂園",
        "lat": 22.3683922,
        "lon": 114.121709199999
    },
    {
        "name": "冒險樂園",
        "address": "荃灣愉景新城購物中心3樓3001號舖",
        "district": "荃灣",
        "areas": "新界區",
        "image": "https://www.jumpingym.com/image/data/logo_forward.jpg",
        "fb": "https://www.facebook.com/JumpinGymU.S.A/",
        "brand": "冒險樂園",
        "lat": 22.3761759,
        "lon": 114.111792499999
    },
    {
        "name": "一爪入魂 台式夾公仔",
        "address": "荃灣大河道10-20號地皇廣場 1/F",
        "district": "荃灣",
        "areas": "新界區",
        "openHours": "09:00–00:00",
        "brand": "一爪入魂",
        "lat": 22.372712,
        "lon": 114.116323
    },
    {
        "name": "Lucky Hand 禮品專門店",
        "address": "荃灣眾安街68號荃灣千色匯68號2樓2033A",
        "district": "荃灣",
        "areas": "新界區",
        "desc": "Lucky Hand 幸運禮品有限公司是一家專注於為市民帶來歡樂，提供一個老少咸宜的娛樂悠閒新去處的公司。",
        "image": "https://scontent.fhkg4-2.fna.fbcdn.net/v/t1.0-9/59727594_2850538451751798_670500551602995200_o.jpg?_nc_cat=104&_nc_ht=scontent.fhkg4-2.fna&oh=f22ce3deecc4858213c019fb6d4338e4&oe=5D521182",
        "fb": "https://www.facebook.com/luckyhandhk/",
        "brand": "Lucky Hand 禮品專門店",
        "lat": 22.370741,
        "lon": 114.117759
    },
    {
        "name": "NAMCO愉景新城店",
        "address": "荃灣D.PARK愉景新城2樓2071號舖",
        "district": "荃灣",
        "areas": "新界區",
        "desc": "來自日本的NAMCO在新界、九龍都設有分店，店內有夾公仔機、貼紙相機、擲彩虹等遊戲。而且不少夾公仔機內的貨品都是由日本直送，款式又多，另外，店內的UFO夾公仔機尤其多！",
        "image": "https://scontent.fhkg4-2.fna.fbcdn.net/v/t1.0-9/26220109_1585229458227215_4345640434871050398_n.jpg?_nc_cat=111&_nc_oc=AQkID3cpg2kaHuNt2D_YC7uJOXJHlrZLMar9SM8md93zuHAZcM59h-AxrQVTgDjaQfQ&_nc_ht=scontent.fhkg4-2.fna&oh=c1ff313496fb9f4bba03ded276d389fb&oe=5DC47C7F",
        "fb": "https://www.facebook.com/namco.hk/",
        "brand": "NAMCO",
        "lat": 2.376229,
        "lon": 114.111758
    },
    {
        "name": "NAMCO荃新天地店",
        "address": "荃灣荃新天地2期UG層UG26-28及UG37-38號舖",
        "district": "荃灣",
        "areas": "新界區",
        "desc": "來自日本的NAMCO在新界、九龍都設有分店，店內有夾公仔機、貼紙相機、擲彩虹等遊戲。而且不少夾公仔機內的貨品都是由日本直送，款式又多，另外，店內的UFO夾公仔機尤其多！",
        "image": "https://scontent.fhkg4-2.fna.fbcdn.net/v/t1.0-9/26220109_1585229458227215_4345640434871050398_n.jpg?_nc_cat=111&_nc_oc=AQkID3cpg2kaHuNt2D_YC7uJOXJHlrZLMar9SM8md93zuHAZcM59h-AxrQVTgDjaQfQ&_nc_ht=scontent.fhkg4-2.fna&oh=c1ff313496fb9f4bba03ded276d389fb&oe=5DC47C7F",
        "fb": "https://www.facebook.com/namco.hk/",
        "brand": "NAMCO",
        "lat": 22.368171,
        "lon": 114.114467
    },
    {
        "name": "TAKE ME OUT 夾公仔機專門店",
        "address": "荃灣大河道18號地皇商場2樓247 & 248號舖",
        "district": "荃灣",
        "areas": "新界區",
        "image": "https://scontent.fhkg4-1.fna.fbcdn.net/v/t1.0-9/53850273_594953354337739_8611386867016794112_n.jpg?_nc_cat=102&_nc_oc=AQmYgOBJJb2LUKgEcCXgNESuhtT3VcUB3c8rFSvU8Nms8UC6bpWHNoTTeqBufUqK86M&_nc_ht=scontent.fhkg4-1.fna&oh=eb2517f7602e34f945768d97938a4259&oe=5D907F83",
        "fb": "https://www.facebook.com/takemeouthongkong/",
        "brand": "TAKE ME OUT 夾公仔機專門店",
        "lat": 22.372857,
        "lon": 114.116214
    },
    {
        "name": "TAKE ME OUT 夾公仔機專門店",
        "address": "荃灣大河道18號地皇商場1樓110-114，119A-D號舖",
        "district": "荃灣",
        "areas": "新界區",
        "image": "https://scontent.fhkg4-1.fna.fbcdn.net/v/t1.0-9/53850273_594953354337739_8611386867016794112_n.jpg?_nc_cat=102&_nc_oc=AQmYgOBJJb2LUKgEcCXgNESuhtT3VcUB3c8rFSvU8Nms8UC6bpWHNoTTeqBufUqK86M&_nc_ht=scontent.fhkg4-1.fna&oh=eb2517f7602e34f945768d97938a4259&oe=5D907F83",
        "fb": "https://www.facebook.com/takemeouthongkong/",
        "brand": "TAKE ME OUT 夾公仔機專門店",
        "lat": 22.372857,
        "lon": 114.116214
    },
    {
        "name": "冒險樂園",
        "address": "沙田希爾頓中心3樓68-74號舖",
        "district": "沙田",
        "areas": "新界區",
        "openHours": "星期一至四\n10:30–22:00\n星期五至日\n10:30–22:30",
        "image": "https://www.jumpingym.com/image/data/logo_forward.jpg",
        "fb": "https://www.facebook.com/JumpinGymU.S.A/",
        "brand": "冒險樂園",
        "lat": 22.3791236,
        "lon": 114.18687
    },
    {
        "name": "冒險樂園",
        "address": "沙田禾輋廣場R1號舖",
        "district": "沙田",
        "areas": "新界區",
        "image": "https://www.jumpingym.com/image/data/logo_forward.jpg",
        "fb": "https://www.facebook.com/JumpinGymU.S.A/",
        "brand": "冒險樂園",
        "lat": 22.3881686,
        "lon": 114.1948267
    },
    {
        "name": "Gotcha",
        "address": "沙田安群街3號 京瑞廣場1期2樓263號舖",
        "district": "沙田",
        "areas": "新界區",
        "openHours": "10:00–22:00",
        "image": "https://scontent.fhkg4-1.fna.fbcdn.net/v/t1.0-9/33532977_1800221720286571_3879669938733973504_o.jpg?_nc_cat=101&_nc_oc=AQnUony74KLo-_Akj5msC-kiY8zSc6KgL_EQtLt_fwhPNOwY6_waSZqLBZiBB7xX23M&_nc_ht=scontent.fhkg4-1.fna&oh=913639b43204861b9b876d452c8ac984&oe=5DC1BEFC",
        "fb": "https://www.facebook.com/GotchaHK/",
        "brand": "Gotcha",
        "lat": 22.388274,
        "lon": 114.208053
    },
    {
        "name": "冒險樂園",
        "address": "上水名都商場2樓31A-31B號舖",
        "district": "上水",
        "areas": "新界區",
        "image": "https://www.jumpingym.com/image/data/logo_forward.jpg",
        "fb": "https://www.facebook.com/JumpinGymU.S.A/",
        "brand": "冒險樂園",
        "lat": 22.501213,
        "lon": 114.131665
    },
    {
        "name": "冒險樂園",
        "address": "新界天水圍天靖街3號天盛商場1樓126號舖",
        "district": "天水圍",
        "areas": "新界區",
        "image": "https://www.jumpingym.com/image/data/logo_forward.jpg",
        "fb": "https://www.facebook.com/JumpinGymU.S.A/",
        "brand": "冒險樂園",
        "lat": 22.4479168,
        "lon": 114.0020846
    },
    {
        "name": "Bitcoin Panda 夾公仔",
        "address": "天水圍天一商城2076號鋪",
        "district": "天水圍",
        "areas": "新界區",
        "image": "https://scontent.fhkg4-2.fna.fbcdn.net/v/t1.0-9/56542021_1003715909821718_1273136947732152320_n.jpg?_nc_cat=111&_nc_oc=AQmlvJaWwzcsbLszb3KFaUjT8Xh3FScjYn987A1dILgxIhjg5Z7YhigNR53hdjQNvcA&_nc_ht=scontent.fhkg4-2.fna&oh=227a9ee155381f08f079402a81582ca8&oe=5D85F68E",
        "fb": "https://www.facebook.com/Bitcoin-Panda-%E5%A4%BE%E5%85%AC%E4%BB%94-1003715309821778/",
        "brand": "Bitcoin Panda 夾公仔",
        "lat": 22.464862,
        "lon": 114.002994
    },
    {
        "name": "夾得爽 選物販賣機店",
        "address": "屯門置樂利寶大廈1樓89號",
        "district": "屯門",
        "areas": "新界區",
        "image": "https://scontent.fhkg4-2.fna.fbcdn.net/v/t1.0-9/43037167_338321156920937_1534494744304943104_o.jpg?_nc_cat=109&_nc_ht=scontent.fhkg4-2.fna&oh=06f7e0e27e89adc7a40947e5cfcb8a99&oe=5D9E5E01",
        "fb": "https://www.facebook.com/%E5%A4%BE%E5%BE%97%E7%88%BD-%E9%81%B8%E7%89%A9%E8%B2%A9%E8%B3%A3%E6%A9%9F%E5%BA%97-321594321926954/",
        "brand": "夾得爽",
        "lat": 22.38864,
        "lon": 113.97947
    },
    {
        "name": "冒險樂園",
        "address": "屯門蝴蝶廣場二樓R312號舖",
        "district": "屯門",
        "areas": "新界區",
        "image": "https://www.jumpingym.com/image/data/logo_forward.jpg",
        "fb": "https://www.facebook.com/JumpinGymU.S.A/",
        "brand": "冒險樂園",
        "lat": 22.3747555,
        "lon": 113.9634072
    },
    {
        "name": "冒險樂園",
        "address": "屯門友愛路友愛邨H.A.N.D.S商場S區S-220,S-221及S-222號舖",
        "district": "屯門",
        "areas": "新界區",
        "image": "https://www.jumpingym.com/image/data/logo_forward.jpg",
        "fb": "https://www.facebook.com/JumpinGymU.S.A/",
        "brand": "冒險樂園",
        "lat": 22.3876636,
        "lon": 113.9732905
    },
    {
        "name": "冒險樂園",
        "address": "屯門石排頭徑一號卓爾居3樓302室",
        "district": "屯門",
        "areas": "新界區",
        "image": "https://www.jumpingym.com/image/data/logo_forward.jpg",
        "fb": "https://www.facebook.com/JumpinGymU.S.A/",
        "brand": "冒險樂園",
        "lat": 22.400294,
        "lon": 113.973267
    },
    {
        "name": "冒險樂園",
        "address": "屯門良景廣場3樓326-328號舖",
        "district": "屯門",
        "areas": "新界區",
        "image": "https://www.jumpingym.com/image/data/logo_forward.jpg",
        "fb": "https://www.facebook.com/JumpinGymU.S.A/",
        "brand": "冒險樂園",
        "lat": 22.4061924,
        "lon": 113.9630326
    },
    {
        "name": "實夾島——最好夾的夾公仔專門店",
        "address": "屯門安定友愛商場H.A.N.D.S 2樓H216鋪",
        "district": "屯門",
        "areas": "新界區",
        "is24": true,
        "image": "https://scontent.fhkg4-2.fna.fbcdn.net/v/t1.0-9/50879324_2103574559724599_2143246701417201664_o.jpg?_nc_cat=111&_nc_ht=scontent.fhkg4-2.fna&oh=d26065907be53b93392476eb70495402&oe=5D8BB221",
        "fb": "https://www.facebook.com/toysisland216/",
        "brand": "實夾島",
        "lat": 22.388029,
        "lon": 113.975674
    },
    {
        "name": "屯門華都c.c.選物販賣機",
        "address": "屯門華都商場一樓21B鋪",
        "district": "屯門",
        "areas": "新界區",
        "image": "https://scontent.fhkg4-2.fna.fbcdn.net/v/t1.0-9/58377590_854039468264817_2299847612825600000_o.jpg?_nc_cat=104&_nc_ht=scontent.fhkg4-2.fna&oh=d562678f6bd02bb37b5cdbdd2d612b75&oe=5D9DA1CE",
        "fb": "https://www.facebook.com/%E5%B1%AF%E9%96%80%E8%8F%AF%E9%83%BDcc%E9%81%B8%E7%89%A9%E8%B2%A9%E8%B3%A3%E6%A9%9F-833518146983616/",
        "brand": "屯門華都c.c.選物販賣機",
        "video": "https://www.youtube.com/watch?v=DchTiPms1XQ",
        "lat": 22.391941,
        "lon": 113.977908
    },
    {
        "name": "銀河夾夾樂",
        "address": "屯門夾公仔專區 香港新界屯門青山坊2號壹號總站(One Terminal)1號鋪，16、17 號舖（電梯轉左）",
        "district": "屯門",
        "areas": "新界區",
        "fb": "https://www.instagram.com/galaxy_magicdoll/?hl=zh-hk",
        "brand": "銀河夾夾樂",
        "lat": 22.388999,
        "lon": 113.979433
    },
    {
        "name": "銀河夾夾樂",
        "address": "屯門栢麗廣場108號舖 ",
        "district": "屯門",
        "areas": "新界區",
        "fb": "https://www.instagram.com/galaxy_magicdoll/?hl=zh-hk",
        "brand": "銀河夾夾樂",
        "lat": 22.391027,
        "lon": 113.977224
    },
    {
        "name": "冒險樂園",
        "address": "新界元朗朗屏路1號朗屏商場M010-M014舖",
        "district": "元朗",
        "areas": "新界區",
        "image": "https://www.jumpingym.com/image/data/logo_forward.jpg",
        "fb": "https://www.facebook.com/JumpinGymU.S.A/",
        "brand": "冒險樂園",
        "lat": 22.4503594,
        "lon": 114.0227946
    },
    {
        "name": "選物販賣機",
        "address": "元朗雞地鳳群街萬豐商場12號地鋪",
        "district": "元朗",
        "areas": "新界區",
        "is24": true,
        "image": "https://scontent.fhkg4-2.fna.fbcdn.net/v/t1.0-9/62000112_2281360538784765_3702703748401856512_o.jpg?_nc_cat=106&_nc_ht=scontent.fhkg4-2.fna&oh=73eac917b8c6ed153ffd7caa6bd6cc20&oe=5D838099",
        "fb": "https://www.facebook.com/GapGapClaw/",
        "brand": "選物販賣機",
        "lat": 22.44287,
        "lon": 114.034379
    },
    {
        "name": "選物販賣機",
        "address": "元朗大馬路喜利商場1樓14號舖",
        "district": "元朗",
        "areas": "新界區",
        "openHours": "10:00-22:00",
        "fb": "https://www.facebook.com/GapGapClaw/",
        "brand": "選物販賣機",
        "lat": 22.444792,
        "lon": 114.025319
    },
    {
        "name": "Cutie Shop",
        "address": "元朗大馬路福德樓地下4號舖(元朗廣場鈄對面)",
        "district": "元朗",
        "areas": "新界區",
        "desc": "這間真趣緻 Cutie Shop位於元朗，很多區內居民及夾公仔高手都知道這店。最大特色便是店內貨品全都是受歡迎又可愛的卡通人物，而且店家每日都會在facebook群組更新動態，向大家介紹最新到貨的公仔。",
        "openHours": "14:00–00:00",
        "image": "https://scontent.fhkg4-2.fna.fbcdn.net/v/t31.0-8/135226_565103413507127_1401055908_o.png?_nc_cat=106&_nc_oc=AQm501SlI1bVQU2OI48p5PkLYMSciFzbZnrvgqhC6oFAyFqq1qqMrU3fAnV5ss4Up7k&_nc_ht=scontent.fhkg4-2.fna&oh=62c1428a7e36a52ff17e5a8905425591&oe=5DC43A6E",
        "fb": "https://www.facebook.com/%E7%9C%9F%E8%B6%A3%E7%B7%BB-Cutie-Shop-%E9%A6%99%E6%B8%AF%E5%A4%BE%E5%85%AC%E4%BB%94%E5%A5%BD%E5%8E%BB%E8%99%95-565099026840899/",
        "brand": "Cutie Shop",
        "lat": 22.44432,
        "lon": 114.024596
    },
    {
        "name": "TAKE ME OUT 夾公仔機專門店",
        "address": "元朗教育路1號千色匯2樓60號舖",
        "district": "元朗",
        "areas": "新界區",
        "image": "https://scontent.fhkg4-1.fna.fbcdn.net/v/t1.0-9/53850273_594953354337739_8611386867016794112_n.jpg?_nc_cat=102&_nc_oc=AQmYgOBJJb2LUKgEcCXgNESuhtT3VcUB3c8rFSvU8Nms8UC6bpWHNoTTeqBufUqK86M&_nc_ht=scontent.fhkg4-1.fna&oh=eb2517f7602e34f945768d97938a4259&oe=5D907F83",
        "fb": "https://www.facebook.com/takemeouthongkong/",
        "brand": "TAKE ME OUT 夾公仔機專門店",
        "lat": 22.442722,
        "lon": 114.028398
    },
    {
        "name": "TAKE ME OUT 夾公仔機專門店",
        "address": "元朗教育路68號地舖",
        "district": "元朗",
        "areas": "新界區",
        "image": "https://scontent.fhkg4-1.fna.fbcdn.net/v/t1.0-9/53850273_594953354337739_8611386867016794112_n.jpg?_nc_cat=102&_nc_oc=AQmYgOBJJb2LUKgEcCXgNESuhtT3VcUB3c8rFSvU8Nms8UC6bpWHNoTTeqBufUqK86M&_nc_ht=scontent.fhkg4-1.fna&oh=eb2517f7602e34f945768d97938a4259&oe=5D907F83",
        "fb": "https://www.facebook.com/takemeouthongkong/",
        "brand": "TAKE ME OUT 夾公仔機專門店",
        "lat": 22.443328,
        "lon": 114.026143
    }
]
