[
    {
        "id": 20,
        "name": "8.22 中學生集會",
        "address": "中環愛丁堡廣場",
        "district": "中環",
        "areas": "香港島",
        "desc": "圖片來源：網絡圖片\n\n資料來源： https://https://www.nearsnake.com/event-pro/22nd-august-hk-student-assembly-2019/\n\n集合時間：2019年8月22日（星期四）下午3時 ‑ 7時30分\n集合地點：中環愛丁堡廣場\n\n有中學生於連登討論區發起「8.22 香港中學生反修例集會」，揚言「我雖勢弱言輕，決不虛作無聲」，並強調這是純和平集會",
        "image": "https://na.cx/i/kigEQj5.jpg",
        "brand": "8.22",
        "lat": 22.282891,
        "lon": 114.161549
    },
    {
        "id": 21,
        "name": "8.23 基督徒集會",
        "address": "中環遮打花園",
        "district": "中環",
        "areas": "香港島",
        "desc": "圖片來源：網絡圖片\n\n資料來源： https://lihkg.com/thread/1430176/page/1\n\n集合時間：2019年8月23日 (星期五) 下午7時 ‑ 9時\n集合地點：中環遮打花園",
        "image": "https://na.cx/i/BgBC2Qz.jpg",
        "brand": "8.23",
        "lat": 22.2804504,
        "lon": 114.16122
    },
    {
        "id": 22,
        "name": "8.23 萬人牽手爭民主",
        "address": "觀塘",
        "district": "觀塘",
        "areas": "九龍區",
        "desc": "圖片來源：網絡圖片\n\n資料來源： https://lihkg.com/thread/1489422/page/1\n\n集合時間：2019年8月23日 (星期五) 下午7時 ‑ 8時\n集合地點：港九及新界港鐵沿線地區",
        "image": "https://static.appledaily.hk/images/apple-photos/apple/20190820/large/1566232301_0217.jpg",
        "brand": "8.23",
        "lat": 22.3103686,
        "lon": 114.2227035
    },
    {
        "id": 23,
        "name": "8.23 會計界遊行",
        "address": "中環遮打花園",
        "district": "中環",
        "areas": "香港島",
        "desc": "圖片來源：網絡圖片\n\n資料來源： https://thestandnews.com/politics/%E9%80%B1%E4%BA%94%E6%9C%83%E8%A8%88%E7%95%8C%E9%81%8A%E8%A1%8C-%E5%9F%BA%E7%9D%A3%E5%BE%92%E9%9B%86%E6%9C%83-%E5%B7%B2%E7%8D%B2%E7%99%BC%E4%B8%8D%E5%8F%8D%E5%B0%8D%E9%80%9A%E7%9F%A5%E6%9B%B8/\n\n集合時間：2019年8月23日 (星期五) 下午12時30分\n集合地點：中環遮打花園\n路線：由中環遮打花園遊行至金鐘政府總部",
        "image": "https://na.cx/i/5yF1V2T.png",
        "brand": "8.23",
        "lat": 22.2804504,
        "lon": 114.16122
    },
    {
        "id": 24,
        "name": "8.23 銀髪族響應罷買行動",
        "address": "沙田新城市廣場",
        "district": "沙田",
        "areas": "新界區",
        "desc": "圖片來源：網絡圖片\n\n資料來源： https://www.facebook.com/silverhairgroup/photos/a.845836899128469/870873949958097/?type=3&theater\n\n集合時間：2019年8月23日 (星期五) 中午十二時至下午六時\n集會地點：沙田新城市廣場\n\n「窗櫥遊走 攰就抖抖Bye Buy Day」守則，保你平安！",
        "image": "https://scontent-hkg3-1.xx.fbcdn.net/v/t1.0-9/69005102_870873953291430_4438705884163473408_n.jpg?_nc_cat=105&_nc_oc=AQk0hQhP_GsOoIYAA-Fbi-gkv5K_KuV8QimvO-KPAlslZuqxgaJ8Po8EfyvBWkVTDuo&_nc_ht=scontent-hkg3-1.xx&oh=4751f56ca9bf4947275a741b3ea1b58c&oe=5E129CC4",
        "brand": "8.23",
        "lat": 22.3820067,
        "lon": 114.1883339
    },
    {
        "id": 25,
        "name": "8.24 和你塞",
        "address": "香港國際機場",
        "district": "赤鱲角",
        "areas": "離島區",
        "desc": "圖片來源：網絡圖片\n\n資料來源： https://www.facebook.com/silverhairgroup/photos/a.845836899128469/870873949958097/?type=3&theater\n\n集合時間：2019年8月24日 (星期六) 中午十二時\n集會地點：機場主要幹道",
        "image": "https://na.cx/i/tzxTRhD.jpg",
        "brand": "8.24",
        "lat": 22.308047,
        "lon": 113.9184808
    },
    {
        "id": 26,
        "name": "8.24 觀塘遊行",
        "address": "駿業街公園遊樂場",
        "district": "觀塘",
        "areas": "九龍區",
        "desc": "圖片來源：網絡圖片\n\n資料來源： https://www.facebook.com/silverhairgroup/photos/a.845836899128469/870873949958097/?type=3&theater\n\n集合時間：2019年8月24日 (星期六) 下午1時 ‑ 4時\n集會地點：駿業街公園遊樂場\n遊行路線：駿業街公園遊樂場->駿業街->海濱道->勵業街->觀塘道->翠屏道->觀塘泳池外空地解散\n民眾解散路線：沿觀塘或藍田地鐵站方向解散\n\n主題：「燃點香港·全民覺醒」",
        "image": "https://na.cx/i/QQbMdCo.jpg",
        "brand": "8.24",
        "lat": 22.2862956,
        "lon": 114.2169914
    },
    {
        "id": 27,
        "name": "8.24 與神同行 唱詩活動",
        "address": "中環遮打花園",
        "district": "中環",
        "areas": "香港島",
        "desc": "圖片來源：網絡圖片\n\n資料來源： https://www.hkdreamers.com/events/20190810-walking-with-god/\n\n集合時間：2019年8月24日 (星期六) 下午7時 ‑ 10時半\n集會地點：中途途經律政中心及禮賓府公眾活動區",
        "image": "https://www.hkdreamers.com/live/wp-content/uploads/2019/08/scontent.fhkg10-1.fna_.fbcdn_.png",
        "brand": "8.24",
        "lat": 22.2804504,
        "lon": 114.16122
    },
    {
        "id": 28,
        "name": "8.25 還警於民 警察家屬集會",
        "address": "中環愛丁堡廣場",
        "district": "中環",
        "areas": "香港島",
        "desc": "圖片來源：網絡圖片\n\n資料來源： https://thestandnews.com/politics/警察家屬擬-8-25-集會遊行籲-還警於民-促政府設獨立調查委員會-挽救殘局/?fbclid=IwAR3YsGpnDBr9l9jAuyABhqqOEo6wTjg3a-4VhzAvww6owaY-52lvu-CaOPg\n\n集合時間：2019年8月25日 (星期日) 下午2點\n集會地點：中環愛丁堡廣場\n\n集會過後，親屬隊伍將步行至警總及特首辦遞交請願信。",
        "image": "https://cdn.thestandnews.com/media/photos/cache/police-03_c1W0z_1200x0.png",
        "brand": "8.25",
        "lat": 22.282891,
        "lon": 114.161549
    },
    {
        "id": 29,
        "name": "8.25 荃葵青遊行",
        "address": "葵芳(南)巴士總站",
        "district": "葵芳",
        "areas": "新界區",
        "desc": "圖片來源：網絡圖片\n\n資料來源：https://www.nearsnake.com/event-pro/25th-august-tsuan-wan-kwai-tsing-march-2019/\n\n日期：2019年8月25日（日）\n時間：1500（集會）｜1530（遊行出發）\n地點：葵芳(南)巴士總站\n路線：葵芳(南)巴士總站 → 荃灣公園",
        "image": "https://na.cx/i/Qebho8C.jpg",
        "brand": "8.25",
        "lat": 22.3568558,
        "lon": 114.1271495
    },
    {
        "id": 30,
        "name": "8.26 稅局靜坐抗議",
        "address": "灣仔稅務大樓",
        "district": "灣仔",
        "areas": "香港島",
        "desc": "圖片來源：網絡圖片\n\n日期：8月26日\n時間：12:00\n地點：灣仔稅務大樓",
        "image": "https://na.cx/i/pSjy0xq.jpg",
        "brand": "8.26",
        "lat": 22.2796569,
        "lon": 114.1719873
    },
    {
        "id": 31,
        "name": "831再集結",
        "address": "中環遮打花園",
        "district": "中環",
        "areas": "香港島",
        "desc": "圖片來源：網絡圖片\n\n日期：2019年8月31日（星期六）\n時間：下午二時三十分集結，三時起步\n地點：中環遮打花園遊行至中聯辦",
        "image": "https://na.cx/i/0ZLRmgT.png",
        "brand": "8.31",
        "lat": 22.2804504,
        "lon": 114.16122
    }
]
