[
    {
        "id": 1,
        "name": "8.5 金鐘添馬公園",
        "address": "金鐘添馬公園",
        "district": "金鐘",
        "areas": "香港島",
        "desc": "集合時間：下午 1:00\n日期：2019年8月5日（星期一）\n地點：金鐘添馬公園、旺角麥花臣球場、沙田百步梯、大埔廣福球場、荃灣沙咀道球場、黃大仙廣場、屯門公園。\n下午1時開始在添馬公園舉行，料會持續到晚上10至11時。",
        "image": "https://www.android-hk.com/wordpress/wp-content/uploads/2019/08/WhatsApp-Image-2019-08-02-at-6.19.21-PM.jpeg",
        "brand": "8.5",
        "lat": 22.281439,
        "lon": 114.165583
    },
    {
        "id": 2,
        "name": "8.5 旺角麥花臣球場",
        "address": "旺角麥花臣球場",
        "district": "旺角",
        "areas": "九龍區",
        "desc": "集合時間：下午 1:00\n日期：2019年8月5日（星期一）\n地點：金鐘添馬公園、旺角麥花臣球場、沙田百步梯、大埔廣福球場、荃灣沙咀道球場、黃大仙廣場、屯門公園。",
        "image": "https://www.android-hk.com/wordpress/wp-content/uploads/2019/08/WhatsApp-Image-2019-08-02-at-6.19.21-PM.jpeg",
        "brand": "8.5",
        "lat": 22.318206,
        "lon": 114.172322
    },
    {
        "id": 3,
        "name": "8.5 沙田百步梯",
        "address": "沙田百步梯",
        "district": "沙田",
        "areas": "新界區",
        "desc": "集合時間：下午 1:00\n日期：2019年8月5日（星期一）\n地點：金鐘添馬公園、旺角麥花臣球場、沙田百步梯、大埔廣福球場、荃灣沙咀道球場、黃大仙廣場、屯門公園。",
        "image": "https://www.android-hk.com/wordpress/wp-content/uploads/2019/08/WhatsApp-Image-2019-08-02-at-6.19.21-PM.jpeg",
        "brand": "8.5",
        "lat": 22.381339,
        "lon": 114.189545
    },
    {
        "id": 4,
        "name": "8.5 大埔風水廣場",
        "address": "大埔風水廣場",
        "district": "大埔",
        "areas": "新界區",
        "desc": "集合時間：下午 1:00\n日期：2019年8月5日（星期一）\n地點：金鐘添馬公園、旺角麥花臣球場、沙田百步梯、大埔廣福球場、荃灣沙咀道球場、黃大仙廣場、屯門公園。\n下午1時起在大埔風水廣場舉行，料持續到傍晚5至6時。",
        "image": "https://www.android-hk.com/wordpress/wp-content/uploads/2019/08/WhatsApp-Image-2019-08-02-at-6.19.21-PM.jpeg",
        "brand": "8.5",
        "lat": 22.45414,
        "lon": 114.166435
    },
    {
        "id": 5,
        "name": "8.5 荃灣公園",
        "address": "荃灣公園",
        "district": "荃灣",
        "areas": "新界區",
        "desc": "集合時間：下午 1:00\n日期：2019年8月5日（星期一）\n地點：金鐘添馬公園、旺角麥花臣球場、沙田百步梯、大埔廣福球場、荃灣沙咀道球場、黃大仙廣場、屯門公園。",
        "image": "https://www.android-hk.com/wordpress/wp-content/uploads/2019/08/WhatsApp-Image-2019-08-02-at-6.19.21-PM.jpeg",
        "brand": "8.5",
        "lat": 22.367314,
        "lon": 114.113489
    },
    {
        "id": 6,
        "name": "8.5 黃大仙廣場",
        "address": "黃大仙廣場",
        "district": "黃大仙",
        "areas": "九龍區",
        "desc": "集合時間：下午 1:00\n日期：2019年8月5日（星期一）\n地點：金鐘添馬公園、旺角麥花臣球場、沙田百步梯、大埔廣福球場、荃灣沙咀道球場、黃大仙廣場、屯門公園。",
        "image": "https://www.android-hk.com/wordpress/wp-content/uploads/2019/08/WhatsApp-Image-2019-08-02-at-6.19.21-PM.jpeg",
        "brand": "8.5",
        "lat": 22.341918,
        "lon": 114.19468
    },
    {
        "id": 7,
        "name": "8.5 屯門文娛廣場對出空地",
        "address": "屯門文娛廣場對出空地",
        "district": "屯門",
        "areas": "新界區",
        "desc": "集合時間：下午 3:00\n日期：2019年8月5日（星期一）\n地點：金鐘添馬公園、旺角麥花臣球場、沙田百步梯、大埔廣福球場、荃灣沙咀道球場、黃大仙廣場、屯門公園。\n原定在屯門公園舉行，但經有意參加者商討後決定改到地方較大的屯門文娛廣場對出空地。活動在當日下午3時開始，將有嘉賓發言、電影《十年》放映會等。",
        "image": "https://www.android-hk.com/wordpress/wp-content/uploads/2019/08/WhatsApp-Image-2019-08-02-at-6.19.21-PM.jpeg",
        "brand": "8.5",
        "lat": 22.391008,
        "lon": 113.976046
    },
    {
        "id": 8,
        "name": "8.10 大埔",
        "address": "大埔頭巴士總站大埔頭路 → 汀太路 → 轉入汀角路（往風水廣場方向） → 安慈路 → 到八號花園轉入安祥路 → 沿寶鄉橋往家鄉街 → 到麥當勞轉入廣福道 → 運頭角里馬會投注站外",
        "district": "大埔",
        "areas": "新界區",
        "desc": "(待確定 最後更新: 08/03)\n集合時間：下午 3:00\n集合地點：大埔頭巴士總站\n預計大埔路線以大埔頭巴士總站為起點，經寶鄉橋，至運頭角里馬會投注站外完結。\n路線：大埔頭巴士總站大埔頭路 → 汀太路 → 轉入汀角路（往風水廣場方向） → 安慈路 → 到八號花園轉入安祥路 → 沿寶鄉橋往家鄉街 → 到麥當勞轉入廣福道 → 運頭角里馬會投注站外",
        "image": "https://img.ltn.com.tw/Upload/liveNews/BigPic/600_phpzNWPPT.jpg",
        "brand": "8.10",
        "lat": 22.454828,
        "lon": 114.161254
    },
    {
        "id": 9,
        "name": "8.4 將軍澳",
        "address": "寶翠公園 → 寶林北路 (經將軍澳警署對出) → 寶寧路 → 將軍澳政府綜合大樓 → 坑口文曲里連儂牆 → 將軍澳單車館公園",
        "district": "將軍澳",
        "areas": "新界區",
        "desc": "集合時間：下午 2:30\n集合地點：將軍澳寶翠公園\n路線：寶翠公園 → 寶林北路 (經將軍澳警署對出) → 寶寧路 → 將軍澳政府綜合大樓 → 坑口文曲里連儂牆 → 將軍澳單車館公園",
        "image": "https://www.nearsnake.com/wp-content/uploads/2019/07/28th-july-tseung-kwan-o-march-2019_02_1800x935.jpg",
        "brand": "8.4",
        "lat": 22.324763,
        "lon": 114.252602
    },
    {
        "id": 10,
        "name": "8.4 港島西",
        "address": "堅尼地城科士街臨時遊樂場",
        "district": "港島西",
        "areas": "香港島",
        "desc": "集合時間：下午 4:00\n集合地點：堅尼地城科士街臨時遊樂場",
        "image": "https://img.ltn.com.tw/Upload/liveNews/BigPic/600_phpzNWPPT.jpg",
        "brand": "8.4",
        "lat": 22.28138,
        "lon": 114.127721
    },
    {
        "id": 11,
        "name": "8.11 深水埗",
        "address": "花墟公園 → 界限街 → 長沙灣道 → 深水埗運動場",
        "district": "深水埗",
        "areas": "九龍區",
        "desc": "集合時間：下午 2:30（3:00 起步）\n集合地點：界限街花墟公園\n路線：花墟公園 → 界限街 → 長沙灣道 → 深水埗運動場",
        "image": "https://img.ltn.com.tw/Upload/liveNews/BigPic/600_phpzNWPPT.jpg",
        "brand": "8.11",
        "lat": 22.327139,
        "lon": 114.173529
    },
    {
        "id": 12,
        "name": "8.17 紅土",
        "address": "紅磡碼頭 → 九龍城碼頭 → 亞皆老街球場",
        "district": "紅磡",
        "areas": "九龍區",
        "desc": "(待確定 最後更新: 08/03)\n集合時間：下午 3:30（4:00 起步）\n集合地點：紅磡碼頭\n路線：紅磡碼頭 → 九龍城碼頭 → 亞皆老街球場",
        "image": "https://img.ltn.com.tw/Upload/liveNews/BigPic/600_phpzNWPPT.jpg",
        "brand": "8.17",
        "lat": 22.30128,
        "lon": 114.190248
    },
    {
        "id": 13,
        "name": "8.3 旺角",
        "address": "晏架街足球場",
        "district": "旺角",
        "areas": "九龍區",
        "desc": "集合時間：下午 2:30 集合\n集合地點：晏架街足球場",
        "image": "https://img.ltn.com.tw/Upload/liveNews/BigPic/600_phpzNWPPT.jpg",
        "brand": "8.3",
        "lat": 22.319515,
        "lon": 114.164519
    }
]
