[
    {
        "name": "太古城中心",
        "address": "太古城中心第二期103B舖",
        "district": "香港島",
        "desc": "冒險樂園，除了有機動遊戲、拋彩虹等等小遊戲外，大部分的冒險樂園分店，都有夾公仔的地帶！而且公仔非常吸引，有多個人氣卡通俾大家選擇。",
        "brand": "冒險樂園",
        "jpTw": "JP",
        "lat": 22.2861881,
        "lon": 114.2170072
    },
    {
        "name": "小西灣藍灣廣場",
        "address": "小西灣藍灣廣場一樓101B號",
        "district": "香港島",
        "brand": "冒險樂園",
        "jpTw": "JP",
        "lat": 22.2659424,
        "lon": 114.2490227
    },
    {
        "name": "銅鑼灣皇室堡",
        "address": "銅鑼灣告士打道311號皇室堡二樓 215及216B號舖",
        "district": "香港島",
        "brand": "冒險樂園",
        "jpTw": "JP",
        "lat": 22.2803669,
        "lon": 114.1864984
    },
    {
        "name": "香港仔中心",
        "address": "香港仔中心2期2樓1號舖",
        "district": "香港島",
        "brand": "冒險樂園",
        "jpTw": "JP",
        "lat": 22.2483068,
        "lon": 114.1524398
    },
    {
        "name": "黃埔花園",
        "address": "黃埔花園十一期聚寶坊地庫",
        "district": "九龍區",
        "openHours": "星期六\n10:00–22:30\n星期五,日\n10:00–23:00\n星期一至四\n11:00–23:00",
        "brand": "冒險樂園",
        "jpTw": "JP",
        "lat": 22.3053656,
        "lon": 114.1895298
    },
    {
        "name": "尖沙咀海運大厦",
        "address": "尖沙咀海運大厦地下G11號舖",
        "district": "九龍區",
        "brand": "冒險樂園",
        "jpTw": "JP",
        "lat": 22.295181,
        "lon": 114.168004
    },
    {
        "name": "土瓜灣欣榮花園商場",
        "address": "九龍土瓜灣馬頭角道33號欣榮花園商場地下12號舖",
        "district": "九龍區",
        "brand": "冒險樂園",
        "jpTw": "JP",
        "lat": 22.321952,
        "lon": 114.189374
    },
    {
        "name": "九龍城廣場",
        "address": "九龍城廣場B110-111號舖",
        "district": "九龍區",
        "brand": "冒險樂園",
        "jpTw": "JP",
        "lat": 22.331051,
        "lon": 114.188462999999
    },
    {
        "name": "鑽石山荷里活廣場",
        "address": "鑽石山荷里活廣場3樓 316 - 317 號舖",
        "district": "九龍區",
        "brand": "冒險樂園",
        "jpTw": "JP",
        "lat": 22.340722,
        "lon": 114.2022956
    },
    {
        "name": "慈雲山中心",
        "address": "慈雲山中心6樓608-610號舖",
        "district": "九龍區",
        "openHours": "10:30–22:00",
        "brand": "冒險樂園",
        "jpTw": "JP",
        "lat": 22.348177,
        "lon": 114.200585999999
    },
    {
        "name": "藍田啟田商場",
        "address": "藍田啟田商場新翼二樓233-234號舖",
        "district": "九龍區",
        "brand": "冒險樂園",
        "jpTw": "JP",
        "lat": 22.307981,
        "lon": 114.23505
    },
    {
        "name": "深水埗西九龍中心",
        "address": "西九龍中心6樓601B號舖",
        "district": "九龍區",
        "openHours": "11:00–22:00",
        "brand": "冒險樂園",
        "jpTw": "JP",
        "lat": 22.331092,
        "lon": 114.1597845
    },
    {
        "name": "九龍奧海城",
        "address": "九龍奧海城 1期1樓115號舖",
        "district": "九龍區",
        "brand": "冒險樂園",
        "jpTw": "JP",
        "lat": 22.3182712,
        "lon": 114.1583674
    },
    {
        "name": "牛頭角樂華商場",
        "address": "牛頭角振華道70號樂華商場地下121號",
        "district": "九龍區",
        "brand": "冒險樂園",
        "jpTw": "JP",
        "lat": 22.321813,
        "lon": 114.219926
    },
    {
        "name": "觀塘翠屏北邨商場",
        "address": "觀塘翠屏北邨商場地下9B號鋪",
        "district": "九龍區",
        "brand": "冒險樂園",
        "jpTw": "JP",
        "lat": 22.3151148,
        "lon": 114.2269962
    },
    {
        "name": "將軍澳新都城 ",
        "address": "將軍澳新都城3期1樓155,182-188號舖",
        "district": "新界區",
        "brand": "冒險樂園",
        "jpTw": "JP",
        "lat": 22.322381,
        "lon": 114.257139
    },
    {
        "name": "葵芳恒景花園商場",
        "address": "新界葵芳榮芳路9號恒景花園商場101-102號舖",
        "district": "新界區",
        "brand": "冒險樂園",
        "jpTw": "JP",
        "lat": 22.360465,
        "lon": 114.127839
    },
    {
        "name": "屯門卓爾居",
        "address": "屯門石排頭徑一號卓爾居3樓302室",
        "district": "新界區",
        "brand": "冒險樂園",
        "jpTw": "JP",
        "lat": 22.400294,
        "lon": 113.973267
    },
    {
        "name": "屯門蝴蝶商場",
        "address": "屯門蝴蝶廣場二樓R312號舖",
        "district": "新界區",
        "brand": "冒險樂園",
        "jpTw": "JP",
        "lat": 22.3747555,
        "lon": 113.9634072
    },
    {
        "name": "荃灣荃薈",
        "address": "新界荃灣德士古道36-60號, 荃薈 二樓 S207-S209, S213-S214號舖",
        "district": "新界區",
        "brand": "冒險樂園",
        "jpTw": "JP",
        "lat": 22.3683922,
        "lon": 114.121709199999
    },
    {
        "name": "荃灣愉景新城購物中心",
        "address": "荃灣愉景新城購物中心3樓3001號舖",
        "district": "新界區",
        "brand": "冒險樂園",
        "jpTw": "JP",
        "lat": 22.3761759,
        "lon": 114.111792499999
    },
    {
        "name": "沙田希爾頓中心",
        "address": "沙田希爾頓中心3樓68-74號舖",
        "district": "新界區",
        "openHours": "星期一至四\n10:30–22:00\n星期五至日\n10:30–22:30",
        "brand": "冒險樂園",
        "jpTw": "JP",
        "lat": 22.3791236,
        "lon": 114.18687
    },
    {
        "name": "沙田禾輋廣場",
        "address": "沙田禾輋廣場R1號舖",
        "district": "新界區",
        "brand": "冒險樂園",
        "jpTw": "JP",
        "lat": 22.3881686,
        "lon": 114.1948267
    },
    {
        "name": "粉嶺中心",
        "address": "新界粉嶺新運路33號粉嶺中心地下G158A,158-166號舖",
        "district": "新界區",
        "brand": "冒險樂園",
        "jpTw": "JP",
        "lat": 22.490642,
        "lon": 114.141778599999
    },
    {
        "name": "葵涌村葵涌商場",
        "address": "葵涌村葵涌商場2樓208號舖",
        "district": "新界區",
        "brand": "冒險樂園",
        "jpTw": "JP",
        "lat": 22.367432,
        "lon": 114.127704999999
    },
    {
        "name": "青衣長發商場",
        "address": "青衣長發商場2樓226號舖",
        "district": "新界區",
        "brand": "冒險樂園",
        "jpTw": "JP",
        "lat": 22.3624341,
        "lon": 114.103317
    },
    {
        "name": "元朗朗屏商場",
        "address": "新界元朗朗屏路1號朗屏商場M010-M014舖",
        "district": "新界區",
        "brand": "冒險樂園",
        "jpTw": "JP",
        "lat": 22.4503594,
        "lon": 114.0227946
    },
    {
        "name": "天水圍天盛商場",
        "address": "新界天水圍天靖街3號天盛商場1樓126號舖",
        "district": "新界區",
        "brand": "冒險樂園",
        "jpTw": "JP",
        "lat": 22.4479168,
        "lon": 114.0020846
    },
    {
        "name": "大埔富善邨商場",
        "address": "新界大埔富善邨商場地下 GM01A & GM01B",
        "district": "新界區",
        "brand": "冒險樂園",
        "jpTw": "JP",
        "lat": 22.453942,
        "lon": 114.174515
    },
    {
        "name": "屯門良景廣場",
        "address": "屯門良景廣場3樓326-328號舖",
        "district": "新界區",
        "brand": "冒險樂園",
        "jpTw": "JP",
        "lat": 22.4061924,
        "lon": 113.9630326
    },
    {
        "name": "屯門友愛邨H.A.N.D.S商場",
        "address": "屯門友愛路友愛邨H.A.N.D.S商場S區S-220,S-221及S-222號舖",
        "district": "新界區",
        "brand": "冒險樂園",
        "jpTw": "JP",
        "lat": 22.3876636,
        "lon": 113.9732905
    },
    {
        "name": "上水名都商場",
        "address": "上水名都商場2樓31A-31B號舖",
        "district": "新界區",
        "brand": "冒險樂園",
        "jpTw": "JP",
        "lat": 22.501213,
        "lon": 114.131665
    },
    {
        "name": "馬鞍山雅濤居購物商場",
        "address": "新界馬鞍山海濱鞍駿街15號雅濤居購物商場一樓 32-38 及 42 號",
        "district": "新界區",
        "brand": "冒險樂園",
        "jpTw": "JP",
        "lat": 22.424878,
        "lon": 114.228144
    }
]
