[
    {
        "id": 22,
        "name": "肥仔記麵家",
        "address": "西營盤皇后大道西273號",
        "district": "西營盤",
        "areas": "香港島",
        "desc": "有人發夢話：啲阿姐全部喺度鬧學生，連淥麵阿哥都喺度鬧，沒有重點，沒有理據，\n不問原由，不求甚解，一味係咁鬧，鬧到有一句 \"\" 班學生收咗錢 ！\n後生仔食完麵畀錢走人，出門口就問阿姐，知唔知條條例講乜，\n叫佢唔好屈人哋，話人哋收錢\n後生仔走咗之後嗰個不知所謂嘅阿姐用咗三個佢冇嘅男性器官鬧後生仔(當然亦都係冇理佢) \n跟住另一位阿姐就攞個手機黎睇片，又話後生仔 打警察， 係佢阿爸阿媽唔知點算好…………",
        "openHours": "暫沒資料",
        "image": "https://scontent.fhkg4-2.fna.fbcdn.net/v/t1.0-9/68581144_2407886585925385_3088769084318285824_o.jpg?_nc_cat=1&_nc_oc=AQm0KwZ6qjBfyOGQWP4-EPxohKl7R14-kt6AnE5mwf05-hSRXcuBLjYTZEoPZOaHQCI&_nc_ht=scontent.fhkg4-2.fna&oh=72a61468a8ab13ac20dc74a948206c41&oe=5DD08BF0",
        "brand": "肥仔記麵家",
        "lat": 22.287316,
        "lon": 114.142804
    },
    {
        "id": 23,
        "name": "肥仔記麵家",
        "address": "銅鑼灣福興里40號地舖",
        "district": "銅鑼灣",
        "areas": "香港島",
        "desc": "有人發夢話：啲阿姐全部喺度鬧學生，連淥麵阿哥都喺度鬧，沒有重點，沒有理據，\n不問原由，不求甚解，一味係咁鬧，鬧到有一句 \"\" 班學生收咗錢 ！\n後生仔食完麵畀錢走人，出門口就問阿姐，知唔知條條例講乜，\n叫佢唔好屈人哋，話人哋收錢\n後生仔走咗之後嗰個不知所謂嘅阿姐用咗三個佢冇嘅男性器官鬧後生仔(當然亦都係冇理佢) \n跟住另一位阿姐就攞個手機黎睇片，又話後生仔 打警察， 係佢阿爸阿媽唔知點算好…………",
        "openHours": "暫沒資料",
        "image": "https://scontent.fhkg4-2.fna.fbcdn.net/v/t1.0-9/68581144_2407886585925385_3088769084318285824_o.jpg?_nc_cat=1&_nc_oc=AQm0KwZ6qjBfyOGQWP4-EPxohKl7R14-kt6AnE5mwf05-hSRXcuBLjYTZEoPZOaHQCI&_nc_ht=scontent.fhkg4-2.fna&oh=72a61468a8ab13ac20dc74a948206c41&oe=5DD08BF0",
        "brand": "肥仔記麵家",
        "lat": 22.279444,
        "lon": 114.184955
    },
    {
        "id": 25,
        "name": "大發茶餐廳",
        "address": "灣仔大王東街6號",
        "district": "灣仔",
        "areas": "香港島",
        "desc": "原文網址: https://lihkg.com/thread/1215706/page/13\n有人發夢話：呢間鋪疑似老闆既中年男子係退休警員 嗰日去用餐係咁俾佢屌老母同威脅 話認住新聞播嘅幾個人見一鑊打一鑊 又喺度話政府對我地太好 我哋唔感恩之類嘅廢話",
        "openHours": "暫沒資料",
        "image": "https://scontent.fhkg4-2.fna.fbcdn.net/v/t1.0-9/68581144_2407886585925385_3088769084318285824_o.jpg?_nc_cat=1&_nc_oc=AQm0KwZ6qjBfyOGQWP4-EPxohKl7R14-kt6AnE5mwf05-hSRXcuBLjYTZEoPZOaHQCI&_nc_ht=scontent.fhkg4-2.fna&oh=72a61468a8ab13ac20dc74a948206c41&oe=5DD08BF0",
        "brand": "大發茶餐廳",
        "lat": 22.275867,
        "lon": 114.171441
    },
    {
        "id": 41,
        "name": "大家樂",
        "address": "中環添美道1號中信大廈",
        "district": "中環",
        "areas": "香港島",
        "desc": "有人發夢話：昨日大約4時，中信大廈大家樂門外天橋有催淚彈，亦一度有防暴警察駐守。\n當時大家樂成為左唔少中彈市民既急傷站同埋其他人既避難所。\n當值經理突然熄燈熄冷氣，並示意餐廳要關門，請所有人離開",
        "openHours": "暫沒資料",
        "image": "https://scontent.fhkg4-2.fna.fbcdn.net/v/t1.0-9/68581144_2407886585925385_3088769084318285824_o.jpg?_nc_cat=1&_nc_oc=AQm0KwZ6qjBfyOGQWP4-EPxohKl7R14-kt6AnE5mwf05-hSRXcuBLjYTZEoPZOaHQCI&_nc_ht=scontent.fhkg4-2.fna&oh=72a61468a8ab13ac20dc74a948206c41&oe=5DD08BF0",
        "brand": "大家樂",
        "lat": 22.280874,
        "lon": 114.167144
    },
    {
        "id": 47,
        "name": "老虎堂",
        "address": "銅鑼灣渣甸街36號地下3號舖",
        "district": "銅鑼灣",
        "areas": "香港島",
        "desc": "原文網址: https://lihkg.com/thread/1215175/page/1\n\nJune 13\n有人發夢話：無預先請假佢哋係唔啱，但係佢哋都係想守護佢哋嘅城市。\n淨係顧住自己鋪頭生意就係度屌班後生。",
        "openHours": "暫沒資料",
        "image": "https://scontent.fhkg4-2.fna.fbcdn.net/v/t1.0-9/68581144_2407886585925385_3088769084318285824_o.jpg?_nc_cat=1&_nc_oc=AQm0KwZ6qjBfyOGQWP4-EPxohKl7R14-kt6AnE5mwf05-hSRXcuBLjYTZEoPZOaHQCI&_nc_ht=scontent.fhkg4-2.fna&oh=72a61468a8ab13ac20dc74a948206c41&oe=5DD08BF0",
        "brand": "老虎堂",
        "lat": 22.279604,
        "lon": 114.185408
    },
    {
        "id": 50,
        "name": "老虎堂",
        "address": "西灣河筲箕灣道57-87號37A D號舖太安樓",
        "district": "西灣河",
        "areas": "香港島",
        "desc": "原文網址: https://lihkg.com/thread/1215175/page/1\n\nJune 13\n有人發夢話：無預先請假佢哋係唔啱，但係佢哋都係想守護佢哋嘅城市。\n淨係顧住自己鋪頭生意就係度屌班後生。",
        "openHours": "暫沒資料",
        "image": "https://scontent.fhkg4-2.fna.fbcdn.net/v/t1.0-9/68581144_2407886585925385_3088769084318285824_o.jpg?_nc_cat=1&_nc_oc=AQm0KwZ6qjBfyOGQWP4-EPxohKl7R14-kt6AnE5mwf05-hSRXcuBLjYTZEoPZOaHQCI&_nc_ht=scontent.fhkg4-2.fna&oh=72a61468a8ab13ac20dc74a948206c41&oe=5DD08BF0",
        "brand": "老虎堂",
        "lat": 22.282924,
        "lon": 114.222153
    },
    {
        "id": 55,
        "name": "山崎麵飽",
        "address": "連鎖餐廳",
        "district": "香港大學",
        "areas": "香港島",
        "desc": "https://www.facebook.com/HKUSecrets/posts/1090778311123128 \nJune 25\n有人發夢話：今日係彩x漢x食飯， 聽到隔離枱有幾個着恤衫男人同兩個女人係度講緊逃犯條例， 佢地話啲學生係收錢去612去遊行係暴徒阻住地球轉， 呢啲少數人唔代表佢地。 另一個男人話如果佢前兩日要去稅局， 啲學生阻住佢的話， 就會大巴大巴咁摑落佢地度摑醒佢地。 仲話班大學生無腦抵佢地612比警察打。 佢地話今次佔中影響佢地生意， 佢地鋪頭賺少左， 又搞到少左大陸人幫襯。 講多講佢地鋪頭係買麵包， 原來佢地係山x麵包嘅鋪頭負責人☺️ 既然我地兩百萬人係少數，咁以後我唔會再幫襯， 留番比大陸人食啦 《係香港大學站有一間，但唔知佢地賣唔賣比我呢個無腦又暴徒既大學生食？》",
        "openHours": "暫沒資料",
        "image": "https://scontent.fhkg4-2.fna.fbcdn.net/v/t1.0-9/68581144_2407886585925385_3088769084318285824_o.jpg?_nc_cat=1&_nc_oc=AQm0KwZ6qjBfyOGQWP4-EPxohKl7R14-kt6AnE5mwf05-hSRXcuBLjYTZEoPZOaHQCI&_nc_ht=scontent.fhkg4-2.fna&oh=72a61468a8ab13ac20dc74a948206c41&oe=5DD08BF0",
        "brand": "山崎麵飽",
        "lat": 22.284341,
        "lon": 114.134823
    },
    {
        "id": 56,
        "name": "吉野家",
        "address": "香港上環干諾道中168-200號信德中心三樓322 及323號舖",
        "district": "上環",
        "areas": "香港島",
        "desc": "有人發夢話：「反送中」運動遍地開花，市民自發在各區設置連儂牆。近百名配備防暴裝備的持盾警員，日前凌晨前往大埔連儂牆撕走涉警資料便條紙，連鎖餐廳吉野家事後在臉書專頁發表宣傳產品的貼文，當中「唔准叫我獅子狗」的字眼被指辱警。中聯辦主導的《文匯報》及《大公報》報道，吉野家已跟外判廣告公司解約，負責廣告事務的公司員工已亦被解聘。職工盟今午到油麻地吉野家僑江大廈分店抗議，批評解僱工做法屬政治打壓，並呼籲市民「向染紅獅子狗說不！」\n\n報道引述吉野家母公司香港合興集團有限公司總裁、全國政協委員洪明基稱，他最近參加了撐警大會，全力支持特區政府依法施政，對事先不知情感到極為憤怒，亦對事件感到非常痛心。目前涉事廣告已刪除，外判廣告公司遭解約，而負責廣告事務的公司員工亦被解僱。",
        "openHours": "暫沒資料",
        "image": "https://scontent.fhkg4-2.fna.fbcdn.net/v/t1.0-9/68581144_2407886585925385_3088769084318285824_o.jpg?_nc_cat=1&_nc_oc=AQm0KwZ6qjBfyOGQWP4-EPxohKl7R14-kt6AnE5mwf05-hSRXcuBLjYTZEoPZOaHQCI&_nc_ht=scontent.fhkg4-2.fna&oh=72a61468a8ab13ac20dc74a948206c41&oe=5DD08BF0",
        "brand": "吉野家",
        "lat": 22.282186,
        "lon": 114.166005
    },
    {
        "id": 57,
        "name": "吉野家",
        "address": "香港北角英皇道 260 號怡安中心地舖",
        "district": "北角",
        "areas": "香港島",
        "desc": "有人發夢話：「反送中」運動遍地開花，市民自發在各區設置連儂牆。近百名配備防暴裝備的持盾警員，日前凌晨前往大埔連儂牆撕走涉警資料便條紙，連鎖餐廳吉野家事後在臉書專頁發表宣傳產品的貼文，當中「唔准叫我獅子狗」的字眼被指辱警。中聯辦主導的《文匯報》及《大公報》報道，吉野家已跟外判廣告公司解約，負責廣告事務的公司員工已亦被解聘。職工盟今午到油麻地吉野家僑江大廈分店抗議，批評解僱工做法屬政治打壓，並呼籲市民「向染紅獅子狗說不！」\n\n報道引述吉野家母公司香港合興集團有限公司總裁、全國政協委員洪明基稱，他最近參加了撐警大會，全力支持特區政府依法施政，對事先不知情感到極為憤怒，亦對事件感到非常痛心。目前涉事廣告已刪除，外判廣告公司遭解約，而負責廣告事務的公司員工亦被解僱。",
        "openHours": "暫沒資料",
        "image": "https://scontent.fhkg4-2.fna.fbcdn.net/v/t1.0-9/68581144_2407886585925385_3088769084318285824_o.jpg?_nc_cat=1&_nc_oc=AQm0KwZ6qjBfyOGQWP4-EPxohKl7R14-kt6AnE5mwf05-hSRXcuBLjYTZEoPZOaHQCI&_nc_ht=scontent.fhkg4-2.fna&oh=72a61468a8ab13ac20dc74a948206c41&oe=5DD08BF0",
        "brand": "吉野家",
        "lat": 22.288932,
        "lon": 114.194577
    },
    {
        "id": 58,
        "name": "吉野家",
        "address": "香港德輔道中188號金龍中心地下1, 2 & 6號舖",
        "district": "上環",
        "areas": "香港島",
        "desc": "有人發夢話：「反送中」運動遍地開花，市民自發在各區設置連儂牆。近百名配備防暴裝備的持盾警員，日前凌晨前往大埔連儂牆撕走涉警資料便條紙，連鎖餐廳吉野家事後在臉書專頁發表宣傳產品的貼文，當中「唔准叫我獅子狗」的字眼被指辱警。中聯辦主導的《文匯報》及《大公報》報道，吉野家已跟外判廣告公司解約，負責廣告事務的公司員工已亦被解聘。職工盟今午到油麻地吉野家僑江大廈分店抗議，批評解僱工做法屬政治打壓，並呼籲市民「向染紅獅子狗說不！」\n\n報道引述吉野家母公司香港合興集團有限公司總裁、全國政協委員洪明基稱，他最近參加了撐警大會，全力支持特區政府依法施政，對事先不知情感到極為憤怒，亦對事件感到非常痛心。目前涉事廣告已刪除，外判廣告公司遭解約，而負責廣告事務的公司員工亦被解僱。",
        "openHours": "暫沒資料",
        "image": "https://scontent.fhkg4-2.fna.fbcdn.net/v/t1.0-9/68581144_2407886585925385_3088769084318285824_o.jpg?_nc_cat=1&_nc_oc=AQm0KwZ6qjBfyOGQWP4-EPxohKl7R14-kt6AnE5mwf05-hSRXcuBLjYTZEoPZOaHQCI&_nc_ht=scontent.fhkg4-2.fna&oh=72a61468a8ab13ac20dc74a948206c41&oe=5DD08BF0",
        "brand": "吉野家",
        "lat": 22.286052,
        "lon": 114.153481
    },
    {
        "id": 100,
        "name": "喜記辣蟹",
        "address": "灣仔謝斐道379號",
        "district": "灣仔",
        "areas": "香港島",
        "desc": "有人發夢話：那有錢 你XX",
        "openHours": "暫沒資料",
        "image": "https://scontent.fhkg4-2.fna.fbcdn.net/v/t1.0-9/68581144_2407886585925385_3088769084318285824_o.jpg?_nc_cat=1&_nc_oc=AQm0KwZ6qjBfyOGQWP4-EPxohKl7R14-kt6AnE5mwf05-hSRXcuBLjYTZEoPZOaHQCI&_nc_ht=scontent.fhkg4-2.fna&oh=72a61468a8ab13ac20dc74a948206c41&oe=5DD08BF0",
        "brand": "喜記辣蟹",
        "lat": 22.2800245,
        "lon": 114.1797682
    },
    {
        "id": 102,
        "name": "三葉屋",
        "address": "北角炮台山宏安道18號威徳閣地下8號舖",
        "district": "炮台山",
        "areas": "香港島",
        "desc": "有人發夢話：尋晚同朋友去完金鐘去食飯個侍應聽到隔離枱講緊件事就大大聲講班學生收左錢搞事",
        "openHours": "暫沒資料",
        "image": "https://scontent.fhkg4-2.fna.fbcdn.net/v/t1.0-9/68581144_2407886585925385_3088769084318285824_o.jpg?_nc_cat=1&_nc_oc=AQm0KwZ6qjBfyOGQWP4-EPxohKl7R14-kt6AnE5mwf05-hSRXcuBLjYTZEoPZOaHQCI&_nc_ht=scontent.fhkg4-2.fna&oh=72a61468a8ab13ac20dc74a948206c41&oe=5DD08BF0",
        "brand": "三葉屋",
        "lat": 22.2883081,
        "lon": 114.1919364
    },
    {
        "id": 106,
        "name": "蓮園粥麵小廚",
        "address": "跑馬地成和道51A號地下D舖",
        "district": "跑馬地",
        "areas": "香港島",
        "desc": "有人發夢話：個老闆娘同個大聲女人超大聲話學生收咗特朗普錢，每人1800蚊。",
        "openHours": "暫沒資料",
        "image": "https://scontent.fhkg4-2.fna.fbcdn.net/v/t1.0-9/68581144_2407886585925385_3088769084318285824_o.jpg?_nc_cat=1&_nc_oc=AQm0KwZ6qjBfyOGQWP4-EPxohKl7R14-kt6AnE5mwf05-hSRXcuBLjYTZEoPZOaHQCI&_nc_ht=scontent.fhkg4-2.fna&oh=72a61468a8ab13ac20dc74a948206c41&oe=5DD08BF0",
        "brand": "蓮園粥麵小廚",
        "lat": 22.2685807,
        "lon": 114.186549
    },
    {
        "id": 107,
        "name": "Outback Steakhouse",
        "address": "銅鑼灣百德新街22-36號翡翠明珠廣場二樓",
        "district": "銅鑼灣",
        "areas": "香港島",
        "desc": "有人發夢話：去遊行結果比老細炒？？ - 分享自 LIHKG 討論區 https://lih.kg/1204488",
        "openHours": "暫沒資料",
        "image": "https://scontent.fhkg4-2.fna.fbcdn.net/v/t1.0-9/68581144_2407886585925385_3088769084318285824_o.jpg?_nc_cat=1&_nc_oc=AQm0KwZ6qjBfyOGQWP4-EPxohKl7R14-kt6AnE5mwf05-hSRXcuBLjYTZEoPZOaHQCI&_nc_ht=scontent.fhkg4-2.fna&oh=72a61468a8ab13ac20dc74a948206c41&oe=5DD08BF0",
        "brand": "Outback Steakhouse",
        "lat": 22.2808808,
        "lon": 114.1858639
    },
    {
        "id": 108,
        "name": "樂心冰室",
        "address": "銅鑼灣渣甸街54-58號地下",
        "district": "銅鑼灣",
        "areas": "香港島",
        "desc": "有人發夢話：尋日諗住休一休息去搵D野食，一班人着黑衫入去食\n食完走左之後先有朋友話聽到D員工細細聲同其他員工講話我地應該係金鐘過黎，仲聽到班員工傾計話金鐘班人比人打死就啱架喇\n\n如果一早知班撚樣咁講野實即刻屌柒班垃圾侍應再拉隊走人 \n(當事人PO左IG 可以睇suen_momo ig)",
        "openHours": "暫沒資料",
        "image": "https://scontent.fhkg4-2.fna.fbcdn.net/v/t1.0-9/68581144_2407886585925385_3088769084318285824_o.jpg?_nc_cat=1&_nc_oc=AQm0KwZ6qjBfyOGQWP4-EPxohKl7R14-kt6AnE5mwf05-hSRXcuBLjYTZEoPZOaHQCI&_nc_ht=scontent.fhkg4-2.fna&oh=72a61468a8ab13ac20dc74a948206c41&oe=5DD08BF0",
        "brand": "樂心冰室",
        "lat": 22.2793349,
        "lon": 114.1858059
    },
    {
        "id": 110,
        "name": "鰂魚涌京餃",
        "address": "鰂魚涌海光街4A-6號地下",
        "district": "鰂魚涌",
        "areas": "香港島",
        "desc": "有人發夢話：餐廳侍應話學生抵死要拉哂佢地",
        "openHours": "暫沒資料",
        "image": "https://scontent.fhkg4-2.fna.fbcdn.net/v/t1.0-9/68581144_2407886585925385_3088769084318285824_o.jpg?_nc_cat=1&_nc_oc=AQm0KwZ6qjBfyOGQWP4-EPxohKl7R14-kt6AnE5mwf05-hSRXcuBLjYTZEoPZOaHQCI&_nc_ht=scontent.fhkg4-2.fna&oh=72a61468a8ab13ac20dc74a948206c41&oe=5DD08BF0",
        "brand": "鰂魚涌京餃",
        "lat": 22.2881594,
        "lon": 114.2107317
    },
    {
        "id": 116,
        "name": "肥妹鮮果店",
        "address": "灣仔交加里51號保和大廈J1舖",
        "district": "灣仔",
        "areas": "香港島",
        "desc": "有人發夢話：係FB留言話女拔中槍男教師係暴亂期間搬鐵馬阻塞馬路既暴徒",
        "openHours": "暫沒資料",
        "image": "https://scontent.fhkg4-2.fna.fbcdn.net/v/t1.0-9/68581144_2407886585925385_3088769084318285824_o.jpg?_nc_cat=1&_nc_oc=AQm0KwZ6qjBfyOGQWP4-EPxohKl7R14-kt6AnE5mwf05-hSRXcuBLjYTZEoPZOaHQCI&_nc_ht=scontent.fhkg4-2.fna&oh=72a61468a8ab13ac20dc74a948206c41&oe=5DD08BF0",
        "brand": "肥妹鮮果店",
        "lat": 22.277007,
        "lon": 114.17714
    },
    {
        "id": 118,
        "name": "幸福堂",
        "address": "銅鑼灣渣甸街36號地下1號舖.",
        "district": "銅鑼灣",
        "areas": "香港島",
        "desc": "有人發夢話：老闆IG 撐警",
        "openHours": "暫沒資料",
        "image": "https://scontent.fhkg4-2.fna.fbcdn.net/v/t1.0-9/68581144_2407886585925385_3088769084318285824_o.jpg?_nc_cat=1&_nc_oc=AQm0KwZ6qjBfyOGQWP4-EPxohKl7R14-kt6AnE5mwf05-hSRXcuBLjYTZEoPZOaHQCI&_nc_ht=scontent.fhkg4-2.fna&oh=72a61468a8ab13ac20dc74a948206c41&oe=5DD08BF0",
        "brand": "幸福堂",
        "lat": 22.279584,
        "lon": 114.185461
    },
    {
        "id": 120,
        "name": "常聚",
        "address": "西環西營盤正街1-7號寶豐大廈地下2號舖",
        "district": "西環",
        "areas": "香港島",
        "desc": "有人發夢話：12/6九點去左呢度食飯，聽到d伙記睇住新聞喺度話「開槍啱架啦，唔開槍d人唔知驚架，打得好呀」",
        "openHours": "暫沒資料",
        "image": "https://scontent.fhkg4-2.fna.fbcdn.net/v/t1.0-9/68581144_2407886585925385_3088769084318285824_o.jpg?_nc_cat=1&_nc_oc=AQm0KwZ6qjBfyOGQWP4-EPxohKl7R14-kt6AnE5mwf05-hSRXcuBLjYTZEoPZOaHQCI&_nc_ht=scontent.fhkg4-2.fna&oh=72a61468a8ab13ac20dc74a948206c41&oe=5DD08BF0",
        "brand": "常聚",
        "lat": 22.287712,
        "lon": 114.142434
    },
    {
        "id": 122,
        "name": "德記粉麵餐室",
        "address": "中環機利文新街10號地舖",
        "district": "中環",
        "areas": "香港島",
        "desc": "有人發夢話：\n3個有鄉音伙記+1個本地阿婆 \n\"呢個係法冶之區，依家都唔係法冶之區\" \"警方克制，冇越權\" \"\n即係好似以前大陸咁判死刑，你睇佢仲敢唔敢\" \n\"早左拉左你啦，都冇機會比你上街示威\" \n\"大陸唔理你，岩好唔岩好，捉左你先，唔會比你咁搞\" \n#仲有好多聽唔明佢地啲鄉音 #中環藍絲主理潮州粉麵店 #仲有條錄音聲帶\n\n如果事主見字請inbox admin個條聲帶",
        "openHours": "暫沒資料",
        "image": "https://scontent.fhkg4-2.fna.fbcdn.net/v/t1.0-9/68581144_2407886585925385_3088769084318285824_o.jpg?_nc_cat=1&_nc_oc=AQm0KwZ6qjBfyOGQWP4-EPxohKl7R14-kt6AnE5mwf05-hSRXcuBLjYTZEoPZOaHQCI&_nc_ht=scontent.fhkg4-2.fna&oh=72a61468a8ab13ac20dc74a948206c41&oe=5DD08BF0",
        "brand": "德記粉麵餐室",
        "lat": 22.28475,
        "lon": 114.153978
    },
    {
        "id": 123,
        "name": "真知味",
        "address": "柴灣小西灣道9號富欣花園地下54號舖",
        "district": "柴灣",
        "areas": "香港島",
        "desc": "有人發夢話：\n69個日去買個外賣\n係門口等緊\n個老闆指住我黎鬧：啲後生搞搞震，又無腦又比人利用⋯⋯⋯班員工跟埋一齊鬧",
        "openHours": "暫沒資料",
        "image": "https://scontent.fhkg4-2.fna.fbcdn.net/v/t1.0-9/68581144_2407886585925385_3088769084318285824_o.jpg?_nc_cat=1&_nc_oc=AQm0KwZ6qjBfyOGQWP4-EPxohKl7R14-kt6AnE5mwf05-hSRXcuBLjYTZEoPZOaHQCI&_nc_ht=scontent.fhkg4-2.fna&oh=72a61468a8ab13ac20dc74a948206c41&oe=5DD08BF0",
        "brand": "真知味",
        "lat": 22.265166,
        "lon": 114.248224
    },
    {
        "id": 135,
        "name": "深井陳記燒鵝",
        "address": "中環德己立街18號業豐大廈2樓208室",
        "district": "中環",
        "areas": "香港島",
        "desc": "17/6 下午三時左右 \n有人發夢話：某分店員工和顧客批評學生被洗腦 逢中必反 不斷抹黑和中傷， 然而店員卻說對引渡條例的內容\n一無所知，又稱自己「讀得書少」",
        "openHours": "暫沒資料",
        "image": "https://scontent.fhkg4-2.fna.fbcdn.net/v/t1.0-9/68581144_2407886585925385_3088769084318285824_o.jpg?_nc_cat=1&_nc_oc=AQm0KwZ6qjBfyOGQWP4-EPxohKl7R14-kt6AnE5mwf05-hSRXcuBLjYTZEoPZOaHQCI&_nc_ht=scontent.fhkg4-2.fna&oh=72a61468a8ab13ac20dc74a948206c41&oe=5DD08BF0",
        "brand": "深井陳記燒鵝",
        "lat": 22.281277,
        "lon": 114.155989
    },
    {
        "id": 142,
        "name": "養心殿西灣河店",
        "address": "西灣河成安街33號柏匯地下及1樓全層",
        "district": "西灣河",
        "areas": "香港島",
        "desc": "原文網址: https://lih.kg/1220224\n有人發夢話：養心殿老細話上街果班年輕人全部係被煽動 \n\n養心殿老闆KaFai Chan旗下餐廳：\n養心麵\n靖 omakase\n灣仔靠炆雞",
        "openHours": "暫沒資料",
        "image": "https://scontent.fhkg4-2.fna.fbcdn.net/v/t1.0-9/68581144_2407886585925385_3088769084318285824_o.jpg?_nc_cat=1&_nc_oc=AQm0KwZ6qjBfyOGQWP4-EPxohKl7R14-kt6AnE5mwf05-hSRXcuBLjYTZEoPZOaHQCI&_nc_ht=scontent.fhkg4-2.fna&oh=72a61468a8ab13ac20dc74a948206c41&oe=5DD08BF0",
        "brand": "養心殿",
        "lat": 22.281545,
        "lon": 114.220923
    },
    {
        "id": 144,
        "name": "養心殿銅鑼灣店",
        "address": "軒尼詩道418號至430號友光大廈3樓全層",
        "district": "銅鑼灣",
        "areas": "香港島",
        "desc": "原文網址: https://lih.kg/1220224\n有人發夢話：養心殿老細話上街果班年輕人全部係被煽動 \n\n養心殿老闆KaFai Chan旗下餐廳：\n養心麵\n靖 omakase\n灣仔靠炆雞",
        "openHours": "暫沒資料",
        "image": "https://scontent.fhkg4-2.fna.fbcdn.net/v/t1.0-9/68581144_2407886585925385_3088769084318285824_o.jpg?_nc_cat=1&_nc_oc=AQm0KwZ6qjBfyOGQWP4-EPxohKl7R14-kt6AnE5mwf05-hSRXcuBLjYTZEoPZOaHQCI&_nc_ht=scontent.fhkg4-2.fna&oh=72a61468a8ab13ac20dc74a948206c41&oe=5DD08BF0",
        "brand": "養心殿",
        "lat": 22.278963,
        "lon": 114.180881
    },
    {
        "id": 152,
        "name": "IFC Glasshouse",
        "address": "中環港景街1號國際金融中心4樓4009號舖",
        "district": "中環",
        "areas": "香港島",
        "desc": "有人發夢話：拒絕讓616穿黑衣示威者入座",
        "openHours": "暫沒資料",
        "image": "https://scontent.fhkg4-2.fna.fbcdn.net/v/t1.0-9/68581144_2407886585925385_3088769084318285824_o.jpg?_nc_cat=1&_nc_oc=AQm0KwZ6qjBfyOGQWP4-EPxohKl7R14-kt6AnE5mwf05-hSRXcuBLjYTZEoPZOaHQCI&_nc_ht=scontent.fhkg4-2.fna&oh=72a61468a8ab13ac20dc74a948206c41&oe=5DD08BF0",
        "brand": "IFC Glasshouse",
        "lat": 22.284954,
        "lon": 114.156972
    },
    {
        "id": 153,
        "name": "民華餐廳",
        "address": "柴灣環翠道11號興華廣場1樓101-102號舖",
        "district": "柴灣",
        "areas": "香港島",
        "desc": "有人發夢話：拒絕讓612穿黑衣示威者入座 用惡劣態度對黑衣食客 (特別為年青人)",
        "openHours": "暫沒資料",
        "image": "https://scontent.fhkg4-2.fna.fbcdn.net/v/t1.0-9/68581144_2407886585925385_3088769084318285824_o.jpg?_nc_cat=1&_nc_oc=AQm0KwZ6qjBfyOGQWP4-EPxohKl7R14-kt6AnE5mwf05-hSRXcuBLjYTZEoPZOaHQCI&_nc_ht=scontent.fhkg4-2.fna&oh=72a61468a8ab13ac20dc74a948206c41&oe=5DD08BF0",
        "brand": "民華餐廳",
        "lat": 22.262959,
        "lon": 114.23555
    },
    {
        "id": 154,
        "name": "666泰船面",
        "address": "西環石塘咀德輔道西366號中亞大樓地舖",
        "district": "西環",
        "areas": "香港島",
        "desc": "有人發夢話：facebook 鬧學生，話示威者咁都得，打劫應該唔犯法，不如去衝擊匯豐",
        "openHours": "暫沒資料",
        "image": "https://scontent.fhkg4-2.fna.fbcdn.net/v/t1.0-9/68581144_2407886585925385_3088769084318285824_o.jpg?_nc_cat=1&_nc_oc=AQm0KwZ6qjBfyOGQWP4-EPxohKl7R14-kt6AnE5mwf05-hSRXcuBLjYTZEoPZOaHQCI&_nc_ht=scontent.fhkg4-2.fna&oh=72a61468a8ab13ac20dc74a948206c41&oe=5DD08BF0",
        "brand": "666泰船面",
        "lat": 22.287172,
        "lon": 114.137636
    },
    {
        "id": 155,
        "name": "美味天皇",
        "address": "灣仔謝斐道148號地下A舖",
        "district": "灣仔",
        "areas": "香港島",
        "desc": "有人發夢話：樓面員工批評起底手法, 批評義士",
        "openHours": "暫沒資料",
        "image": "https://scontent.fhkg4-2.fna.fbcdn.net/v/t1.0-9/68581144_2407886585925385_3088769084318285824_o.jpg?_nc_cat=1&_nc_oc=AQm0KwZ6qjBfyOGQWP4-EPxohKl7R14-kt6AnE5mwf05-hSRXcuBLjYTZEoPZOaHQCI&_nc_ht=scontent.fhkg4-2.fna&oh=72a61468a8ab13ac20dc74a948206c41&oe=5DD08BF0",
        "brand": "美味天皇",
        "lat": 22.278655,
        "lon": 114.174044
    },
    {
        "id": 193,
        "name": "小城大事",
        "address": "西灣河太安樓",
        "district": "西灣河",
        "areas": "香港島",
        "desc": "有人發夢話：極深藍",
        "openHours": "暫沒資料",
        "image": "https://scontent.fhkg4-2.fna.fbcdn.net/v/t1.0-9/68581144_2407886585925385_3088769084318285824_o.jpg?_nc_cat=1&_nc_oc=AQm0KwZ6qjBfyOGQWP4-EPxohKl7R14-kt6AnE5mwf05-hSRXcuBLjYTZEoPZOaHQCI&_nc_ht=scontent.fhkg4-2.fna&oh=72a61468a8ab13ac20dc74a948206c41&oe=5DD08BF0",
        "brand": "小城大事",
        "lat": 22.282876,
        "lon": 114.221915
    },
    {
        "id": 196,
        "name": "新光酒樓集團",
        "address": "北角馬寶道33號3樓",
        "district": "北角",
        "areas": "香港島",
        "desc": "有人發夢話：百樂門同新光同一老闆，李國雄，只做同鄉會生意，剝削員工福利",
        "openHours": "暫沒資料",
        "image": "https://scontent.fhkg4-2.fna.fbcdn.net/v/t1.0-9/68581144_2407886585925385_3088769084318285824_o.jpg?_nc_cat=1&_nc_oc=AQm0KwZ6qjBfyOGQWP4-EPxohKl7R14-kt6AnE5mwf05-hSRXcuBLjYTZEoPZOaHQCI&_nc_ht=scontent.fhkg4-2.fna&oh=72a61468a8ab13ac20dc74a948206c41&oe=5DD08BF0",
        "brand": "新光酒樓集團",
        "lat": 22.292108,
        "lon": 114.200703
    },
    {
        "id": 203,
        "name": "極尚大喜屋日本料理",
        "address": "銅鑼灣軒尼詩道489號銅鑼灣廣場一期9樓",
        "district": "銅鑼灣",
        "areas": "香港島",
        "desc": "原文網址: https://lihkg.com/thread/1413576/page/1?post=1\n有人發夢話：沙田大喜屋 話8月5日有咩事 公司係唔會負責\n\n大喜屋集團旗下 吉壽 :\n有人發夢話：我頭喺呢間吉壽食緊飯， 樓下差佬掃旺進行中，\n 吉壽有服務員大叔不斷四圍同食客話: 最好出解放軍打死哂樓下啲示威者 \n已經無人想答佢，佢仲不停講，十分煩嫌！ \n本身個個星期去，宜家永不再去幫親。 \n\n吉壽日本料理 吉壽本格御品放題 有冇咩回應\nAdmin已inbox呢兩個page，但尚未有回復",
        "openHours": "暫沒資料",
        "image": "https://scontent.fhkg4-2.fna.fbcdn.net/v/t1.0-9/68581144_2407886585925385_3088769084318285824_o.jpg?_nc_cat=1&_nc_oc=AQm0KwZ6qjBfyOGQWP4-EPxohKl7R14-kt6AnE5mwf05-hSRXcuBLjYTZEoPZOaHQCI&_nc_ht=scontent.fhkg4-2.fna&oh=72a61468a8ab13ac20dc74a948206c41&oe=5DD08BF0",
        "brand": "大喜屋",
        "lat": 22.280257,
        "lon": 114.182744
    },
    {
        "id": 208,
        "name": "極尚大瀛喜日本料理",
        "address": "力寶商業大廈(銅鑼灣廣場二期) 11/F,",
        "district": "銅鑼灣",
        "areas": "香港島",
        "desc": "原文網址: https://lihkg.com/thread/1413576/page/1?post=1\n有人發夢話：沙田大喜屋 話8月5日有咩事 公司係唔會負責\n\n大喜屋集團旗下 吉壽 :\n有人發夢話：我頭喺呢間吉壽食緊飯， 樓下差佬掃旺進行中，\n 吉壽有服務員大叔不斷四圍同食客話: 最好出解放軍打死哂樓下啲示威者 \n已經無人想答佢，佢仲不停講，十分煩嫌！ \n本身個個星期去，宜家永不再去幫親。 \n\n吉壽日本料理 吉壽本格御品放題 有冇咩回應\nAdmin已inbox呢兩個page，但尚未有回復",
        "openHours": "暫沒資料",
        "image": "https://scontent.fhkg4-2.fna.fbcdn.net/v/t1.0-9/68581144_2407886585925385_3088769084318285824_o.jpg?_nc_cat=1&_nc_oc=AQm0KwZ6qjBfyOGQWP4-EPxohKl7R14-kt6AnE5mwf05-hSRXcuBLjYTZEoPZOaHQCI&_nc_ht=scontent.fhkg4-2.fna&oh=72a61468a8ab13ac20dc74a948206c41&oe=5DD08BF0",
        "brand": "大喜屋",
        "lat": 22.280618,
        "lon": 114.182261
    },
    {
        "id": 209,
        "name": "岩鹽日本料理",
        "address": " Level 16 Lee Gardens利舞臺廣場16樓A舖, 99號 Percival St, Causeway Bay",
        "district": "銅鑼灣",
        "areas": "香港島",
        "desc": "原文網址: https://lihkg.com/thread/1413576/page/1?post=1\n有人發夢話：沙田大喜屋 話8月5日有咩事 公司係唔會負責\n\n大喜屋集團旗下 吉壽 :\n有人發夢話：我頭喺呢間吉壽食緊飯， 樓下差佬掃旺進行中，\n 吉壽有服務員大叔不斷四圍同食客話: 最好出解放軍打死哂樓下啲示威者 \n已經無人想答佢，佢仲不停講，十分煩嫌！ \n本身個個星期去，宜家永不再去幫親。 \n\n吉壽日本料理 吉壽本格御品放題 有冇咩回應\nAdmin已inbox呢兩個page，但尚未有回復",
        "openHours": "暫沒資料",
        "image": "https://scontent.fhkg4-2.fna.fbcdn.net/v/t1.0-9/68581144_2407886585925385_3088769084318285824_o.jpg?_nc_cat=1&_nc_oc=AQm0KwZ6qjBfyOGQWP4-EPxohKl7R14-kt6AnE5mwf05-hSRXcuBLjYTZEoPZOaHQCI&_nc_ht=scontent.fhkg4-2.fna&oh=72a61468a8ab13ac20dc74a948206c41&oe=5DD08BF0",
        "brand": "大喜屋",
        "lat": 22.27829,
        "lon": 114.183095
    },
    {
        "id": 227,
        "name": "18巷 Soi 18 Thai Cuisine",
        "address": "銅鑼灣告士打道280號世貿中心13樓1302B室",
        "district": "銅鑼灣",
        "areas": "香港島",
        "desc": "有人發夢話：餐廳老闆係前亞姐暗星張家瑩（而家改左名叫張珮汶）張家瑩幫過何君堯拉票 \n圖：https://static.appledaily.hk/images/e-paper/20151122/large/1448190313_124f.jpg\nhttps://static.appledaily.hk/images/e-paper/20151122/large/1448190425_eaa5.jpg\nhttp://images.takungpao.com/2015/1122/20151122055004229.jpg\n蘋果新聞link：https://hk.news.appledaily.com/local/realtime/article/20151122/54457292\n大公報link：http://news.takungpao.com.hk/hkol/topnews/2015-11/3241132.html",
        "openHours": "暫沒資料",
        "image": "https://scontent.fhkg4-2.fna.fbcdn.net/v/t1.0-9/68581144_2407886585925385_3088769084318285824_o.jpg?_nc_cat=1&_nc_oc=AQm0KwZ6qjBfyOGQWP4-EPxohKl7R14-kt6AnE5mwf05-hSRXcuBLjYTZEoPZOaHQCI&_nc_ht=scontent.fhkg4-2.fna&oh=72a61468a8ab13ac20dc74a948206c41&oe=5DD08BF0",
        "brand": "18巷 Soi 18 Thai Cuisine",
        "lat": 22.2815242,
        "lon": 114.1820307
    },
    {
        "id": 228,
        "name": "牛禪燒肉日本料理",
        "address": "銅鑼灣告士打道280號世貿中心13樓1302室",
        "district": "銅鑼灣",
        "areas": "香港島",
        "desc": "有人發夢話：餐廳老闆係前亞姐暗星張家瑩（而家改左名叫張珮汶）\nhttp://the-sun.on.cc/cnt/lifestyle/20140826/00479_001.html\n\n張家瑩幫過何君堯拉票\n圖：https://static.appledaily.hk/images/e-paper/20151122/large/1448190313_124f.jpg\nhttps://static.appledaily.hk/images/e-paper/20151122/large/1448190425_eaa5.jpg\nhttp://images.takungpao.com/2015/1122/20151122055004229.jpg\n蘋果新聞link：https://hk.news.appledaily.com/local/realtime/article/20151122/54457292\n大公報link：http://news.takungpao.com.hk/hkol/topnews/2015-11/3241132.html",
        "openHours": "暫沒資料",
        "image": "https://scontent.fhkg4-2.fna.fbcdn.net/v/t1.0-9/68581144_2407886585925385_3088769084318285824_o.jpg?_nc_cat=1&_nc_oc=AQm0KwZ6qjBfyOGQWP4-EPxohKl7R14-kt6AnE5mwf05-hSRXcuBLjYTZEoPZOaHQCI&_nc_ht=scontent.fhkg4-2.fna&oh=72a61468a8ab13ac20dc74a948206c41&oe=5DD08BF0",
        "brand": "牛禪燒肉日本料理",
        "lat": 22.2815872,
        "lon": 114.1820993
    },
    {
        "id": 239,
        "name": "百樂門集團",
        "address": "香港仔 香港仔中心商場第5期1樓F舖",
        "district": "香港仔",
        "areas": "香港島",
        "desc": "有人發夢話：百樂門同新光同一老闆，李國雄，只做同鄉會生意，剝削員工福利",
        "openHours": "暫沒資料",
        "brand": "百樂門集團",
        "lat": 22.248453,
        "lon": 114.15382
    },
    {
        "id": 244,
        "name": "百樂門集團",
        "address": "香港仔 香港仔中心商場第2期1樓8號舖",
        "district": "香港仔",
        "areas": "香港島",
        "desc": "有人發夢話：百樂門同新光同一老闆，李國雄，只做同鄉會生意，剝削員工福利",
        "openHours": "暫沒資料",
        "brand": "百樂門集團",
        "lat": 22.248453,
        "lon": 114.15382
    },
    {
        "id": 249,
        "name": "百樂門集團",
        "address": "香港仔 香港仔中心商場第5期1樓F舖",
        "district": "香港仔",
        "areas": "香港島",
        "desc": "有人發夢話：百樂門同新光同一老闆，李國雄，只做同鄉會生意，剝削員工福利",
        "openHours": "暫沒資料",
        "brand": "百樂門集團",
        "lat": 22.248453,
        "lon": 114.15382
    },
    {
        "id": 253,
        "name": "百樂門集團",
        "address": "數碼港 香港數碼港商場102店",
        "district": "數碼港",
        "areas": "香港島",
        "desc": "有人發夢話：百樂門同新光同一老闆，李國雄，只做同鄉會生意，剝削員工福利",
        "openHours": "暫沒資料",
        "brand": "百樂門集團",
        "lat": 22.2610257,
        "lon": 114.1300656
    },
    {
        "id": 258,
        "name": "拱照車仔麵",
        "address": "香港仔東勝道31號C地舖",
        "district": "南區",
        "areas": "香港島",
        "desc": "有人發夢話：老細極深藍,罵佔中, DQ梁,游議員果果陣大慶祝 早2星期路過門口都聽佢罵示威\"搞搞陣\" \n香港仔一共有兩間鋪,同一老闆\n\nhttp://media.bastillepost.com/wp-content/uploads/hongkong/2016/11/20161116_CR_%E5%8F%8D%E6%A2%81%E6%B8%B8_%E6%8B%B1%E7%85%A7%E8%BB%8A%E4%BB%94.jpg",
        "openHours": "暫沒資料",
        "image": "https://scontent.fhkg4-2.fna.fbcdn.net/v/t1.0-9/68581144_2407886585925385_3088769084318285824_o.jpg?_nc_cat=1&_nc_oc=AQm0KwZ6qjBfyOGQWP4-EPxohKl7R14-kt6AnE5mwf05-hSRXcuBLjYTZEoPZOaHQCI&_nc_ht=scontent.fhkg4-2.fna&oh=72a61468a8ab13ac20dc74a948206c41&oe=5DD08BF0",
        "brand": "拱照車仔麵",
        "lat": 22.2492929,
        "lon": 114.1553138
    },
    {
        "id": 259,
        "name": "拱照車仔麵",
        "address": "香港仔香港仔大道196號地舖",
        "district": "南區",
        "areas": "香港島",
        "desc": "有人發夢話：老細極深藍,罵佔中, DQ梁,游議員果果陣大慶祝 早2星期路過門口都聽佢罵示威\"搞搞陣\" \n香港仔一共有兩間鋪,同一老闆",
        "openHours": "暫沒資料",
        "image": "https://scontent.fhkg4-2.fna.fbcdn.net/v/t1.0-9/68581144_2407886585925385_3088769084318285824_o.jpg?_nc_cat=1&_nc_oc=AQm0KwZ6qjBfyOGQWP4-EPxohKl7R14-kt6AnE5mwf05-hSRXcuBLjYTZEoPZOaHQCI&_nc_ht=scontent.fhkg4-2.fna&oh=72a61468a8ab13ac20dc74a948206c41&oe=5DD08BF0",
        "brand": "拱照車仔麵",
        "lat": 22.2497019,
        "lon": 114.1551127
    },
    {
        "id": 260,
        "name": "玖五牛肉麵",
        "address": "銅鑼灣駱克道399號金禧大廈地舖",
        "district": "銅鑼灣",
        "areas": "香港島",
        "desc": "原文網址: https://tw.weibo.com/hochiulin/4401953544909899\n原文網址: https://lihkg.com/thread/1431289/page/1\n\n何超蓮：#五星紅旗有14億護旗手#轉發！我是護旗手！[心] ​",
        "openHours": "暫沒資料",
        "image": "https://scontent.fhkg4-2.fna.fbcdn.net/v/t1.0-9/68581144_2407886585925385_3088769084318285824_o.jpg?_nc_cat=1&_nc_oc=AQm0KwZ6qjBfyOGQWP4-EPxohKl7R14-kt6AnE5mwf05-hSRXcuBLjYTZEoPZOaHQCI&_nc_ht=scontent.fhkg4-2.fna&oh=72a61468a8ab13ac20dc74a948206c41&oe=5DD08BF0",
        "brand": "玖五牛肉麵",
        "lat": 22.2797247,
        "lon": 114.1801998
    },
    {
        "id": 261,
        "name": "稻香",
        "address": "香港灣仔軒尼詩道338號北海中心2樓",
        "district": "灣仔",
        "areas": "香港島",
        "desc": "有人發夢話：有日發完夢去食野, 隔離枱廢老眼超超, 部長仲走去傾計話出面班示威者成日搞事, 黑警應該開槍射晒啲佢地, 然後差唔多食完個陣仲拉埋執碗車過黎, 趕我地快d走咁",
        "openHours": "暫沒資料",
        "image": "https://scontent.fhkg4-2.fna.fbcdn.net/v/t1.0-9/68581144_2407886585925385_3088769084318285824_o.jpg?_nc_cat=1&_nc_oc=AQm0KwZ6qjBfyOGQWP4-EPxohKl7R14-kt6AnE5mwf05-hSRXcuBLjYTZEoPZOaHQCI&_nc_ht=scontent.fhkg4-2.fna&oh=72a61468a8ab13ac20dc74a948206c41&oe=5DD08BF0",
        "brand": "稻香",
        "lat": 22.278287,
        "lon": 114.178714
    },
    {
        "id": 263,
        "name": "大食仔卜卜蜆私房菜",
        "address": "銅鑼灣駱克道491-499號京都廣場9樓",
        "district": "銅鑼灣",
        "areas": "香港島",
        "desc": "有人發夢話：餐廳話事人（唔知係老闆定店長）同藍絲客傾計，內容包括「如果喺美國一早開咗真槍」「80年代只要肯做就得」「昵家啲後生身在福中不知福」",
        "openHours": "暫沒資料",
        "image": "https://scontent.fhkg4-2.fna.fbcdn.net/v/t1.0-9/68581144_2407886585925385_3088769084318285824_o.jpg?_nc_cat=1&_nc_oc=AQm0KwZ6qjBfyOGQWP4-EPxohKl7R14-kt6AnE5mwf05-hSRXcuBLjYTZEoPZOaHQCI&_nc_ht=scontent.fhkg4-2.fna&oh=72a61468a8ab13ac20dc74a948206c41&oe=5DD08BF0",
        "brand": "大食仔卜卜蜆私房菜",
        "lat": 22.280752,
        "lon": 114.183005
    },
    {
        "id": 278,
        "name": "吉野家",
        "address": "灣仔港灣道30號新鴻基中心1樓 140號鋪",
        "district": "香港島",
        "areas": "香港島",
        "desc": "有人發夢話：「反送中」運動遍地開花，市民自發在各區設置連儂牆。近百名配備防暴裝備的持盾警員，日前凌晨前往大埔連儂牆撕走涉警資料便條紙，連鎖餐廳吉野家事後在臉書專頁發表宣傳產品的貼文，當中「唔准叫我獅子狗」的字眼被指辱警。中聯辦主導的《文匯報》及《大公報》報道，吉野家已跟外判廣告公司解約，負責廣告事務的公司員工已亦被解聘。職工盟今午到油麻地吉野家僑江大廈分店抗議，批評解僱工做法屬政治打壓，並呼籲市民「向染紅獅子狗說不！」\n\n報道引述吉野家母公司香港合興集團有限公司總裁、全國政協委員洪明基稱，他最近參加了撐警大會，全力支持特區政府依法施政，對事先不知情感到極為憤怒，亦對事件感到非常痛心。目前涉事廣告已刪除，外判廣告公司遭解約，而負責廣告事務的公司員工亦被解僱。",
        "openHours": "暫沒資料",
        "image": "https://scontent.fhkg4-2.fna.fbcdn.net/v/t1.0-9/68581144_2407886585925385_3088769084318285824_o.jpg?_nc_cat=1&_nc_oc=AQm0KwZ6qjBfyOGQWP4-EPxohKl7R14-kt6AnE5mwf05-hSRXcuBLjYTZEoPZOaHQCI&_nc_ht=scontent.fhkg4-2.fna&oh=72a61468a8ab13ac20dc74a948206c41&oe=5DD08BF0",
        "brand": "吉野家",
        "lat": 22.2803729,
        "lon": 114.1769114
    },
    {
        "id": 288,
        "name": "林家園 Lu Lu Shop",
        "address": "石澳石澳村742號地下",
        "district": "石澳",
        "areas": "香港島",
        "desc": "有人發夢話： 成班員工望實TVB，手執東方，話被告暴動的人都係抵死全部要坐監，並熱烈期待水炮車的降臨",
        "openHours": "暫沒資料",
        "image": "https://scontent.fhkg4-2.fna.fbcdn.net/v/t1.0-9/68581144_2407886585925385_3088769084318285824_o.jpg?_nc_cat=1&_nc_oc=AQm0KwZ6qjBfyOGQWP4-EPxohKl7R14-kt6AnE5mwf05-hSRXcuBLjYTZEoPZOaHQCI&_nc_ht=scontent.fhkg4-2.fna&oh=72a61468a8ab13ac20dc74a948206c41&oe=5DD08BF0",
        "brand": "林家園 Lu Lu Shop",
        "lat": 22.230482,
        "lon": 114.251072
    },
    {
        "id": 291,
        "name": "香港仔魚蛋粉",
        "address": "公安樓 號",
        "district": "炮台山",
        "areas": "香港島",
        "desc": "有人發夢話：8.3夢遊時，店員話唔做黑衫人生意\n有人發夢話：炮台山分店老闆和員工疑似鄉村同鄉! 不段話黑衫抵死比人打搞事,阻住自己番屋企!",
        "openHours": "暫沒資料",
        "image": "https://scontent.fhkg4-2.fna.fbcdn.net/v/t1.0-9/68581144_2407886585925385_3088769084318285824_o.jpg?_nc_cat=1&_nc_oc=AQm0KwZ6qjBfyOGQWP4-EPxohKl7R14-kt6AnE5mwf05-hSRXcuBLjYTZEoPZOaHQCI&_nc_ht=scontent.fhkg4-2.fna&oh=72a61468a8ab13ac20dc74a948206c41&oe=5DD08BF0",
        "brand": "香港仔魚蛋粉",
        "lat": 22.2863165,
        "lon": 114.1926794
    },
    {
        "id": 295,
        "name": "華嫂冰室",
        "address": "華嫂冰室 (灣仔) 灣仔謝斐道272號杜智臺地下3-4號舖",
        "district": "灣仔",
        "areas": "香港島",
        "desc": "原文網址:  https://lihkg.com/thread/1420739/page/1\n余文樂 為華嫂冰室嘅大股東",
        "openHours": "暫沒資料",
        "image": "https://scontent.fhkg4-2.fna.fbcdn.net/v/t1.0-9/68581144_2407886585925385_3088769084318285824_o.jpg?_nc_cat=1&_nc_oc=AQm0KwZ6qjBfyOGQWP4-EPxohKl7R14-kt6AnE5mwf05-hSRXcuBLjYTZEoPZOaHQCI&_nc_ht=scontent.fhkg4-2.fna&oh=72a61468a8ab13ac20dc74a948206c41&oe=5DD08BF0",
        "brand": "華嫂冰室",
        "lat": 22.2792039,
        "lon": 114.1775145
    },
    {
        "id": 304,
        "name": "拱照車仔麵",
        "address": "c, 31 Tung Sing Rd, Aberdeen",
        "district": "南區",
        "areas": "香港島",
        "desc": "有人發夢話：店主一向深藍",
        "openHours": "暫沒資料",
        "image": "https://scontent.fhkg4-2.fna.fbcdn.net/v/t1.0-9/68581144_2407886585925385_3088769084318285824_o.jpg?_nc_cat=1&_nc_oc=AQm0KwZ6qjBfyOGQWP4-EPxohKl7R14-kt6AnE5mwf05-hSRXcuBLjYTZEoPZOaHQCI&_nc_ht=scontent.fhkg4-2.fna&oh=72a61468a8ab13ac20dc74a948206c41&oe=5DD08BF0",
        "brand": "拱照車仔麵",
        "lat": 22.2493761,
        "lon": 114.155192
    },
    {
        "id": 308,
        "name": "新深粥店",
        "address": "灣仔軒尼詩道168號地下",
        "district": "灣仔",
        "areas": "香港島",
        "desc": "有人發夢話：散佈黑衫既會atm搶錢謠言，撐警言論，Fc",
        "openHours": "暫沒資料",
        "image": "https://scontent.fhkg4-2.fna.fbcdn.net/v/t1.0-9/68581144_2407886585925385_3088769084318285824_o.jpg?_nc_cat=1&_nc_oc=AQm0KwZ6qjBfyOGQWP4-EPxohKl7R14-kt6AnE5mwf05-hSRXcuBLjYTZEoPZOaHQCI&_nc_ht=scontent.fhkg4-2.fna&oh=72a61468a8ab13ac20dc74a948206c41&oe=5DD08BF0",
        "brand": "新深粥店",
        "lat": 22.2775252,
        "lon": 114.1737564
    },
    {
        "id": 309,
        "name": "零食之皇",
        "address": "香港仔香港仔舊大街72號地下",
        "district": "南區",
        "areas": "香港島",
        "desc": "有人發夢話：喺香港仔舊街零食之皇買野食，聽到老闆娘同客傾計，佢話啲人阻住晒香港經濟，搞亂香港，阻住人返工",
        "openHours": "暫沒資料",
        "image": "https://scontent.fhkg4-2.fna.fbcdn.net/v/t1.0-9/68581144_2407886585925385_3088769084318285824_o.jpg?_nc_cat=1&_nc_oc=AQm0KwZ6qjBfyOGQWP4-EPxohKl7R14-kt6AnE5mwf05-hSRXcuBLjYTZEoPZOaHQCI&_nc_ht=scontent.fhkg4-2.fna&oh=72a61468a8ab13ac20dc74a948206c41&oe=5DD08BF0",
        "brand": "零食之皇",
        "lat": 22.2479362,
        "lon": 114.1561646
    },
    {
        "id": 311,
        "name": "張記口水雞 ",
        "address": "西環堅尼地城卑路乍街15A號建益大厦地下H2號舖",
        "district": "西環",
        "areas": "香港島",
        "desc": "原文網址:  https://lihkg.com/thread/1432443/page/1\n\n有人發夢話：話說剛才我睇Now既民間記者會直播，見到有人留言話：「講大話，露臉喇！」\n我見佢咁型，自己又無頭像，就禁入去睇下，點知原來是「張記口水雞」老細，真係失敬失敬。",
        "openHours": "暫沒資料",
        "image": "https://scontent.fhkg4-2.fna.fbcdn.net/v/t1.0-9/68581144_2407886585925385_3088769084318285824_o.jpg?_nc_cat=1&_nc_oc=AQm0KwZ6qjBfyOGQWP4-EPxohKl7R14-kt6AnE5mwf05-hSRXcuBLjYTZEoPZOaHQCI&_nc_ht=scontent.fhkg4-2.fna&oh=72a61468a8ab13ac20dc74a948206c41&oe=5DD08BF0",
        "brand": "張記口水雞 ",
        "lat": 22.2841376,
        "lon": 114.1309066
    },
    {
        "id": 312,
        "name": "嚐樂煮意",
        "address": "鰂魚涌英皇道925號地下",
        "district": "鰂魚涌",
        "areas": "香港島",
        "desc": "有人發夢話：自己食果陣，聽到店員同食客大大聲鬧示威者暴徒，搞亂香港",
        "openHours": "暫沒資料",
        "image": "https://scontent.fhkg4-2.fna.fbcdn.net/v/t1.0-9/68581144_2407886585925385_3088769084318285824_o.jpg?_nc_cat=1&_nc_oc=AQm0KwZ6qjBfyOGQWP4-EPxohKl7R14-kt6AnE5mwf05-hSRXcuBLjYTZEoPZOaHQCI&_nc_ht=scontent.fhkg4-2.fna&oh=72a61468a8ab13ac20dc74a948206c41&oe=5DD08BF0",
        "brand": "嚐樂煮意",
        "lat": 22.289773,
        "lon": 114.2097399
    },
    {
        "id": 317,
        "name": "球哥燉湯",
        "address": "蘇杭街88號",
        "district": "上環",
        "areas": "香港島",
        "desc": "原文網址:  https://m.facebook.com/story.php?story_fbid=10162109013615652&id=551510651\n\n有人發夢話：老細望住TVB播白衫打人新聞\n然後大大聲話抵打\n中上環嘅朋友請廣傳",
        "openHours": "暫沒資料",
        "image": "https://scontent.fhkg4-2.fna.fbcdn.net/v/t1.0-9/68581144_2407886585925385_3088769084318285824_o.jpg?_nc_cat=1&_nc_oc=AQm0KwZ6qjBfyOGQWP4-EPxohKl7R14-kt6AnE5mwf05-hSRXcuBLjYTZEoPZOaHQCI&_nc_ht=scontent.fhkg4-2.fna&oh=72a61468a8ab13ac20dc74a948206c41&oe=5DD08BF0",
        "brand": "球哥燉湯",
        "lat": 22.284912,
        "lon": 114.151007
    },
    {
        "id": 320,
        "name": "養心麵",
        "address": "中環威靈頓街73號",
        "district": "中環",
        "areas": "香港島",
        "desc": "原文網址:  https://lih.kg/1220224\n有人發夢話：養心殿老細話上街果班年輕人全部係被煽動 \n\n養心殿老闆KaFai Chan旗下餐廳：\n養心麵\n靖 omakase\n灣仔靠炆雞",
        "openHours": "暫沒資料",
        "image": "https://scontent.fhkg4-2.fna.fbcdn.net/v/t1.0-9/68581144_2407886585925385_3088769084318285824_o.jpg?_nc_cat=1&_nc_oc=AQm0KwZ6qjBfyOGQWP4-EPxohKl7R14-kt6AnE5mwf05-hSRXcuBLjYTZEoPZOaHQCI&_nc_ht=scontent.fhkg4-2.fna&oh=72a61468a8ab13ac20dc74a948206c41&oe=5DD08BF0",
        "brand": "養心殿",
        "lat": 22.2830338,
        "lon": 114.1546687
    },
    {
        "id": 326,
        "name": "合利粥品店",
        "address": " 香港仔東勝道21號地舖",
        "district": "南區",
        "areas": "香港島",
        "desc": "原文網址: https://www.facebook.com/270483190020786/posts/789085941493839?s=623803972&v=i&sfns=mo\n\n有人發夢話：有街坊好嬲咁同萬事妹講喺入面食嘢俾員工鬧，話抗爭者搞搞震，喺外國一早俾人打靶😢😢😢\n🧐唉其實何必要咁講嘢呢？係呢個時候講咁涼薄嘅說話真係大家聽到都會好嬲😢😢😢",
        "openHours": "暫沒資料",
        "image": "https://scontent.fhkg4-2.fna.fbcdn.net/v/t1.0-9/68581144_2407886585925385_3088769084318285824_o.jpg?_nc_cat=1&_nc_oc=AQm0KwZ6qjBfyOGQWP4-EPxohKl7R14-kt6AnE5mwf05-hSRXcuBLjYTZEoPZOaHQCI&_nc_ht=scontent.fhkg4-2.fna&oh=72a61468a8ab13ac20dc74a948206c41&oe=5DD08BF0",
        "brand": "合利粥品店",
        "lat": 22.2485488,
        "lon": 114.1551937
    },
    {
        "id": 328,
        "name": "The Corner",
        "address": "銅鑼灣耀華街3號百樂中心13樓1303室",
        "district": "銅鑼灣",
        "areas": "香港島",
        "desc": "有人發夢話：藍色老闆娘",
        "openHours": "暫沒資料",
        "image": "https://scontent.fhkg4-2.fna.fbcdn.net/v/t1.0-9/68581144_2407886585925385_3088769084318285824_o.jpg?_nc_cat=1&_nc_oc=AQm0KwZ6qjBfyOGQWP4-EPxohKl7R14-kt6AnE5mwf05-hSRXcuBLjYTZEoPZOaHQCI&_nc_ht=scontent.fhkg4-2.fna&oh=72a61468a8ab13ac20dc74a948206c41&oe=5DD08BF0",
        "brand": "The Corner",
        "lat": 22.2776836,
        "lon": 114.1821785
    },
    {
        "id": 329,
        "name": "北角小辣椒",
        "address": "北角北角道33號B2號",
        "district": "北角",
        "areas": "香港島",
        "desc": "原文網址: https://images.app.goo.gl/xmcPB1q2i9eWFpWn7",
        "openHours": "暫沒資料",
        "image": "https://scontent.fhkg4-2.fna.fbcdn.net/v/t1.0-9/68581144_2407886585925385_3088769084318285824_o.jpg?_nc_cat=1&_nc_oc=AQm0KwZ6qjBfyOGQWP4-EPxohKl7R14-kt6AnE5mwf05-hSRXcuBLjYTZEoPZOaHQCI&_nc_ht=scontent.fhkg4-2.fna&oh=72a61468a8ab13ac20dc74a948206c41&oe=5DD08BF0",
        "brand": "北角小辣椒",
        "lat": 22.2917012,
        "lon": 114.1962894
    },
    {
        "id": 331,
        "name": "蓮園粥粉麵",
        "address": "跑馬地成和道51A號地下D",
        "district": "跑馬地",
        "areas": "香港島",
        "desc": "原文網址: https://www.facebook.com/photo.php?fbid=1864590820308030&set=a.297848480315613&type=3&theater\n有人發夢話：跑馬地蓮園個老闆娘同個大聲女人超大聲話學生收咗特朗普錢，每人1800蚊。我拍枱，嚇咗佢哋一大跳，問我發生咩事。我起身走，話，我唔能夠在誣䛼學生收咗錢嘅地方食嘢。\n叫做稍為洩咗谷住全日道氣。",
        "openHours": "暫沒資料",
        "image": "https://scontent.fhkg4-2.fna.fbcdn.net/v/t1.0-9/68581144_2407886585925385_3088769084318285824_o.jpg?_nc_cat=1&_nc_oc=AQm0KwZ6qjBfyOGQWP4-EPxohKl7R14-kt6AnE5mwf05-hSRXcuBLjYTZEoPZOaHQCI&_nc_ht=scontent.fhkg4-2.fna&oh=72a61468a8ab13ac20dc74a948206c41&oe=5DD08BF0",
        "brand": "蓮園粥粉麵",
        "lat": 22.2685807,
        "lon": 114.186549
    },
    {
        "id": 333,
        "name": "養心殿台式養生鍋",
        "address": "西灣河成安街33號",
        "district": "西灣河",
        "areas": "香港島",
        "desc": "原文網址:  https://lih.kg/1220224\n有人發夢話：養心殿老細話上街果班年輕人全部係被煽動 \n\n養心殿老闆KaFai Chan旗下餐廳：\n養心麵\n靖 omakase\n灣仔靠炆雞",
        "openHours": "暫沒資料",
        "image": "https://scontent.fhkg4-2.fna.fbcdn.net/v/t1.0-9/68581144_2407886585925385_3088769084318285824_o.jpg?_nc_cat=1&_nc_oc=AQm0KwZ6qjBfyOGQWP4-EPxohKl7R14-kt6AnE5mwf05-hSRXcuBLjYTZEoPZOaHQCI&_nc_ht=scontent.fhkg4-2.fna&oh=72a61468a8ab13ac20dc74a948206c41&oe=5DD08BF0",
        "brand": "養心殿",
        "lat": 22.2814222,
        "lon": 114.2209423
    },
    {
        "id": 334,
        "name": "養心殿台式養生鍋",
        "address": "灣仔軒尼詩道418號3樓",
        "district": "灣仔",
        "areas": "香港島",
        "desc": "原文網址:  https://lih.kg/1220224\n有人發夢話：養心殿老細話上街果班年輕人全部係被煽動 \n\n養心殿老闆KaFai Chan旗下餐廳：\n養心麵\n靖 omakase\n灣仔靠炆雞",
        "openHours": "暫沒資料",
        "image": "https://scontent.fhkg4-2.fna.fbcdn.net/v/t1.0-9/68581144_2407886585925385_3088769084318285824_o.jpg?_nc_cat=1&_nc_oc=AQm0KwZ6qjBfyOGQWP4-EPxohKl7R14-kt6AnE5mwf05-hSRXcuBLjYTZEoPZOaHQCI&_nc_ht=scontent.fhkg4-2.fna&oh=72a61468a8ab13ac20dc74a948206c41&oe=5DD08BF0",
        "brand": "養心殿",
        "lat": 22.2790024,
        "lon": 114.1808597
    },
    {
        "id": 335,
        "name": "常聚",
        "address": "西環營盤正街1-7號寶豐大廈地下2號舖 ",
        "district": "西環",
        "areas": "香港島",
        "desc": "有人發夢話： 12/6九點去左呢度食飯，聽到d伙記睇住新聞喺度話「開槍啱架啦，唔開槍d人唔知驚架，打得好呀」",
        "openHours": "暫沒資料",
        "image": "https://scontent.fhkg4-2.fna.fbcdn.net/v/t1.0-9/68581144_2407886585925385_3088769084318285824_o.jpg?_nc_cat=1&_nc_oc=AQm0KwZ6qjBfyOGQWP4-EPxohKl7R14-kt6AnE5mwf05-hSRXcuBLjYTZEoPZOaHQCI&_nc_ht=scontent.fhkg4-2.fna&oh=72a61468a8ab13ac20dc74a948206c41&oe=5DD08BF0",
        "brand": "常聚",
        "lat": 22.2875826,
        "lon": 114.1424449
    },
    {
        "id": 336,
        "name": "Isola Bar & Grill",
        "address": "中環港景街1號國際金融中心2樓2075號舖",
        "district": "中環",
        "areas": "香港島",
        "desc": "原文網址: https://lihkg.com/thread/1406273/page/1\n有人發夢話： 唔比員工8月5請假罷工!!!",
        "openHours": "暫沒資料",
        "image": "https://scontent.fhkg4-2.fna.fbcdn.net/v/t1.0-9/68581144_2407886585925385_3088769084318285824_o.jpg?_nc_cat=1&_nc_oc=AQm0KwZ6qjBfyOGQWP4-EPxohKl7R14-kt6AnE5mwf05-hSRXcuBLjYTZEoPZOaHQCI&_nc_ht=scontent.fhkg4-2.fna&oh=72a61468a8ab13ac20dc74a948206c41&oe=5DD08BF0",
        "brand": "Gaia Group",
        "lat": 22.2849042,
        "lon": 114.1569078
    },
    {
        "id": 337,
        "name": "舍",
        "address": "中環港景街1號國際金融中心商場3樓3025-26, 3031-3066號舖",
        "district": "中環",
        "areas": "香港島",
        "desc": "原文網址: https://lihkg.com/thread/1406273/page/1\n有人發夢話： 唔比員工8月5請假罷工!!!",
        "openHours": "暫沒資料",
        "image": "https://scontent.fhkg4-2.fna.fbcdn.net/v/t1.0-9/68581144_2407886585925385_3088769084318285824_o.jpg?_nc_cat=1&_nc_oc=AQm0KwZ6qjBfyOGQWP4-EPxohKl7R14-kt6AnE5mwf05-hSRXcuBLjYTZEoPZOaHQCI&_nc_ht=scontent.fhkg4-2.fna&oh=72a61468a8ab13ac20dc74a948206c41&oe=5DD08BF0",
        "brand": "Gaia Group",
        "lat": 22.2851589,
        "lon": 114.1588412
    },
    {
        "id": 338,
        "name": "Glasshouse",
        "address": "中環港景街1號國際金融中心4樓4009號舖",
        "district": "中環",
        "areas": "香港島",
        "desc": "原文網址: https://lihkg.com/thread/1406273/page/1\n有人發夢話： 唔比員工8月5請假罷工!!!",
        "openHours": "暫沒資料",
        "image": "https://scontent.fhkg4-2.fna.fbcdn.net/v/t1.0-9/68581144_2407886585925385_3088769084318285824_o.jpg?_nc_cat=1&_nc_oc=AQm0KwZ6qjBfyOGQWP4-EPxohKl7R14-kt6AnE5mwf05-hSRXcuBLjYTZEoPZOaHQCI&_nc_ht=scontent.fhkg4-2.fna&oh=72a61468a8ab13ac20dc74a948206c41&oe=5DD08BF0",
        "brand": "Gaia Group",
        "lat": 22.2849042,
        "lon": 114.1569078
    },
    {
        "id": 340,
        "name": "Glasshouse",
        "address": "太古太古城道18號太古城中心1樓101A號舖",
        "district": "太古",
        "areas": "香港島",
        "desc": "原文網址: https://lihkg.com/thread/1406273/page/1\n有人發夢話： 唔比員工8月5請假罷工!!!",
        "openHours": "暫沒資料",
        "image": "https://scontent.fhkg4-2.fna.fbcdn.net/v/t1.0-9/68581144_2407886585925385_3088769084318285824_o.jpg?_nc_cat=1&_nc_oc=AQm0KwZ6qjBfyOGQWP4-EPxohKl7R14-kt6AnE5mwf05-hSRXcuBLjYTZEoPZOaHQCI&_nc_ht=scontent.fhkg4-2.fna&oh=72a61468a8ab13ac20dc74a948206c41&oe=5DD08BF0",
        "brand": "Gaia Group",
        "lat": 22.2866663,
        "lon": 114.2174168
    },
    {
        "id": 341,
        "name": "Greenhouse",
        "address": "銅鑼灣勿地臣街1號時代廣場食通天10樓1004號舖",
        "district": "銅鑼灣",
        "areas": "香港島",
        "desc": "原文網址: https://lihkg.com/thread/1406273/page/1\n有人發夢話： 唔比員工8月5請假罷工!!!",
        "openHours": "暫沒資料",
        "image": "https://scontent.fhkg4-2.fna.fbcdn.net/v/t1.0-9/68581144_2407886585925385_3088769084318285824_o.jpg?_nc_cat=1&_nc_oc=AQm0KwZ6qjBfyOGQWP4-EPxohKl7R14-kt6AnE5mwf05-hSRXcuBLjYTZEoPZOaHQCI&_nc_ht=scontent.fhkg4-2.fna&oh=72a61468a8ab13ac20dc74a948206c41&oe=5DD08BF0",
        "brand": "Gaia Group",
        "lat": 22.2781357,
        "lon": 114.1821587
    },
    {
        "id": 342,
        "name": "紅樓",
        "address": "中環蘭桂坊德己立街32號加州大廈23樓",
        "district": "中環",
        "areas": "香港島",
        "desc": "原文網址: https://lihkg.com/thread/1406273/page/1\n有人發夢話： 唔比員工8月5請假罷工!!!",
        "openHours": "暫沒資料",
        "image": "https://scontent.fhkg4-2.fna.fbcdn.net/v/t1.0-9/68581144_2407886585925385_3088769084318285824_o.jpg?_nc_cat=1&_nc_oc=AQm0KwZ6qjBfyOGQWP4-EPxohKl7R14-kt6AnE5mwf05-hSRXcuBLjYTZEoPZOaHQCI&_nc_ht=scontent.fhkg4-2.fna&oh=72a61468a8ab13ac20dc74a948206c41&oe=5DD08BF0",
        "brand": "Gaia Group",
        "lat": 22.281445,
        "lon": 114.156084
    },
    {
        "id": 343,
        "name": "紅樓",
        "address": "銅鑼灣登龍街1-29號金朝陽中心2期Midtown1樓",
        "district": "銅鑼灣",
        "areas": "香港島",
        "desc": "原文網址: https://lihkg.com/thread/1406273/page/1\n有人發夢話： 唔比員工8月5請假罷工!!!",
        "openHours": "暫沒資料",
        "image": "https://scontent.fhkg4-2.fna.fbcdn.net/v/t1.0-9/68581144_2407886585925385_3088769084318285824_o.jpg?_nc_cat=1&_nc_oc=AQm0KwZ6qjBfyOGQWP4-EPxohKl7R14-kt6AnE5mwf05-hSRXcuBLjYTZEoPZOaHQCI&_nc_ht=scontent.fhkg4-2.fna&oh=72a61468a8ab13ac20dc74a948206c41&oe=5DD08BF0",
        "brand": "Gaia Group",
        "lat": 22.2790323,
        "lon": 114.1820366
    },
    {
        "id": 344,
        "name": "王家沙花樣年華",
        "address": "銅鑼灣登龍街1-29號金朝陽中心2期Midtown 1樓",
        "district": "銅鑼灣",
        "areas": "香港島",
        "desc": "原文網址: https://lihkg.com/thread/1406273/page/1\n有人發夢話： 唔比員工8月5請假罷工!!!",
        "openHours": "暫沒資料",
        "image": "https://scontent.fhkg4-2.fna.fbcdn.net/v/t1.0-9/68581144_2407886585925385_3088769084318285824_o.jpg?_nc_cat=1&_nc_oc=AQm0KwZ6qjBfyOGQWP4-EPxohKl7R14-kt6AnE5mwf05-hSRXcuBLjYTZEoPZOaHQCI&_nc_ht=scontent.fhkg4-2.fna&oh=72a61468a8ab13ac20dc74a948206c41&oe=5DD08BF0",
        "brand": "Gaia Group",
        "lat": 22.2788978,
        "lon": 114.1818077
    },
    {
        "id": 349,
        "name": "颱風點心",
        "address": "銅鑼灣希慎道33號利園1期4樓401A號舖",
        "district": "銅鑼灣",
        "areas": "香港島",
        "desc": "原文網址: https://lihkg.com/thread/1406273/page/1\n有人發夢話： 唔比員工8月5請假罷工!!!",
        "openHours": "暫沒資料",
        "image": "https://scontent.fhkg4-2.fna.fbcdn.net/v/t1.0-9/68581144_2407886585925385_3088769084318285824_o.jpg?_nc_cat=1&_nc_oc=AQm0KwZ6qjBfyOGQWP4-EPxohKl7R14-kt6AnE5mwf05-hSRXcuBLjYTZEoPZOaHQCI&_nc_ht=scontent.fhkg4-2.fna&oh=72a61468a8ab13ac20dc74a948206c41&oe=5DD08BF0",
        "brand": "Gaia Group",
        "lat": 22.2784388,
        "lon": 114.1847145
    },
    {
        "id": 350,
        "name": "Greyhound Café",
        "address": "旺角太子道西193號MOKO新世紀廣場3樓301-302號舖",
        "district": "旺角",
        "areas": "香港島",
        "desc": "原文網址: https://lihkg.com/thread/1406273/page/1\n有人發夢話： 唔比員工8月5請假罷工!!!",
        "openHours": "暫沒資料",
        "image": "https://scontent.fhkg4-2.fna.fbcdn.net/v/t1.0-9/68581144_2407886585925385_3088769084318285824_o.jpg?_nc_cat=1&_nc_oc=AQm0KwZ6qjBfyOGQWP4-EPxohKl7R14-kt6AnE5mwf05-hSRXcuBLjYTZEoPZOaHQCI&_nc_ht=scontent.fhkg4-2.fna&oh=72a61468a8ab13ac20dc74a948206c41&oe=5DD08BF0",
        "brand": "Gaia Group",
        "lat": 22.3232657,
        "lon": 114.172011
    },
    {
        "id": 352,
        "name": "Greyhound Café",
        "address": "中環港景街1號國際金融中心1樓1082舖",
        "district": "中環",
        "areas": "香港島",
        "desc": "原文網址: https://lihkg.com/thread/1406273/page/1\n有人發夢話： 唔比員工8月5請假罷工!!!",
        "openHours": "暫沒資料",
        "image": "https://scontent.fhkg4-2.fna.fbcdn.net/v/t1.0-9/68581144_2407886585925385_3088769084318285824_o.jpg?_nc_cat=1&_nc_oc=AQm0KwZ6qjBfyOGQWP4-EPxohKl7R14-kt6AnE5mwf05-hSRXcuBLjYTZEoPZOaHQCI&_nc_ht=scontent.fhkg4-2.fna&oh=72a61468a8ab13ac20dc74a948206c41&oe=5DD08BF0",
        "brand": "Gaia Group",
        "lat": 22.28588,
        "lon": 114.158131
    },
    {
        "id": 356,
        "name": "Greyhound Café",
        "address": "太古太古城道18號太古城中心二期地下007號舖",
        "district": "太古",
        "areas": "香港島",
        "desc": "原文網址: https://lihkg.com/thread/1406273/page/1\n有人發夢話： 唔比員工8月5請假罷工!!!",
        "openHours": "暫沒資料",
        "image": "https://scontent.fhkg4-2.fna.fbcdn.net/v/t1.0-9/68581144_2407886585925385_3088769084318285824_o.jpg?_nc_cat=1&_nc_oc=AQm0KwZ6qjBfyOGQWP4-EPxohKl7R14-kt6AnE5mwf05-hSRXcuBLjYTZEoPZOaHQCI&_nc_ht=scontent.fhkg4-2.fna&oh=72a61468a8ab13ac20dc74a948206c41&oe=5DD08BF0",
        "brand": "Gaia Group",
        "lat": 22.2871433,
        "lon": 114.217519
    },
    {
        "id": 364,
        "name": "Hazel & Hershey Coffee Roasters",
        "address": "中環蘇豪卑利街69號地下3號舖",
        "district": "中環",
        "areas": "香港島",
        "desc": "原文網址: https://m.facebook.com/birdiechiu\n有人發夢話：老闆Birdie Chiu係藍絲，係FB有撐警post。",
        "openHours": "暫沒資料",
        "image": "https://scontent.fhkg4-2.fna.fbcdn.net/v/t1.0-9/68581144_2407886585925385_3088769084318285824_o.jpg?_nc_cat=1&_nc_oc=AQm0KwZ6qjBfyOGQWP4-EPxohKl7R14-kt6AnE5mwf05-hSRXcuBLjYTZEoPZOaHQCI&_nc_ht=scontent.fhkg4-2.fna&oh=72a61468a8ab13ac20dc74a948206c41&oe=5DD08BF0",
        "brand": "Hazel & Hershey Coffee Roasters",
        "lat": 22.282158,
        "lon": 114.151922
    },
    {
        "id": 369,
        "name": "御翠園京川滬麵點",
        "address": "柴灣康民街高威閣",
        "district": "東區",
        "areas": "香港島",
        "desc": "有人發夢話：親身經歷，屋企去食飯，個廚師（可能係老闆），話最好拉曬啲細路，要宵禁戒嚴，無繼續聽落去，因為即刻回程返屋企煮麵",
        "openHours": "暫沒資料",
        "image": "https://scontent.fhkg4-2.fna.fbcdn.net/v/t1.0-9/68581144_2407886585925385_3088769084318285824_o.jpg?_nc_cat=1&_nc_oc=AQm0KwZ6qjBfyOGQWP4-EPxohKl7R14-kt6AnE5mwf05-hSRXcuBLjYTZEoPZOaHQCI&_nc_ht=scontent.fhkg4-2.fna&oh=72a61468a8ab13ac20dc74a948206c41&oe=5DD08BF0",
        "brand": "御翠園京川滬麵點",
        "lat": 22.266331,
        "lon": 114.233836
    },
    {
        "id": 376,
        "name": "吉野家",
        "address": "柴灣新翠商場地下",
        "district": "柴灣",
        "areas": "香港島",
        "desc": "有人發夢話：「反送中」運動遍地開花，市民自發在各區設置連儂牆。近百名配備防暴裝備的持盾警員，日前凌晨前往大埔連儂牆撕走涉警資料便條紙，連鎖餐廳吉野家事後在臉書專頁發表宣傳產品的貼文，當中「唔准叫我獅子狗」的字眼被指辱警。中聯辦主導的《文匯報》及《大公報》報道，吉野家已跟外判廣告公司解約，負責廣告事務的公司員工已亦被解聘。職工盟今午到油麻地吉野家僑江大廈分店抗議，批評解僱工做法屬政治打壓，並呼籲市民「向染紅獅子狗說不！」\n\n報道引述吉野家母公司香港合興集團有限公司總裁、全國政協委員洪明基稱，他最近參加了撐警大會，全力支持特區政府依法施政，對事先不知情感到極為憤怒，亦對事件感到非常痛心。目前涉事廣告已刪除，外判廣告公司遭解約，而負責廣告事務的公司員工亦被解僱。",
        "openHours": "暫沒資料",
        "image": "https://scontent.fhkg4-2.fna.fbcdn.net/v/t1.0-9/68581144_2407886585925385_3088769084318285824_o.jpg?_nc_cat=1&_nc_oc=AQm0KwZ6qjBfyOGQWP4-EPxohKl7R14-kt6AnE5mwf05-hSRXcuBLjYTZEoPZOaHQCI&_nc_ht=scontent.fhkg4-2.fna&oh=72a61468a8ab13ac20dc74a948206c41&oe=5DD08BF0",
        "brand": "吉野家",
        "lat": 22.2639913,
        "lon": 114.2370739
    },
    {
        "id": 377,
        "name": "吉野家",
        "address": "將軍澳唐德街1號將軍澳廣場2樓2070-2072號舖",
        "district": "將軍澳",
        "areas": "香港島",
        "desc": "有人發夢話：「反送中」運動遍地開花，市民自發在各區設置連儂牆。近百名配備防暴裝備的持盾警員，日前凌晨前往大埔連儂牆撕走涉警資料便條紙，連鎖餐廳吉野家事後在臉書專頁發表宣傳產品的貼文，當中「唔准叫我獅子狗」的字眼被指辱警。中聯辦主導的《文匯報》及《大公報》報道，吉野家已跟外判廣告公司解約，負責廣告事務的公司員工已亦被解聘。職工盟今午到油麻地吉野家僑江大廈分店抗議，批評解僱工做法屬政治打壓，並呼籲市民「向染紅獅子狗說不！」\n\n報道引述吉野家母公司香港合興集團有限公司總裁、全國政協委員洪明基稱，他最近參加了撐警大會，全力支持特區政府依法施政，對事先不知情感到極為憤怒，亦對事件感到非常痛心。目前涉事廣告已刪除，外判廣告公司遭解約，而負責廣告事務的公司員工亦被解僱。",
        "openHours": "暫沒資料",
        "image": "https://scontent.fhkg4-2.fna.fbcdn.net/v/t1.0-9/68581144_2407886585925385_3088769084318285824_o.jpg?_nc_cat=1&_nc_oc=AQm0KwZ6qjBfyOGQWP4-EPxohKl7R14-kt6AnE5mwf05-hSRXcuBLjYTZEoPZOaHQCI&_nc_ht=scontent.fhkg4-2.fna&oh=72a61468a8ab13ac20dc74a948206c41&oe=5DD08BF0",
        "brand": "吉野家",
        "lat": 22.3085319,
        "lon": 114.2624899
    },
    {
        "id": 378,
        "name": "吉野家",
        "address": "將軍澳常寧路2號TKO Gateway西翼1樓W104號舖",
        "district": "將軍澳",
        "areas": "香港島",
        "desc": "有人發夢話：「反送中」運動遍地開花，市民自發在各區設置連儂牆。近百名配備防暴裝備的持盾警員，日前凌晨前往大埔連儂牆撕走涉警資料便條紙，連鎖餐廳吉野家事後在臉書專頁發表宣傳產品的貼文，當中「唔准叫我獅子狗」的字眼被指辱警。中聯辦主導的《文匯報》及《大公報》報道，吉野家已跟外判廣告公司解約，負責廣告事務的公司員工已亦被解聘。職工盟今午到油麻地吉野家僑江大廈分店抗議，批評解僱工做法屬政治打壓，並呼籲市民「向染紅獅子狗說不！」\n\n報道引述吉野家母公司香港合興集團有限公司總裁、全國政協委員洪明基稱，他最近參加了撐警大會，全力支持特區政府依法施政，對事先不知情感到極為憤怒，亦對事件感到非常痛心。目前涉事廣告已刪除，外判廣告公司遭解約，而負責廣告事務的公司員工亦被解僱。",
        "openHours": "暫沒資料",
        "image": "https://scontent.fhkg4-2.fna.fbcdn.net/v/t1.0-9/68581144_2407886585925385_3088769084318285824_o.jpg?_nc_cat=1&_nc_oc=AQm0KwZ6qjBfyOGQWP4-EPxohKl7R14-kt6AnE5mwf05-hSRXcuBLjYTZEoPZOaHQCI&_nc_ht=scontent.fhkg4-2.fna&oh=72a61468a8ab13ac20dc74a948206c41&oe=5DD08BF0",
        "brand": "吉野家",
        "lat": 22.3171998,
        "lon": 114.2659481
    },
    {
        "id": 381,
        "name": "黑瀧板蕎麥專門店",
        "address": "銅鑼灣告士打道280號世貿中心4樓P413-415號舖",
        "district": "銅鑼灣",
        "areas": "香港島",
        "desc": "有人發夢話：紅底pokka cafe餐廳之一，8月5日有番工嘅員工每人獲贈金莎一盒，仲要單獨影相留念",
        "openHours": "暫沒資料",
        "image": "https://scontent.fhkg4-2.fna.fbcdn.net/v/t1.0-9/68581144_2407886585925385_3088769084318285824_o.jpg?_nc_cat=1&_nc_oc=AQm0KwZ6qjBfyOGQWP4-EPxohKl7R14-kt6AnE5mwf05-hSRXcuBLjYTZEoPZOaHQCI&_nc_ht=scontent.fhkg4-2.fna&oh=72a61468a8ab13ac20dc74a948206c41&oe=5DD08BF0",
        "brand": "黑瀧板蕎麥專門店",
        "lat": 22.2818187,
        "lon": 114.1840803
    },
    {
        "id": 383,
        "name": "金樂軒雞煲魚鍋 (北角)",
        "address": " 北角和富道114號康華大廈地下C3號舖",
        "district": "北角",
        "areas": "香港島",
        "desc": "有人發夢話：親身體驗，新聞睇cctvb, 係咁話啲學生搞事",
        "openHours": "暫沒資料",
        "image": "https://scontent.fhkg4-2.fna.fbcdn.net/v/t1.0-9/68581144_2407886585925385_3088769084318285824_o.jpg?_nc_cat=1&_nc_oc=AQm0KwZ6qjBfyOGQWP4-EPxohKl7R14-kt6AnE5mwf05-hSRXcuBLjYTZEoPZOaHQCI&_nc_ht=scontent.fhkg4-2.fna&oh=72a61468a8ab13ac20dc74a948206c41&oe=5DD08BF0",
        "brand": "金樂軒雞煲魚鍋 (北角)",
        "lat": 22.2922437,
        "lon": 114.1977473
    },
    {
        "id": 392,
        "name": "瑞士咖啡室",
        "address": "西環德輔道西296-302號良基大廈地下1-2號鋪 ",
        "district": "西環",
        "areas": "香港島",
        "desc": "原文網址: https://www.facebook.com/258224170919874/posts/2408307662578170?sfns=mo\n\n有人發夢話：10 Aug 探緊黃碧嬌，呢間野話唔歡迎黑衣人，仲搵幾個人守門口\n瑞士咖啡室分店，其下其他品牌，如廉記冰室、越南咖啡室等\nhttp://www.hkthebox.com/web/news-detail/54?fbclid=IwAR38z6YfLBZcP44gvGeUaTh1vPVnpeujoWMAuuAKQnU1PqgXb8NZxV_j3No",
        "openHours": "暫沒資料",
        "image": "https://scontent.fhkg4-2.fna.fbcdn.net/v/t1.0-9/68581144_2407886585925385_3088769084318285824_o.jpg?_nc_cat=1&_nc_oc=AQm0KwZ6qjBfyOGQWP4-EPxohKl7R14-kt6AnE5mwf05-hSRXcuBLjYTZEoPZOaHQCI&_nc_ht=scontent.fhkg4-2.fna&oh=72a61468a8ab13ac20dc74a948206c41&oe=5DD08BF0",
        "brand": "瑞士咖啡室",
        "lat": 22.287375,
        "lon": 114.139267
    },
    {
        "id": 393,
        "name": "瑞士咖啡室",
        "address": "中環利源西街12號地下",
        "district": "中環",
        "areas": "香港島",
        "desc": "原文網址: https://www.facebook.com/258224170919874/posts/2408307662578170?sfns=mo\n\n有人發夢話：10 Aug 探緊黃碧嬌，呢間野話唔歡迎黑衣人，仲搵幾個人守門口\n瑞士咖啡室分店，其下其他品牌，如廉記冰室、越南咖啡室等\nhttp://www.hkthebox.com/web/news-detail/54?fbclid=IwAR38z6YfLBZcP44gvGeUaTh1vPVnpeujoWMAuuAKQnU1PqgXb8NZxV_j3No",
        "openHours": "暫沒資料",
        "image": "https://scontent.fhkg4-2.fna.fbcdn.net/v/t1.0-9/68581144_2407886585925385_3088769084318285824_o.jpg?_nc_cat=1&_nc_oc=AQm0KwZ6qjBfyOGQWP4-EPxohKl7R14-kt6AnE5mwf05-hSRXcuBLjYTZEoPZOaHQCI&_nc_ht=scontent.fhkg4-2.fna&oh=72a61468a8ab13ac20dc74a948206c41&oe=5DD08BF0",
        "brand": "瑞士咖啡室",
        "lat": 22.283107,
        "lon": 114.156045
    },
    {
        "id": 394,
        "name": "瑞士咖啡室",
        "address": "灣仔灣仔道128-150號明豐大廈1樓B舖",
        "district": "灣仔",
        "areas": "香港島",
        "desc": "原文網址: https://www.facebook.com/258224170919874/posts/2408307662578170?sfns=mo\n\n有人發夢話：10 Aug 探緊黃碧嬌，呢間野話唔歡迎黑衣人，仲搵幾個人守門口\n瑞士咖啡室分店，其下其他品牌，如廉記冰室、越南咖啡室等\nhttp://www.hkthebox.com/web/news-detail/54?fbclid=IwAR38z6YfLBZcP44gvGeUaTh1vPVnpeujoWMAuuAKQnU1PqgXb8NZxV_j3No",
        "openHours": "暫沒資料",
        "image": "https://scontent.fhkg4-2.fna.fbcdn.net/v/t1.0-9/68581144_2407886585925385_3088769084318285824_o.jpg?_nc_cat=1&_nc_oc=AQm0KwZ6qjBfyOGQWP4-EPxohKl7R14-kt6AnE5mwf05-hSRXcuBLjYTZEoPZOaHQCI&_nc_ht=scontent.fhkg4-2.fna&oh=72a61468a8ab13ac20dc74a948206c41&oe=5DD08BF0",
        "brand": "瑞士咖啡室",
        "lat": 22.2769765,
        "lon": 114.1761456
    },
    {
        "id": 395,
        "name": "廉記冰室",
        "address": "中環永和街3號地下",
        "district": "中環",
        "areas": "香港島",
        "desc": "原文網址: https://www.facebook.com/258224170919874/posts/2408307662578170?sfns=mo\n\n有人發夢話：10 Aug 探緊黃碧嬌，呢間野話唔歡迎黑衣人，仲搵幾個人守門口\n瑞士咖啡室分店，其下其他品牌，如廉記冰室、越南咖啡室等\nhttp://www.hkthebox.com/web/news-detail/54?fbclid=IwAR38z6YfLBZcP44gvGeUaTh1vPVnpeujoWMAuuAKQnU1PqgXb8NZxV_j3No",
        "openHours": "暫沒資料",
        "image": "https://scontent.fhkg4-2.fna.fbcdn.net/v/t1.0-9/68581144_2407886585925385_3088769084318285824_o.jpg?_nc_cat=1&_nc_oc=AQm0KwZ6qjBfyOGQWP4-EPxohKl7R14-kt6AnE5mwf05-hSRXcuBLjYTZEoPZOaHQCI&_nc_ht=scontent.fhkg4-2.fna&oh=72a61468a8ab13ac20dc74a948206c41&oe=5DD08BF0",
        "brand": "廉記冰室",
        "lat": 22.2849182,
        "lon": 114.1534987
    },
    {
        "id": 396,
        "name": "廉記冰室",
        "address": "灣仔春園街13號地下",
        "district": "灣仔",
        "areas": "香港島",
        "desc": "原文網址: https://www.facebook.com/258224170919874/posts/2408307662578170?sfns=mo\n\n有人發夢話：10 Aug 探緊黃碧嬌，呢間野話唔歡迎黑衣人，仲搵幾個人守門口\n瑞士咖啡室分店，其下其他品牌，如廉記冰室、越南咖啡室等\nhttp://www.hkthebox.com/web/news-detail/54?fbclid=IwAR38z6YfLBZcP44gvGeUaTh1vPVnpeujoWMAuuAKQnU1PqgXb8NZxV_j3No",
        "openHours": "暫沒資料",
        "image": "https://scontent.fhkg4-2.fna.fbcdn.net/v/t1.0-9/68581144_2407886585925385_3088769084318285824_o.jpg?_nc_cat=1&_nc_oc=AQm0KwZ6qjBfyOGQWP4-EPxohKl7R14-kt6AnE5mwf05-hSRXcuBLjYTZEoPZOaHQCI&_nc_ht=scontent.fhkg4-2.fna&oh=72a61468a8ab13ac20dc74a948206c41&oe=5DD08BF0",
        "brand": "廉記冰室",
        "lat": 22.2760209,
        "lon": 114.1727505
    },
    {
        "id": 397,
        "name": "廉記冰室",
        "address": "柴灣華廈街2號環翠商場2樓205號舖",
        "district": "柴灣",
        "areas": "香港島",
        "desc": "原文網址: https://www.facebook.com/258224170919874/posts/2408307662578170?sfns=mo\n\n有人發夢話：10 Aug 探緊黃碧嬌，呢間野話唔歡迎黑衣人，仲搵幾個人守門口\n瑞士咖啡室分店，其下其他品牌，如廉記冰室、越南咖啡室等\nhttp://www.hkthebox.com/web/news-detail/54?fbclid=IwAR38z6YfLBZcP44gvGeUaTh1vPVnpeujoWMAuuAKQnU1PqgXb8NZxV_j3No",
        "openHours": "暫沒資料",
        "image": "https://scontent.fhkg4-2.fna.fbcdn.net/v/t1.0-9/68581144_2407886585925385_3088769084318285824_o.jpg?_nc_cat=1&_nc_oc=AQm0KwZ6qjBfyOGQWP4-EPxohKl7R14-kt6AnE5mwf05-hSRXcuBLjYTZEoPZOaHQCI&_nc_ht=scontent.fhkg4-2.fna&oh=72a61468a8ab13ac20dc74a948206c41&oe=5DD08BF0",
        "brand": "廉記冰室",
        "lat": 22.2627788,
        "lon": 114.2376661
    },
    {
        "id": 411,
        "name": "富臨皇宮",
        "address": "柴灣康民街 118號康翠台商業中心6字樓",
        "district": "柴灣",
        "areas": "香港島",
        "desc": "原文網址:  https://hk.finance.appledaily.com/finance/realtime/article/20190812/59922630\n北角富臨聚集福建幫 網民籲罷食 富臨：白衣人酒樓內冇違法 | \n昨日8.11，北角有穿紅衫的福建幫人士於英皇道富臨皇宮酒家門外聚集，門外更有發生打鬥，有黑衣途人被圍毆。事件引起網民憤怒，呼籲罷食富臨旗下餐廳。\n\n原文網址:  https://hk.news.appledaily.com/breaking/realtime/article/20190811/59920790\n北角一間酒樓變成福建幫指揮中心，部份人換上紅衫後疑進行誓師大會。\n\n原文網址:  https://lihkg.com/thread/1443304/page/1\n數已百計福建人同黑社會集結係北角錦屏街富臨皇宮酒樓",
        "openHours": "暫沒資料",
        "image": "https://scontent.fhkg4-2.fna.fbcdn.net/v/t1.0-9/68581144_2407886585925385_3088769084318285824_o.jpg?_nc_cat=1&_nc_oc=AQm0KwZ6qjBfyOGQWP4-EPxohKl7R14-kt6AnE5mwf05-hSRXcuBLjYTZEoPZOaHQCI&_nc_ht=scontent.fhkg4-2.fna&oh=72a61468a8ab13ac20dc74a948206c41&oe=5DD08BF0",
        "brand": "富臨",
        "lat": 22.2667975,
        "lon": 114.235177
    },
    {
        "id": 412,
        "name": "富臨皇宮",
        "address": "香港仔南寧街1、3、5號香港仔中心 1字樓",
        "district": "香港仔",
        "areas": "香港島",
        "desc": "原文網址:  https://hk.finance.appledaily.com/finance/realtime/article/20190812/59922630\n北角富臨聚集福建幫 網民籲罷食 富臨：白衣人酒樓內冇違法 | \n昨日8.11，北角有穿紅衫的福建幫人士於英皇道富臨皇宮酒家門外聚集，門外更有發生打鬥，有黑衣途人被圍毆。事件引起網民憤怒，呼籲罷食富臨旗下餐廳。\n\n原文網址:  https://hk.news.appledaily.com/breaking/realtime/article/20190811/59920790\n北角一間酒樓變成福建幫指揮中心，部份人換上紅衫後疑進行誓師大會。\n\n原文網址:  https://lihkg.com/thread/1443304/page/1\n數已百計福建人同黑社會集結係北角錦屏街富臨皇宮酒樓",
        "openHours": "暫沒資料",
        "image": "https://scontent.fhkg4-2.fna.fbcdn.net/v/t1.0-9/68581144_2407886585925385_3088769084318285824_o.jpg?_nc_cat=1&_nc_oc=AQm0KwZ6qjBfyOGQWP4-EPxohKl7R14-kt6AnE5mwf05-hSRXcuBLjYTZEoPZOaHQCI&_nc_ht=scontent.fhkg4-2.fna&oh=72a61468a8ab13ac20dc74a948206c41&oe=5DD08BF0",
        "brand": "富臨",
        "lat": 22.2480002,
        "lon": 114.1546943
    },
    {
        "id": 413,
        "name": "富臨皇宮",
        "address": "北角英皇道438號地下",
        "district": "北角",
        "areas": "香港島",
        "desc": "原文網址:  https://hk.finance.appledaily.com/finance/realtime/article/20190812/59922630\n北角富臨聚集福建幫 網民籲罷食 富臨：白衣人酒樓內冇違法 | \n昨日8.11，北角有穿紅衫的福建幫人士於英皇道富臨皇宮酒家門外聚集，門外更有發生打鬥，有黑衣途人被圍毆。事件引起網民憤怒，呼籲罷食富臨旗下餐廳。\n\n原文網址:  https://hk.news.appledaily.com/breaking/realtime/article/20190811/59920790\n北角一間酒樓變成福建幫指揮中心，部份人換上紅衫後疑進行誓師大會。\n\n原文網址:  https://lihkg.com/thread/1443304/page/1\n數已百計福建人同黑社會集結係北角錦屏街富臨皇宮酒樓",
        "openHours": "暫沒資料",
        "image": "https://scontent.fhkg4-2.fna.fbcdn.net/v/t1.0-9/68581144_2407886585925385_3088769084318285824_o.jpg?_nc_cat=1&_nc_oc=AQm0KwZ6qjBfyOGQWP4-EPxohKl7R14-kt6AnE5mwf05-hSRXcuBLjYTZEoPZOaHQCI&_nc_ht=scontent.fhkg4-2.fna&oh=72a61468a8ab13ac20dc74a948206c41&oe=5DD08BF0",
        "brand": "富臨",
        "lat": 22.2909161,
        "lon": 114.1997583
    },
    {
        "id": 424,
        "name": "陶源酒家(鮑魚專門店)",
        "address": "灣仔菲林明道 8號大同商場 1至2樓",
        "district": "灣仔",
        "areas": "香港島",
        "desc": "原文網址:  https://hk.finance.appledaily.com/finance/realtime/article/20190812/59922630\n北角富臨聚集福建幫 網民籲罷食 富臨：白衣人酒樓內冇違法 | \n昨日8.11，北角有穿紅衫的福建幫人士於英皇道富臨皇宮酒家門外聚集，門外更有發生打鬥，有黑衣途人被圍毆。事件引起網民憤怒，呼籲罷食富臨旗下餐廳。\n\n原文網址:  https://hk.news.appledaily.com/breaking/realtime/article/20190811/59920790\n北角一間酒樓變成福建幫指揮中心，部份人換上紅衫後疑進行誓師大會。\n\n原文網址:  https://lihkg.com/thread/1443304/page/1\n數已百計福建人同黑社會集結係北角錦屏街富臨皇宮酒樓",
        "openHours": "暫沒資料",
        "image": "https://scontent.fhkg4-2.fna.fbcdn.net/v/t1.0-9/68581144_2407886585925385_3088769084318285824_o.jpg?_nc_cat=1&_nc_oc=AQm0KwZ6qjBfyOGQWP4-EPxohKl7R14-kt6AnE5mwf05-hSRXcuBLjYTZEoPZOaHQCI&_nc_ht=scontent.fhkg4-2.fna&oh=72a61468a8ab13ac20dc74a948206c41&oe=5DD08BF0",
        "brand": "富臨",
        "lat": 22.277216,
        "lon": 114.174605
    },
    {
        "id": 425,
        "name": "陶源酒家(鮑魚專門店)",
        "address": "西環皇后大道西409號怡景花園地下",
        "district": "西環",
        "areas": "香港島",
        "desc": "原文網址:  https://hk.finance.appledaily.com/finance/realtime/article/20190812/59922630\n北角富臨聚集福建幫 網民籲罷食 富臨：白衣人酒樓內冇違法 | \n昨日8.11，北角有穿紅衫的福建幫人士於英皇道富臨皇宮酒家門外聚集，門外更有發生打鬥，有黑衣途人被圍毆。事件引起網民憤怒，呼籲罷食富臨旗下餐廳。\n\n原文網址:  https://hk.news.appledaily.com/breaking/realtime/article/20190811/59920790\n北角一間酒樓變成福建幫指揮中心，部份人換上紅衫後疑進行誓師大會。\n\n原文網址:  https://lihkg.com/thread/1443304/page/1\n數已百計福建人同黑社會集結係北角錦屏街富臨皇宮酒樓",
        "openHours": "暫沒資料",
        "image": "https://scontent.fhkg4-2.fna.fbcdn.net/v/t1.0-9/68581144_2407886585925385_3088769084318285824_o.jpg?_nc_cat=1&_nc_oc=AQm0KwZ6qjBfyOGQWP4-EPxohKl7R14-kt6AnE5mwf05-hSRXcuBLjYTZEoPZOaHQCI&_nc_ht=scontent.fhkg4-2.fna&oh=72a61468a8ab13ac20dc74a948206c41&oe=5DD08BF0",
        "brand": "富臨",
        "lat": 22.2865913,
        "lon": 114.13828
    },
    {
        "id": 443,
        "name": "炑八韓烤",
        "address": "銅鑼灣軒尼詩道502號黃金廣場6樓",
        "district": "銅鑼灣",
        "areas": "香港島",
        "desc": "原文網址:  https://hk.finance.appledaily.com/finance/realtime/article/20190812/59922630\n北角富臨聚集福建幫 網民籲罷食 富臨：白衣人酒樓內冇違法 | \n昨日8.11，北角有穿紅衫的福建幫人士於英皇道富臨皇宮酒家門外聚集，門外更有發生打鬥，有黑衣途人被圍毆。事件引起網民憤怒，呼籲罷食富臨旗下餐廳。\n\n原文網址:  https://hk.news.appledaily.com/breaking/realtime/article/20190811/59920790\n北角一間酒樓變成福建幫指揮中心，部份人換上紅衫後疑進行誓師大會。\n\n原文網址:  https://lihkg.com/thread/1443304/page/1\n數已百計福建人同黑社會集結係北角錦屏街富臨皇宮酒樓",
        "openHours": "暫沒資料",
        "image": "https://scontent.fhkg4-2.fna.fbcdn.net/v/t1.0-9/68581144_2407886585925385_3088769084318285824_o.jpg?_nc_cat=1&_nc_oc=AQm0KwZ6qjBfyOGQWP4-EPxohKl7R14-kt6AnE5mwf05-hSRXcuBLjYTZEoPZOaHQCI&_nc_ht=scontent.fhkg4-2.fna&oh=72a61468a8ab13ac20dc74a948206c41&oe=5DD08BF0",
        "brand": "富臨",
        "lat": 22.2799848,
        "lon": 114.1842465
    },
    {
        "id": 444,
        "name": "炑八韓烤",
        "address": "北角電氣道233號城巿中心商場1-3座地下24-49B號舖",
        "district": "北角",
        "areas": "香港島",
        "desc": "原文網址:  https://hk.finance.appledaily.com/finance/realtime/article/20190812/59922630\n北角富臨聚集福建幫 網民籲罷食 富臨：白衣人酒樓內冇違法 | \n昨日8.11，北角有穿紅衫的福建幫人士於英皇道富臨皇宮酒家門外聚集，門外更有發生打鬥，有黑衣途人被圍毆。事件引起網民憤怒，呼籲罷食富臨旗下餐廳。\n\n原文網址:  https://hk.news.appledaily.com/breaking/realtime/article/20190811/59920790\n北角一間酒樓變成福建幫指揮中心，部份人換上紅衫後疑進行誓師大會。\n\n原文網址:  https://lihkg.com/thread/1443304/page/1\n數已百計福建人同黑社會集結係北角錦屏街富臨皇宮酒樓",
        "openHours": "暫沒資料",
        "image": "https://scontent.fhkg4-2.fna.fbcdn.net/v/t1.0-9/68581144_2407886585925385_3088769084318285824_o.jpg?_nc_cat=1&_nc_oc=AQm0KwZ6qjBfyOGQWP4-EPxohKl7R14-kt6AnE5mwf05-hSRXcuBLjYTZEoPZOaHQCI&_nc_ht=scontent.fhkg4-2.fna&oh=72a61468a8ab13ac20dc74a948206c41&oe=5DD08BF0",
        "brand": "富臨",
        "lat": 22.2914308,
        "lon": 114.1951021
    }
]
