[
    {
        "name": "大家樂",
        "address": "中環添美道1號中信大廈",
        "desc": "昨日大約4時，中信大廈大家樂門外天橋有催淚彈，亦一度有防暴警察駐守。\n當時大家樂成為左唔少中彈市民既急傷站同埋其他人既避難所。\n當值經理突然熄燈熄冷氣，並示意餐廳要關門，請所有人離開",
        "brand": "大家樂",
        "lat": 22.280874,
        "lon": 114.167144
    },
    {
        "name": "馬鞍山廣場譚仔",
        "address": "馬鞍山馬鞍山廣場二樓266-268號舖",
        "district": "馬鞍山",
        "areas": "新界區",
        "desc": "https://lihkg.com/thread/1215706/page/10\n遊行完第二日聽班呀姐話後生仔收左錢，邊有一百萬咁多",
        "brand": "譚仔",
        "lat": 22.425589,
        "lon": 114.231044
    },
    {
        "name": "養心殿",
        "address": "旺角彌敦道607號Shop106-112, 1/F新興大廈",
        "district": "旺角",
        "areas": "九龍區",
        "desc": " https://lih.kg/1220224\n養心殿老細話上街果班年輕人全部係被煽動 \n\n養心殿老闆KaFai Chan旗下餐廳：\n養心麵\n靖 omakase\n灣仔靠炆雞",
        "brand": "養心殿",
        "lat": 22.316962,
        "lon": 114.169615
    },
    {
        "name": "麥當勞",
        "address": "旺角彌敦道612-618號",
        "district": "旺角",
        "areas": "九龍區",
        "desc": "July 08\n就今晨於油麻地富運商業中心麥當勞發生的事件，香港麥當勞有以下回應：\n基於保安理由，同時保障餐廳內的顧客及僱員，香港麥當勞於每間餐廳均設置閉路電視，並會確保閉路電視正常運作。\n為保護及尊重顧客的私隱，閉路電視片段不會公開展示。但根據本公司對事件的了解，於今早(即七月八日) 凌晨一時左右，數名警察及一名男士從街外走進位於旺角富運麥當勞餐廳，而該名男士於數秒後已被警察帶走。整個過程中，並沒有打鬥及推撞行為。",
        "brand": "麥當勞",
        "lat": 22.317386,
        "lon": 114.170292
    },
    {
        "name": "榮式燒雞扒",
        "address": "25-26, 屯門時代廣場北翼2 Tuen Lung St, Tuen Mun",
        "district": "屯門",
        "areas": "新界區",
        "desc": "https://lihkg.com/thread/1215441/page/1\n聽到個著黑衫唔知係咪店長同其中一個較年長伙記係到討論尋日612佔領\n竟然話尋日大部分係2x歲後生仔 都係收錢搞事 收1500蚊 之後去個d就無得收咁多",
        "brand": "榮式燒雞扒",
        "lat": 22.393557,
        "lon": 113.975826
    },
    {
        "name": "老虎堂",
        "address": "觀塘觀塘道418號創紀之城5期apm第1層L1-11號舖",
        "district": "觀塘",
        "areas": "九龍區",
        "desc": "https://lihkg.com/thread/1215175/page/1\nJune 13\n無預先請假佢哋係唔啱，但係佢哋都係想守護佢哋嘅城市。\n淨係顧住自己鋪頭生意就係度屌班後生。",
        "brand": "老虎堂",
        "lat": 22.312275,
        "lon": 114.225275
    },
    {
        "name": "老虎堂",
        "address": "銅鑼灣渣甸街36號地下3號舖",
        "district": "銅鑼灣",
        "areas": "香港島",
        "desc": "https://lihkg.com/thread/1215175/page/1\nJune 13\n無預先請假佢哋係唔啱，但係佢哋都係想守護佢哋嘅城市。\n淨係顧住自己鋪頭生意就係度屌班後生。",
        "brand": "老虎堂",
        "lat": 22.279604,
        "lon": 114.185408
    },
    {
        "name": "老虎堂",
        "address": "旺角彌敦道700號T.O.P地下15號舖",
        "district": "旺角",
        "areas": "九龍區",
        "desc": "https://lihkg.com/thread/1215175/page/1\nJune 13\n無預先請假佢哋係唔啱，但係佢哋都係想守護佢哋嘅城市。\n淨係顧住自己鋪頭生意就係度屌班後生。",
        "brand": "老虎堂",
        "lat": 22.320739,
        "lon": 114.169406
    },
    {
        "name": "老虎堂",
        "address": "匯景花園匯景道匯景廣場",
        "district": "藍田",
        "areas": "九龍區",
        "desc": "https://lihkg.com/thread/1215175/page/1\nJune 13\n無預先請假佢哋係唔啱，但係佢哋都係想守護佢哋嘅城市。\n淨係顧住自己鋪頭生意就係度屌班後生。",
        "brand": "老虎堂",
        "lat": 22.307031,
        "lon": 114.233152
    },
    {
        "name": "老虎堂",
        "address": "西灣河筲箕灣道57-87號37A D號舖太安樓",
        "district": "西灣河",
        "areas": "香港島",
        "desc": "https://lihkg.com/thread/1215175/page/1\nJune 13\n無預先請假佢哋係唔啱，但係佢哋都係想守護佢哋嘅城市。\n淨係顧住自己鋪頭生意就係度屌班後生。",
        "brand": "老虎堂",
        "lat": 22.282924,
        "lon": 114.222153
    },
    {
        "name": "老虎堂",
        "address": "佐敦白加士街70號號地下E",
        "district": "佐敦",
        "areas": "九龍區",
        "desc": "https://lihkg.com/thread/1215175/page/1\nJune 13\n無預先請假佢哋係唔啱，但係佢哋都係想守護佢哋嘅城市。\n淨係顧住自己鋪頭生意就係度屌班後生。",
        "brand": "老虎堂",
        "lat": 22.305857,
        "lon": 114.170803
    },
    {
        "name": "老虎堂",
        "address": "尖沙咀樂道5號嘉樂大廈地下2號舖",
        "district": "尖沙咀",
        "areas": "九龍區",
        "desc": "https://lihkg.com/thread/1215175/page/1\nJune 13\n無預先請假佢哋係唔啱，但係佢哋都係想守護佢哋嘅城市。\n淨係顧住自己鋪頭生意就係度屌班後生。",
        "brand": "老虎堂",
        "lat": 22.296798,
        "lon": 114.171481
    },
    {
        "name": "老虎堂",
        "address": "荃灣荃興徑14b號",
        "district": "荃灣",
        "areas": "新界區",
        "desc": "https://lihkg.com/thread/1215175/page/1\nJune 13\n無預先請假佢哋係唔啱，但係佢哋都係想守護佢哋嘅城市。\n淨係顧住自己鋪頭生意就係度屌班後生。",
        "brand": "老虎堂",
        "lat": 22.37263,
        "lon": 114.115517
    },
    {
        "name": "日牛涮涮鍋專門店",
        "address": "坑口東港城第一層 197A 號舖",
        "district": "坑口",
        "areas": "新界區",
        "desc": "July 23\n連登討論區網民「雞蛋撞高牆」昨以「有餐廳拒絕遊行人士入內進餐！！！」為題發文，稱昨日與兩名友人出席遊行後返回將軍澳打算打邊爐，一行三人到東港城的日牛涮涮鍋專門店（日牛，下同）取籌等位，期間談及遊行的詳情。樓主稱，餐廳門口的女職員聽到他與朋友的對話突然黑面，「之後入咗去同另一個男店員講，一路講一路望過嚟，我哋就覺得瀨嘢啦，不過下個就到我哋所以繼續等」。\n\n結果樓主一等就是45分鐘，他稱之後見到「有張四人枱空咗出嚟」，但男職員「即刻攞塊板將張枱隔開兩邊，變做兩張兩人枱，然後畀人入去」。樓主上前與女職員理論，對方僅稱「兩人枱多人排要畀人入先」。\n\n樓主稱，其後再有4人家庭「插隊」入座，女職員回答稱「佢哋嚟先喎，同埋呢，𠵱家我哋鋪頭都就閂門你哋可以唔使再等啦」，樓主大感不滿直接質問：「你玩嘢？我哋number前過佢哋。」對方卻稱：「冇，你可以食其他餐廳㗎，咁得閒周圍遊行。」",
        "brand": "日牛涮涮鍋專門店",
        "lat": 22.316989,
        "lon": 114.265549
    },
    {
        "name": "山崎麵飽",
        "address": "連鎖餐廳",
        "district": "香港大學",
        "areas": "香港島",
        "desc": "https://www.facebook.com/HKUSecrets/posts/1090778311123128 \nJune 25\n今日係彩x漢x食飯， 聽到隔離枱有幾個着恤衫男人同兩個女人係度講緊逃犯條例， 佢地話啲學生係收錢去612去遊行係暴徒阻住地球轉， 呢啲少數人唔代表佢地。 另一個男人話如果佢前兩日要去稅局， 啲學生阻住佢的話， 就會大巴大巴咁摑落佢地度摑醒佢地。 仲話班大學生無腦抵佢地612比警察打。 佢地話今次佔中影響佢地生意， 佢地鋪頭賺少左， 又搞到少左大陸人幫襯。 講多講佢地鋪頭係買麵包， 原來佢地係山x麵包嘅鋪頭負責人☺️ 既然我地兩百萬人係少數，咁以後我唔會再幫襯， 留番比大陸人食啦 《係香港大學站有一間，但唔知佢地賣唔賣比我呢個無腦又暴徒既大學生食？》",
        "brand": "山崎麵飽",
        "lat": 22.284341,
        "lon": 114.134823
    },
    {
        "name": "吉野家",
        "address": "香港上環干諾道中168-200號信德中心三樓322 及323號舖",
        "district": "上環",
        "areas": "香港島",
        "desc": "「反送中」運動遍地開花，市民自發在各區設置連儂牆。近百名配備防暴裝備的持盾警員，日前凌晨前往大埔連儂牆撕走涉警資料便條紙，連鎖餐廳吉野家事後在臉書專頁發表宣傳產品的貼文，當中「唔准叫我獅子狗」的字眼被指辱警。中聯辦主導的《文匯報》及《大公報》報道，吉野家已跟外判廣告公司解約，負責廣告事務的公司員工已亦被解聘。職工盟今午到油麻地吉野家僑江大廈分店抗議，批評解僱工做法屬政治打壓，並呼籲市民「向染紅獅子狗說不！」\n\n報道引述吉野家母公司香港合興集團有限公司總裁、全國政協委員洪明基稱，他最近參加了撐警大會，全力支持特區政府依法施政，對事先不知情感到極為憤怒，亦對事件感到非常痛心。目前涉事廣告已刪除，外判廣告公司遭解約，而負責廣告事務的公司員工亦被解僱。",
        "brand": "吉野家",
        "lat": 22.282186,
        "lon": 114.166005
    },
    {
        "name": "吉野家",
        "address": "香港北角英皇道 260 號怡安中心地舖",
        "district": "北角",
        "areas": "香港島",
        "desc": "「反送中」運動遍地開花，市民自發在各區設置連儂牆。近百名配備防暴裝備的持盾警員，日前凌晨前往大埔連儂牆撕走涉警資料便條紙，連鎖餐廳吉野家事後在臉書專頁發表宣傳產品的貼文，當中「唔准叫我獅子狗」的字眼被指辱警。中聯辦主導的《文匯報》及《大公報》報道，吉野家已跟外判廣告公司解約，負責廣告事務的公司員工已亦被解聘。職工盟今午到油麻地吉野家僑江大廈分店抗議，批評解僱工做法屬政治打壓，並呼籲市民「向染紅獅子狗說不！」\n\n報道引述吉野家母公司香港合興集團有限公司總裁、全國政協委員洪明基稱，他最近參加了撐警大會，全力支持特區政府依法施政，對事先不知情感到極為憤怒，亦對事件感到非常痛心。目前涉事廣告已刪除，外判廣告公司遭解約，而負責廣告事務的公司員工亦被解僱。",
        "brand": "吉野家",
        "lat": 22.288932,
        "lon": 114.194577
    },
    {
        "name": "吉野家",
        "address": "香港德輔道中188號金龍中心地下1, 2 & 6號舖",
        "district": "上環",
        "areas": "香港島",
        "desc": "「反送中」運動遍地開花，市民自發在各區設置連儂牆。近百名配備防暴裝備的持盾警員，日前凌晨前往大埔連儂牆撕走涉警資料便條紙，連鎖餐廳吉野家事後在臉書專頁發表宣傳產品的貼文，當中「唔准叫我獅子狗」的字眼被指辱警。中聯辦主導的《文匯報》及《大公報》報道，吉野家已跟外判廣告公司解約，負責廣告事務的公司員工已亦被解聘。職工盟今午到油麻地吉野家僑江大廈分店抗議，批評解僱工做法屬政治打壓，並呼籲市民「向染紅獅子狗說不！」\n\n報道引述吉野家母公司香港合興集團有限公司總裁、全國政協委員洪明基稱，他最近參加了撐警大會，全力支持特區政府依法施政，對事先不知情感到極為憤怒，亦對事件感到非常痛心。目前涉事廣告已刪除，外判廣告公司遭解約，而負責廣告事務的公司員工亦被解僱。",
        "brand": "吉野家",
        "lat": 22.286052,
        "lon": 114.153481
    },
    {
        "name": "吉野家",
        "address": "九龍土瓜灣馬頭圍道209號海悅廣場商場1樓2A,2B,2C及3號舖",
        "district": "土瓜灣",
        "areas": "九龍區",
        "desc": "「反送中」運動遍地開花，市民自發在各區設置連儂牆。近百名配備防暴裝備的持盾警員，日前凌晨前往大埔連儂牆撕走涉警資料便條紙，連鎖餐廳吉野家事後在臉書專頁發表宣傳產品的貼文，當中「唔准叫我獅子狗」的字眼被指辱警。中聯辦主導的《文匯報》及《大公報》報道，吉野家已跟外判廣告公司解約，負責廣告事務的公司員工已亦被解聘。職工盟今午到油麻地吉野家僑江大廈分店抗議，批評解僱工做法屬政治打壓，並呼籲市民「向染紅獅子狗說不！」\n\n報道引述吉野家母公司香港合興集團有限公司總裁、全國政協委員洪明基稱，他最近參加了撐警大會，全力支持特區政府依法施政，對事先不知情感到極為憤怒，亦對事件感到非常痛心。目前涉事廣告已刪除，外判廣告公司遭解約，而負責廣告事務的公司員工亦被解僱。",
        "brand": "吉野家",
        "lat": 22.322018,
        "lon": 114.187923
    },
    {
        "name": "吉野家",
        "address": "九龍佐敦上海街121-123號金海大廈A1號地下及一樓",
        "district": "佐敦",
        "areas": "九龍區",
        "desc": "「反送中」運動遍地開花，市民自發在各區設置連儂牆。近百名配備防暴裝備的持盾警員，日前凌晨前往大埔連儂牆撕走涉警資料便條紙，連鎖餐廳吉野家事後在臉書專頁發表宣傳產品的貼文，當中「唔准叫我獅子狗」的字眼被指辱警。中聯辦主導的《文匯報》及《大公報》報道，吉野家已跟外判廣告公司解約，負責廣告事務的公司員工已亦被解聘。職工盟今午到油麻地吉野家僑江大廈分店抗議，批評解僱工做法屬政治打壓，並呼籲市民「向染紅獅子狗說不！」\n\n報道引述吉野家母公司香港合興集團有限公司總裁、全國政協委員洪明基稱，他最近參加了撐警大會，全力支持特區政府依法施政，對事先不知情感到極為憤怒，亦對事件感到非常痛心。目前涉事廣告已刪除，外判廣告公司遭解約，而負責廣告事務的公司員工亦被解僱。",
        "brand": "吉野家",
        "lat": 22.306393,
        "lon": 114.16932
    },
    {
        "name": "吉野家",
        "address": "九龍何文田何文田廣場3樓318號舖",
        "district": "何文田",
        "areas": "九龍區",
        "desc": "「反送中」運動遍地開花，市民自發在各區設置連儂牆。近百名配備防暴裝備的持盾警員，日前凌晨前往大埔連儂牆撕走涉警資料便條紙，連鎖餐廳吉野家事後在臉書專頁發表宣傳產品的貼文，當中「唔准叫我獅子狗」的字眼被指辱警。中聯辦主導的《文匯報》及《大公報》報道，吉野家已跟外判廣告公司解約，負責廣告事務的公司員工已亦被解聘。職工盟今午到油麻地吉野家僑江大廈分店抗議，批評解僱工做法屬政治打壓，並呼籲市民「向染紅獅子狗說不！」\n\n報道引述吉野家母公司香港合興集團有限公司總裁、全國政協委員洪明基稱，他最近參加了撐警大會，全力支持特區政府依法施政，對事先不知情感到極為憤怒，亦對事件感到非常痛心。目前涉事廣告已刪除，外判廣告公司遭解約，而負責廣告事務的公司員工亦被解僱。",
        "brand": "吉野家",
        "lat": 22.316179,
        "lon": 114.181765
    },
    {
        "name": "吉野家",
        "address": "九龍旺角彌敦道655號地庫",
        "district": "旺角",
        "areas": "九龍區",
        "desc": "「反送中」運動遍地開花，市民自發在各區設置連儂牆。近百名配備防暴裝備的持盾警員，日前凌晨前往大埔連儂牆撕走涉警資料便條紙，連鎖餐廳吉野家事後在臉書專頁發表宣傳產品的貼文，當中「唔准叫我獅子狗」的字眼被指辱警。中聯辦主導的《文匯報》及《大公報》報道，吉野家已跟外判廣告公司解約，負責廣告事務的公司員工已亦被解聘。職工盟今午到油麻地吉野家僑江大廈分店抗議，批評解僱工做法屬政治打壓，並呼籲市民「向染紅獅子狗說不！」\n\n報道引述吉野家母公司香港合興集團有限公司總裁、全國政協委員洪明基稱，他最近參加了撐警大會，全力支持特區政府依法施政，對事先不知情感到極為憤怒，亦對事件感到非常痛心。目前涉事廣告已刪除，外判廣告公司遭解約，而負責廣告事務的公司員工亦被解僱。",
        "brand": "吉野家",
        "lat": 22.318619,
        "lon": 114.169249
    },
    {
        "name": "吉野家",
        "address": "九龍奧海城一期地下高層UG32號舖",
        "district": "奧海城",
        "areas": "九龍區",
        "desc": "「反送中」運動遍地開花，市民自發在各區設置連儂牆。近百名配備防暴裝備的持盾警員，日前凌晨前往大埔連儂牆撕走涉警資料便條紙，連鎖餐廳吉野家事後在臉書專頁發表宣傳產品的貼文，當中「唔准叫我獅子狗」的字眼被指辱警。中聯辦主導的《文匯報》及《大公報》報道，吉野家已跟外判廣告公司解約，負責廣告事務的公司員工已亦被解聘。職工盟今午到油麻地吉野家僑江大廈分店抗議，批評解僱工做法屬政治打壓，並呼籲市民「向染紅獅子狗說不！」\n\n報道引述吉野家母公司香港合興集團有限公司總裁、全國政協委員洪明基稱，他最近參加了撐警大會，全力支持特區政府依法施政，對事先不知情感到極為憤怒，亦對事件感到非常痛心。目前涉事廣告已刪除，外判廣告公司遭解約，而負責廣告事務的公司員工亦被解僱。",
        "brand": "吉野家",
        "lat": 22.31824,
        "lon": 114.159096
    },
    {
        "name": "吉野家",
        "address": "九龍慈雲山慈雲山中心 3樓314-315 號舖",
        "district": "慈雲山",
        "areas": "九龍區",
        "desc": "「反送中」運動遍地開花，市民自發在各區設置連儂牆。近百名配備防暴裝備的持盾警員，日前凌晨前往大埔連儂牆撕走涉警資料便條紙，連鎖餐廳吉野家事後在臉書專頁發表宣傳產品的貼文，當中「唔准叫我獅子狗」的字眼被指辱警。中聯辦主導的《文匯報》及《大公報》報道，吉野家已跟外判廣告公司解約，負責廣告事務的公司員工已亦被解聘。職工盟今午到油麻地吉野家僑江大廈分店抗議，批評解僱工做法屬政治打壓，並呼籲市民「向染紅獅子狗說不！」\n\n報道引述吉野家母公司香港合興集團有限公司總裁、全國政協委員洪明基稱，他最近參加了撐警大會，全力支持特區政府依法施政，對事先不知情感到極為憤怒，亦對事件感到非常痛心。目前涉事廣告已刪除，外判廣告公司遭解約，而負責廣告事務的公司員工亦被解僱。",
        "brand": "吉野家",
        "lat": 22.348288,
        "lon": 114.200476
    },
    {
        "name": "吉野家",
        "address": "九龍彌敦道524號僑江大廈地舖",
        "district": "油麻地",
        "areas": "九龍區",
        "desc": "「反送中」運動遍地開花，市民自發在各區設置連儂牆。近百名配備防暴裝備的持盾警員，日前凌晨前往大埔連儂牆撕走涉警資料便條紙，連鎖餐廳吉野家事後在臉書專頁發表宣傳產品的貼文，當中「唔准叫我獅子狗」的字眼被指辱警。中聯辦主導的《文匯報》及《大公報》報道，吉野家已跟外判廣告公司解約，負責廣告事務的公司員工已亦被解聘。職工盟今午到油麻地吉野家僑江大廈分店抗議，批評解僱工做法屬政治打壓，並呼籲市民「向染紅獅子狗說不！」\n\n報道引述吉野家母公司香港合興集團有限公司總裁、全國政協委員洪明基稱，他最近參加了撐警大會，全力支持特區政府依法施政，對事先不知情感到極為憤怒，亦對事件感到非常痛心。目前涉事廣告已刪除，外判廣告公司遭解約，而負責廣告事務的公司員工亦被解僱。",
        "brand": "吉野家",
        "lat": 22.312662,
        "lon": 114.171026
    },
    {
        "name": "吉野家",
        "address": "九龍藍田匯景廣場 4樓 2 號舖 A部份",
        "district": "藍田",
        "areas": "九龍區",
        "desc": "「反送中」運動遍地開花，市民自發在各區設置連儂牆。近百名配備防暴裝備的持盾警員，日前凌晨前往大埔連儂牆撕走涉警資料便條紙，連鎖餐廳吉野家事後在臉書專頁發表宣傳產品的貼文，當中「唔准叫我獅子狗」的字眼被指辱警。中聯辦主導的《文匯報》及《大公報》報道，吉野家已跟外判廣告公司解約，負責廣告事務的公司員工已亦被解聘。職工盟今午到油麻地吉野家僑江大廈分店抗議，批評解僱工做法屬政治打壓，並呼籲市民「向染紅獅子狗說不！」\n\n報道引述吉野家母公司香港合興集團有限公司總裁、全國政協委員洪明基稱，他最近參加了撐警大會，全力支持特區政府依法施政，對事先不知情感到極為憤怒，亦對事件感到非常痛心。目前涉事廣告已刪除，外判廣告公司遭解約，而負責廣告事務的公司員工亦被解僱。",
        "brand": "吉野家",
        "lat": 22.307154,
        "lon": 114.233549
    },
    {
        "name": "吉野家",
        "address": "九龍灣淘大商場第一期一樓F41-45號舖",
        "district": "九龍灣",
        "areas": "九龍區",
        "desc": "「反送中」運動遍地開花，市民自發在各區設置連儂牆。近百名配備防暴裝備的持盾警員，日前凌晨前往大埔連儂牆撕走涉警資料便條紙，連鎖餐廳吉野家事後在臉書專頁發表宣傳產品的貼文，當中「唔准叫我獅子狗」的字眼被指辱警。中聯辦主導的《文匯報》及《大公報》報道，吉野家已跟外判廣告公司解約，負責廣告事務的公司員工已亦被解聘。職工盟今午到油麻地吉野家僑江大廈分店抗議，批評解僱工做法屬政治打壓，並呼籲市民「向染紅獅子狗說不！」\n\n報道引述吉野家母公司香港合興集團有限公司總裁、全國政協委員洪明基稱，他最近參加了撐警大會，全力支持特區政府依法施政，對事先不知情感到極為憤怒，亦對事件感到非常痛心。目前涉事廣告已刪除，外判廣告公司遭解約，而負責廣告事務的公司員工亦被解僱。",
        "brand": "吉野家",
        "lat": 22.307154,
        "lon": 114.233549
    },
    {
        "name": "吉野家",
        "address": "九龍觀塘成業街7號寧晉中心地下36號舖",
        "district": "觀塘",
        "areas": "九龍區",
        "desc": "「反送中」運動遍地開花，市民自發在各區設置連儂牆。近百名配備防暴裝備的持盾警員，日前凌晨前往大埔連儂牆撕走涉警資料便條紙，連鎖餐廳吉野家事後在臉書專頁發表宣傳產品的貼文，當中「唔准叫我獅子狗」的字眼被指辱警。中聯辦主導的《文匯報》及《大公報》報道，吉野家已跟外判廣告公司解約，負責廣告事務的公司員工已亦被解聘。職工盟今午到油麻地吉野家僑江大廈分店抗議，批評解僱工做法屬政治打壓，並呼籲市民「向染紅獅子狗說不！」\n\n報道引述吉野家母公司香港合興集團有限公司總裁、全國政協委員洪明基稱，他最近參加了撐警大會，全力支持特區政府依法施政，對事先不知情感到極為憤怒，亦對事件感到非常痛心。目前涉事廣告已刪除，外判廣告公司遭解約，而負責廣告事務的公司員工亦被解僱。",
        "brand": "吉野家",
        "lat": 22.311082,
        "lon": 114.226172
    },
    {
        "name": "吉野家",
        "address": "新界大埔大埔超級城B區1樓130-133及133A舖",
        "district": "大埔",
        "areas": "新界區",
        "desc": "「反送中」運動遍地開花，市民自發在各區設置連儂牆。近百名配備防暴裝備的持盾警員，日前凌晨前往大埔連儂牆撕走涉警資料便條紙，連鎖餐廳吉野家事後在臉書專頁發表宣傳產品的貼文，當中「唔准叫我獅子狗」的字眼被指辱警。中聯辦主導的《文匯報》及《大公報》報道，吉野家已跟外判廣告公司解約，負責廣告事務的公司員工已亦被解聘。職工盟今午到油麻地吉野家僑江大廈分店抗議，批評解僱工做法屬政治打壓，並呼籲市民「向染紅獅子狗說不！」\n\n報道引述吉野家母公司香港合興集團有限公司總裁、全國政協委員洪明基稱，他最近參加了撐警大會，全力支持特區政府依法施政，對事先不知情感到極為憤怒，亦對事件感到非常痛心。目前涉事廣告已刪除，外判廣告公司遭解約，而負責廣告事務的公司員工亦被解僱。",
        "brand": "吉野家",
        "lat": 22.451733,
        "lon": 114.170609
    },
    {
        "name": "吉野家",
        "address": "新界元朗天水圍天頌苑頌富廣場第一期1樓114-115號商舖",
        "district": "天水圍",
        "areas": "新界區",
        "desc": "「反送中」運動遍地開花，市民自發在各區設置連儂牆。近百名配備防暴裝備的持盾警員，日前凌晨前往大埔連儂牆撕走涉警資料便條紙，連鎖餐廳吉野家事後在臉書專頁發表宣傳產品的貼文，當中「唔准叫我獅子狗」的字眼被指辱警。中聯辦主導的《文匯報》及《大公報》報道，吉野家已跟外判廣告公司解約，負責廣告事務的公司員工已亦被解聘。職工盟今午到油麻地吉野家僑江大廈分店抗議，批評解僱工做法屬政治打壓，並呼籲市民「向染紅獅子狗說不！」\n\n報道引述吉野家母公司香港合興集團有限公司總裁、全國政協委員洪明基稱，他最近參加了撐警大會，全力支持特區政府依法施政，對事先不知情感到極為憤怒，亦對事件感到非常痛心。目前涉事廣告已刪除，外判廣告公司遭解約，而負責廣告事務的公司員工亦被解僱。",
        "brand": "吉野家",
        "lat": 22.462328,
        "lon": 113.998059
    },
    {
        "name": "吉野家",
        "address": "新界天水圍天瑞商場1樓108號舖",
        "district": "天水圍",
        "areas": "新界區",
        "desc": "「反送中」運動遍地開花，市民自發在各區設置連儂牆。近百名配備防暴裝備的持盾警員，日前凌晨前往大埔連儂牆撕走涉警資料便條紙，連鎖餐廳吉野家事後在臉書專頁發表宣傳產品的貼文，當中「唔准叫我獅子狗」的字眼被指辱警。中聯辦主導的《文匯報》及《大公報》報道，吉野家已跟外判廣告公司解約，負責廣告事務的公司員工已亦被解聘。職工盟今午到油麻地吉野家僑江大廈分店抗議，批評解僱工做法屬政治打壓，並呼籲市民「向染紅獅子狗說不！」\n\n報道引述吉野家母公司香港合興集團有限公司總裁、全國政協委員洪明基稱，他最近參加了撐警大會，全力支持特區政府依法施政，對事先不知情感到極為憤怒，亦對事件感到非常痛心。目前涉事廣告已刪除，外判廣告公司遭解約，而負責廣告事務的公司員工亦被解僱。",
        "brand": "吉野家",
        "lat": 22.456115,
        "lon": 113.998513
    },
    {
        "name": "吉野家",
        "address": "新界屯門時代廣場南翼3樓25號舖",
        "district": "屯門",
        "areas": "新界區",
        "desc": "「反送中」運動遍地開花，市民自發在各區設置連儂牆。近百名配備防暴裝備的持盾警員，日前凌晨前往大埔連儂牆撕走涉警資料便條紙，連鎖餐廳吉野家事後在臉書專頁發表宣傳產品的貼文，當中「唔准叫我獅子狗」的字眼被指辱警。中聯辦主導的《文匯報》及《大公報》報道，吉野家已跟外判廣告公司解約，負責廣告事務的公司員工已亦被解聘。職工盟今午到油麻地吉野家僑江大廈分店抗議，批評解僱工做法屬政治打壓，並呼籲市民「向染紅獅子狗說不！」\n\n報道引述吉野家母公司香港合興集團有限公司總裁、全國政協委員洪明基稱，他最近參加了撐警大會，全力支持特區政府依法施政，對事先不知情感到極為憤怒，亦對事件感到非常痛心。目前涉事廣告已刪除，外判廣告公司遭解約，而負責廣告事務的公司員工亦被解僱。",
        "brand": "吉野家",
        "lat": 22.39258,
        "lon": 113.976223
    },
    {
        "name": "吉野家",
        "address": "新界沙田瀝源邨瀝源商場2樓C213A號舖",
        "district": "沙田",
        "areas": "新界區",
        "desc": "「反送中」運動遍地開花，市民自發在各區設置連儂牆。近百名配備防暴裝備的持盾警員，日前凌晨前往大埔連儂牆撕走涉警資料便條紙，連鎖餐廳吉野家事後在臉書專頁發表宣傳產品的貼文，當中「唔准叫我獅子狗」的字眼被指辱警。中聯辦主導的《文匯報》及《大公報》報道，吉野家已跟外判廣告公司解約，負責廣告事務的公司員工已亦被解聘。職工盟今午到油麻地吉野家僑江大廈分店抗議，批評解僱工做法屬政治打壓，並呼籲市民「向染紅獅子狗說不！」\n\n報道引述吉野家母公司香港合興集團有限公司總裁、全國政協委員洪明基稱，他最近參加了撐警大會，全力支持特區政府依法施政，對事先不知情感到極為憤怒，亦對事件感到非常痛心。目前涉事廣告已刪除，外判廣告公司遭解約，而負責廣告事務的公司員工亦被解僱。",
        "brand": "吉野家",
        "lat": 22.384602,
        "lon": 114.191375
    },
    {
        "name": "吉野家",
        "address": "新界青衣長發商場3樓313-316號舖",
        "district": "青衣",
        "areas": "新界區",
        "desc": "「反送中」運動遍地開花，市民自發在各區設置連儂牆。近百名配備防暴裝備的持盾警員，日前凌晨前往大埔連儂牆撕走涉警資料便條紙，連鎖餐廳吉野家事後在臉書專頁發表宣傳產品的貼文，當中「唔准叫我獅子狗」的字眼被指辱警。中聯辦主導的《文匯報》及《大公報》報道，吉野家已跟外判廣告公司解約，負責廣告事務的公司員工已亦被解聘。職工盟今午到油麻地吉野家僑江大廈分店抗議，批評解僱工做法屬政治打壓，並呼籲市民「向染紅獅子狗說不！」\n\n報道引述吉野家母公司香港合興集團有限公司總裁、全國政協委員洪明基稱，他最近參加了撐警大會，全力支持特區政府依法施政，對事先不知情感到極為憤怒，亦對事件感到非常痛心。目前涉事廣告已刪除，外判廣告公司遭解約，而負責廣告事務的公司員工亦被解僱。",
        "brand": "吉野家",
        "lat": 22.362181,
        "lon": 114.10356
    },
    {
        "name": "吉野家",
        "address": "新界荃灣荃興徑13-17, 19 & 21-23號荃發大廈地下Shop E部份及一樓",
        "district": "荃灣",
        "areas": "新界區",
        "desc": "「反送中」運動遍地開花，市民自發在各區設置連儂牆。近百名配備防暴裝備的持盾警員，日前凌晨前往大埔連儂牆撕走涉警資料便條紙，連鎖餐廳吉野家事後在臉書專頁發表宣傳產品的貼文，當中「唔准叫我獅子狗」的字眼被指辱警。中聯辦主導的《文匯報》及《大公報》報道，吉野家已跟外判廣告公司解約，負責廣告事務的公司員工已亦被解聘。職工盟今午到油麻地吉野家僑江大廈分店抗議，批評解僱工做法屬政治打壓，並呼籲市民「向染紅獅子狗說不！」\n\n報道引述吉野家母公司香港合興集團有限公司總裁、全國政協委員洪明基稱，他最近參加了撐警大會，全力支持特區政府依法施政，對事先不知情感到極為憤怒，亦對事件感到非常痛心。目前涉事廣告已刪除，外判廣告公司遭解約，而負責廣告事務的公司員工亦被解僱。",
        "brand": "吉野家",
        "lat": 22.372582,
        "lon": 114.115723
    },
    {
        "name": "吉野家",
        "address": "新界葵涌葵富路7至11號葵涌廣場3樓4號舖",
        "district": "葵涌",
        "areas": "新界區",
        "desc": "「反送中」運動遍地開花，市民自發在各區設置連儂牆。近百名配備防暴裝備的持盾警員，日前凌晨前往大埔連儂牆撕走涉警資料便條紙，連鎖餐廳吉野家事後在臉書專頁發表宣傳產品的貼文，當中「唔准叫我獅子狗」的字眼被指辱警。中聯辦主導的《文匯報》及《大公報》報道，吉野家已跟外判廣告公司解約，負責廣告事務的公司員工已亦被解聘。職工盟今午到油麻地吉野家僑江大廈分店抗議，批評解僱工做法屬政治打壓，並呼籲市民「向染紅獅子狗說不！」\n\n報道引述吉野家母公司香港合興集團有限公司總裁、全國政協委員洪明基稱，他最近參加了撐警大會，全力支持特區政府依法施政，對事先不知情感到極為憤怒，亦對事件感到非常痛心。目前涉事廣告已刪除，外判廣告公司遭解約，而負責廣告事務的公司員工亦被解僱。",
        "brand": "吉野家",
        "lat": 22.357913,
        "lon": 114.128089
    }
]