[
    {
        "id": 27,
        "name": "海盜王",
        "address": "上水符興街21號地下",
        "district": "上水",
        "areas": "新界區",
        "desc": "暫沒資料,希望用家提供",
        "image": "https://na.cx/i/kbcdKrf.png",
        "brand": "海盜王",
        "lat": 22.504222,
        "lon": 114.129155
    },
    {
        "id": 28,
        "name": "潮興旺粥粉麵",
        "address": "上水馬會道180號",
        "district": "上水",
        "areas": "新界區",
        "desc": "暫沒資料,希望用家提供",
        "image": "https://na.cx/i/kbcdKrf.png",
        "brand": "潮興旺粥粉麵",
        "lat": 22.504222,
        "lon": 114.130275
    },
    {
        "id": 29,
        "name": "峴港Da Nang",
        "address": "大埔安埔路12號富善邨富善商場地下G009號舖",
        "district": "大埔",
        "areas": "新界區",
        "desc": "暫沒資料,希望用家提供",
        "image": "https://na.cx/i/kbcdKrf.png",
        "brand": "峴港Da Nang",
        "lat": 22.454079,
        "lon": 114.174762
    },
    {
        "id": 30,
        "name": "大師傅粥品",
        "address": "大圍村南道大圍大圍村南道63號金昌摟地下D號鋪",
        "district": "大圍",
        "areas": "新界區",
        "desc": "有人發夢話：員工不斷話人係暴徒 搞亂哂香港",
        "image": "https://na.cx/i/kbcdKrf.png",
        "brand": "大師傅粥品",
        "lat": 22.374229,
        "lon": 114.179195
    },
    {
        "id": 31,
        "name": "漢年茶餐廳",
        "address": "大圍積福街100號",
        "district": "大圍",
        "areas": "新界區",
        "desc": "有人發夢話：成間藍絲",
        "image": "https://na.cx/i/kbcdKrf.png",
        "brand": "漢年茶餐廳",
        "lat": 22.374421,
        "lon": 114.178764
    },
    {
        "id": 32,
        "name": "茶魚飯后",
        "address": "天水圍香港天水圍天瑞商埸地下G2D號舖",
        "district": "天水圍",
        "areas": "新界區",
        "desc": "暫沒資料,希望用家提供",
        "image": "https://na.cx/i/kbcdKrf.png",
        "brand": "茶魚飯后",
        "lat": 22.45658,
        "lon": 113.998342
    },
    {
        "id": 33,
        "name": "興發中西美食餐廳",
        "address": "火炭坳背灣街33-35號世紀工業大廈中心地下2號後舖",
        "district": "火炭",
        "areas": "新界區",
        "desc": "暫沒資料,希望用家提供",
        "image": "https://na.cx/i/kbcdKrf.png",
        "brand": "興發中西美食餐廳",
        "lat": 22.397243,
        "lon": 114.195097
    },
    {
        "id": 34,
        "name": "喜運食堂",
        "address": "達利中心 石蔭梨木道88號",
        "district": "沙田",
        "areas": "新界區",
        "desc": "暫沒資料,希望用家提供",
        "image": "https://na.cx/i/kbcdKrf.png",
        "brand": "喜運食堂",
        "lat": 22.370009,
        "lon": 114.13769
    },
    {
        "id": 35,
        "name": "排頭村星期二餐廳",
        "address": "沙田排頭村12號",
        "district": "沙田",
        "areas": "新界區",
        "desc": "暫沒資料,希望用家提供",
        "image": "https://na.cx/i/kbcdKrf.png",
        "brand": "排頭村星期二餐廳",
        "lat": 22.384438,
        "lon": 114.187168
    },
    {
        "id": 36,
        "name": "石門 陳根記",
        "address": "沙田安群街2號沙田安群街2號",
        "district": "沙田",
        "areas": "新界區",
        "desc": "原文網址: https://lihkg.com/thread/1340835/page/1\n\n頭先發夢係中環走，幾個手足去左石門陳根記食飯\n\n食緊飯時電視tvb新聞播緊上環情況，隔黎台有把阿伯聲呢個時候話：\n\n其實只要搵返一百個人出去 斬斷哂班搞事既手手腳腳，比返安家費就搞掂\n睇下佢地係咪咁夠膽\n\n個下我擰過去，見到係個藍衫黑實阿伯，認得佢就係個老細（以前禾輋既陳根記收銀個度放好多張老細既show肌出海相）\n\n我仲懷疑緊有無聽錯同係咪佢講（同台仲有2 個壯漢）\n\n過左一陣，元朗單野發生，我上Facebook 睇林卓廷live, 睇到嘩左出聲 話痴撚線，入撚埋車箱打班後生仔\n\n個老細係隔離台都望住我個mon, 佢講左句：\n打得好！ 打得好！",
        "image": "https://na.cx/i/kbcdKrf.png",
        "brand": "石門 陳根記",
        "lat": 22.388414,
        "lon": 114.20781
    },
    {
        "id": 37,
        "name": "梅丘壽司美登利總本店",
        "address": "Shop G24-25 Maritime Square, 33 Tsing Yi Rd W, Tsing Yi",
        "district": "青衣",
        "areas": "新界區",
        "desc": "暫沒資料,希望用家提供",
        "image": "https://na.cx/i/kbcdKrf.png",
        "brand": "梅丘壽司美登利總本店",
        "lat": 22.36125,
        "lon": 114.107617
    },
    {
        "id": 38,
        "name": "皇庭酒樓",
        "address": "流浮山流浮山山東街2號",
        "district": "流浮山",
        "areas": "新界區",
        "desc": "暫沒資料,希望用家提供",
        "image": "https://na.cx/i/kbcdKrf.png",
        "brand": "皇庭酒樓",
        "lat": 22.467646,
        "lon": 113.984102
    },
    {
        "id": 39,
        "name": "巴辣仔",
        "address": "粉嶺聯昌街20號",
        "district": "粉嶺",
        "areas": "新界區",
        "desc": "暫沒資料,希望用家提供",
        "image": "https://na.cx/i/kbcdKrf.png",
        "brand": "巴辣仔",
        "lat": 22.499528,
        "lon": 114.143219
    },
    {
        "id": 40,
        "name": "聯和墟 山東餃子店人",
        "address": "粉嶺聯和墟聯盛街2-4號友興樓地下B號舖",
        "district": "粉嶺",
        "areas": "新界區",
        "desc": "暫沒資料,希望用家提供",
        "image": "https://na.cx/i/kbcdKrf.png",
        "brand": "聯和墟 山東餃子店人",
        "lat": 22.498827,
        "lon": 114.143412
    },
    {
        "id": 42,
        "name": "馬鞍山廣場譚仔",
        "address": "馬鞍山馬鞍山廣場二樓266-268號舖",
        "district": "馬鞍山",
        "areas": "新界區",
        "desc": "原文網址: https://lihkg.com/thread/1215706/page/10\n\n有人發夢話：遊行完第二日聽班呀姐話後生仔收左錢，邊有一百萬咁多",
        "image": "https://na.cx/i/kbcdKrf.png",
        "brand": "馬鞍山廣場譚仔",
        "lat": 22.425589,
        "lon": 114.231044
    },
    {
        "id": 45,
        "name": "榮式燒雞扒",
        "address": "25-26, 屯門時代廣場北翼2 Tuen Lung St, Tuen Mun",
        "district": "屯門",
        "areas": "新界區",
        "desc": "原文網址: https://lihkg.com/thread/1215441/page/1\n\n有人發夢話：聽到個著黑衫唔知係咪店長同其中一個較年長伙記係到討論尋日612佔領\n竟然話尋日大部分係2x歲後生仔 都係收錢搞事 收1500蚊 之後去個d就無得收咁多",
        "image": "https://na.cx/i/kbcdKrf.png",
        "brand": "榮式燒雞扒",
        "lat": 22.393557,
        "lon": 113.975826
    },
    {
        "id": 53,
        "name": "老虎堂",
        "address": "荃灣荃興徑14b號",
        "district": "荃灣",
        "areas": "新界區",
        "desc": "原文網址: https://lihkg.com/thread/1215175/page/1\n\nJune 13\n有人發夢話：無預先請假佢哋係唔啱，但係佢哋都係想守護佢哋嘅城市。\n淨係顧住自己鋪頭生意就係度屌班後生。",
        "image": "https://na.cx/i/kbcdKrf.png",
        "brand": "老虎堂",
        "lat": 22.37263,
        "lon": 114.115517
    },
    {
        "id": 54,
        "name": "日牛涮涮鍋專門店",
        "address": "坑口東港城第一層 197A 號舖",
        "district": "坑口",
        "areas": "新界區",
        "desc": "July 23\n有人發夢話：連登討論區網民「雞蛋撞高牆」昨以「有餐廳拒絕遊行人士入內進餐！！！」為題發文，稱昨日與兩名友人出席遊行後返回將軍澳打算打邊爐，一行三人到東港城的日牛涮涮鍋專門店（日牛，下同）取籌等位，期間談及遊行的詳情。樓主稱，餐廳門口的女職員聽到他與朋友的對話突然黑面，「之後入咗去同另一個男店員講，一路講一路望過嚟，我哋就覺得瀨嘢啦，不過下個就到我哋所以繼續等」。\n\n結果樓主一等就是45分鐘，他稱之後見到「有張四人枱空咗出嚟」，但男職員「即刻攞塊板將張枱隔開兩邊，變做兩張兩人枱，然後畀人入去」。樓主上前與女職員理論，對方僅稱「兩人枱多人排要畀人入先」。\n\n樓主稱，其後再有4人家庭「插隊」入座，女職員回答稱「佢哋嚟先喎，同埋呢，𠵱家我哋鋪頭都就閂門你哋可以唔使再等啦」，樓主大感不滿直接質問：「你玩嘢？我哋number前過佢哋。」對方卻稱：「冇，你可以食其他餐廳㗎，咁得閒周圍遊行。」",
        "image": "https://na.cx/i/kbcdKrf.png",
        "brand": "日牛涮涮鍋專門店",
        "lat": 22.316989,
        "lon": 114.265549
    },
    {
        "id": 69,
        "name": "吉野家",
        "address": "新界大埔大埔超級城B區1樓130-133及133A舖",
        "district": "大埔",
        "areas": "新界區",
        "desc": "有人發夢話：「反送中」運動遍地開花，市民自發在各區設置連儂牆。近百名配備防暴裝備的持盾警員，日前凌晨前往大埔連儂牆撕走涉警資料便條紙，連鎖餐廳吉野家事後在臉書專頁發表宣傳產品的貼文，當中「唔准叫我獅子狗」的字眼被指辱警。中聯辦主導的《文匯報》及《大公報》報道，吉野家已跟外判廣告公司解約，負責廣告事務的公司員工已亦被解聘。職工盟今午到油麻地吉野家僑江大廈分店抗議，批評解僱工做法屬政治打壓，並呼籲市民「向染紅獅子狗說不！」\n\n報道引述吉野家母公司香港合興集團有限公司總裁、全國政協委員洪明基稱，他最近參加了撐警大會，全力支持特區政府依法施政，對事先不知情感到極為憤怒，亦對事件感到非常痛心。目前涉事廣告已刪除，外判廣告公司遭解約，而負責廣告事務的公司員工亦被解僱。",
        "image": "https://na.cx/i/kbcdKrf.png",
        "brand": "吉野家",
        "lat": 22.451733,
        "lon": 114.170609
    },
    {
        "id": 70,
        "name": "吉野家",
        "address": "新界元朗天水圍天頌苑頌富廣場第一期1樓114-115號商舖",
        "district": "天水圍",
        "areas": "新界區",
        "desc": "有人發夢話：「反送中」運動遍地開花，市民自發在各區設置連儂牆。近百名配備防暴裝備的持盾警員，日前凌晨前往大埔連儂牆撕走涉警資料便條紙，連鎖餐廳吉野家事後在臉書專頁發表宣傳產品的貼文，當中「唔准叫我獅子狗」的字眼被指辱警。中聯辦主導的《文匯報》及《大公報》報道，吉野家已跟外判廣告公司解約，負責廣告事務的公司員工已亦被解聘。職工盟今午到油麻地吉野家僑江大廈分店抗議，批評解僱工做法屬政治打壓，並呼籲市民「向染紅獅子狗說不！」\n\n報道引述吉野家母公司香港合興集團有限公司總裁、全國政協委員洪明基稱，他最近參加了撐警大會，全力支持特區政府依法施政，對事先不知情感到極為憤怒，亦對事件感到非常痛心。目前涉事廣告已刪除，外判廣告公司遭解約，而負責廣告事務的公司員工亦被解僱。",
        "image": "https://na.cx/i/kbcdKrf.png",
        "brand": "吉野家",
        "lat": 22.462328,
        "lon": 113.998059
    },
    {
        "id": 71,
        "name": "吉野家",
        "address": "新界天水圍天瑞商場1樓108號舖",
        "district": "天水圍",
        "areas": "新界區",
        "desc": "有人發夢話：「反送中」運動遍地開花，市民自發在各區設置連儂牆。近百名配備防暴裝備的持盾警員，日前凌晨前往大埔連儂牆撕走涉警資料便條紙，連鎖餐廳吉野家事後在臉書專頁發表宣傳產品的貼文，當中「唔准叫我獅子狗」的字眼被指辱警。中聯辦主導的《文匯報》及《大公報》報道，吉野家已跟外判廣告公司解約，負責廣告事務的公司員工已亦被解聘。職工盟今午到油麻地吉野家僑江大廈分店抗議，批評解僱工做法屬政治打壓，並呼籲市民「向染紅獅子狗說不！」\n\n報道引述吉野家母公司香港合興集團有限公司總裁、全國政協委員洪明基稱，他最近參加了撐警大會，全力支持特區政府依法施政，對事先不知情感到極為憤怒，亦對事件感到非常痛心。目前涉事廣告已刪除，外判廣告公司遭解約，而負責廣告事務的公司員工亦被解僱。",
        "image": "https://na.cx/i/kbcdKrf.png",
        "brand": "吉野家",
        "lat": 22.456115,
        "lon": 113.998513
    },
    {
        "id": 72,
        "name": "吉野家",
        "address": "新界屯門時代廣場南翼3樓25號舖",
        "district": "屯門",
        "areas": "新界區",
        "desc": "有人發夢話：「反送中」運動遍地開花，市民自發在各區設置連儂牆。近百名配備防暴裝備的持盾警員，日前凌晨前往大埔連儂牆撕走涉警資料便條紙，連鎖餐廳吉野家事後在臉書專頁發表宣傳產品的貼文，當中「唔准叫我獅子狗」的字眼被指辱警。中聯辦主導的《文匯報》及《大公報》報道，吉野家已跟外判廣告公司解約，負責廣告事務的公司員工已亦被解聘。職工盟今午到油麻地吉野家僑江大廈分店抗議，批評解僱工做法屬政治打壓，並呼籲市民「向染紅獅子狗說不！」\n\n報道引述吉野家母公司香港合興集團有限公司總裁、全國政協委員洪明基稱，他最近參加了撐警大會，全力支持特區政府依法施政，對事先不知情感到極為憤怒，亦對事件感到非常痛心。目前涉事廣告已刪除，外判廣告公司遭解約，而負責廣告事務的公司員工亦被解僱。",
        "image": "https://na.cx/i/kbcdKrf.png",
        "brand": "吉野家",
        "lat": 22.39258,
        "lon": 113.976223
    },
    {
        "id": 73,
        "name": "吉野家",
        "address": "新界沙田瀝源邨瀝源商場2樓C213A號舖",
        "district": "沙田",
        "areas": "新界區",
        "desc": "有人發夢話：「反送中」運動遍地開花，市民自發在各區設置連儂牆。近百名配備防暴裝備的持盾警員，日前凌晨前往大埔連儂牆撕走涉警資料便條紙，連鎖餐廳吉野家事後在臉書專頁發表宣傳產品的貼文，當中「唔准叫我獅子狗」的字眼被指辱警。中聯辦主導的《文匯報》及《大公報》報道，吉野家已跟外判廣告公司解約，負責廣告事務的公司員工已亦被解聘。職工盟今午到油麻地吉野家僑江大廈分店抗議，批評解僱工做法屬政治打壓，並呼籲市民「向染紅獅子狗說不！」\n\n報道引述吉野家母公司香港合興集團有限公司總裁、全國政協委員洪明基稱，他最近參加了撐警大會，全力支持特區政府依法施政，對事先不知情感到極為憤怒，亦對事件感到非常痛心。目前涉事廣告已刪除，外判廣告公司遭解約，而負責廣告事務的公司員工亦被解僱。",
        "image": "https://na.cx/i/kbcdKrf.png",
        "brand": "吉野家",
        "lat": 22.384602,
        "lon": 114.191375
    },
    {
        "id": 74,
        "name": "吉野家",
        "address": "新界青衣長發商場3樓313-316號舖",
        "district": "青衣",
        "areas": "新界區",
        "desc": "有人發夢話：「反送中」運動遍地開花，市民自發在各區設置連儂牆。近百名配備防暴裝備的持盾警員，日前凌晨前往大埔連儂牆撕走涉警資料便條紙，連鎖餐廳吉野家事後在臉書專頁發表宣傳產品的貼文，當中「唔准叫我獅子狗」的字眼被指辱警。中聯辦主導的《文匯報》及《大公報》報道，吉野家已跟外判廣告公司解約，負責廣告事務的公司員工已亦被解聘。職工盟今午到油麻地吉野家僑江大廈分店抗議，批評解僱工做法屬政治打壓，並呼籲市民「向染紅獅子狗說不！」\n\n報道引述吉野家母公司香港合興集團有限公司總裁、全國政協委員洪明基稱，他最近參加了撐警大會，全力支持特區政府依法施政，對事先不知情感到極為憤怒，亦對事件感到非常痛心。目前涉事廣告已刪除，外判廣告公司遭解約，而負責廣告事務的公司員工亦被解僱。",
        "image": "https://na.cx/i/kbcdKrf.png",
        "brand": "吉野家",
        "lat": 22.362181,
        "lon": 114.10356
    },
    {
        "id": 75,
        "name": "吉野家",
        "address": "新界荃灣荃興徑13-17, 19 & 21-23號荃發大廈地下Shop E部份及一樓",
        "district": "荃灣",
        "areas": "新界區",
        "desc": "有人發夢話：「反送中」運動遍地開花，市民自發在各區設置連儂牆。近百名配備防暴裝備的持盾警員，日前凌晨前往大埔連儂牆撕走涉警資料便條紙，連鎖餐廳吉野家事後在臉書專頁發表宣傳產品的貼文，當中「唔准叫我獅子狗」的字眼被指辱警。中聯辦主導的《文匯報》及《大公報》報道，吉野家已跟外判廣告公司解約，負責廣告事務的公司員工已亦被解聘。職工盟今午到油麻地吉野家僑江大廈分店抗議，批評解僱工做法屬政治打壓，並呼籲市民「向染紅獅子狗說不！」\n\n報道引述吉野家母公司香港合興集團有限公司總裁、全國政協委員洪明基稱，他最近參加了撐警大會，全力支持特區政府依法施政，對事先不知情感到極為憤怒，亦對事件感到非常痛心。目前涉事廣告已刪除，外判廣告公司遭解約，而負責廣告事務的公司員工亦被解僱。",
        "image": "https://na.cx/i/kbcdKrf.png",
        "brand": "吉野家",
        "lat": 22.372582,
        "lon": 114.115723
    },
    {
        "id": 76,
        "name": "吉野家",
        "address": "新界葵涌葵富路7至11號葵涌廣場3樓4號舖",
        "district": "葵涌",
        "areas": "新界區",
        "desc": "有人發夢話：「反送中」運動遍地開花，市民自發在各區設置連儂牆。近百名配備防暴裝備的持盾警員，日前凌晨前往大埔連儂牆撕走涉警資料便條紙，連鎖餐廳吉野家事後在臉書專頁發表宣傳產品的貼文，當中「唔准叫我獅子狗」的字眼被指辱警。中聯辦主導的《文匯報》及《大公報》報道，吉野家已跟外判廣告公司解約，負責廣告事務的公司員工已亦被解聘。職工盟今午到油麻地吉野家僑江大廈分店抗議，批評解僱工做法屬政治打壓，並呼籲市民「向染紅獅子狗說不！」\n\n報道引述吉野家母公司香港合興集團有限公司總裁、全國政協委員洪明基稱，他最近參加了撐警大會，全力支持特區政府依法施政，對事先不知情感到極為憤怒，亦對事件感到非常痛心。目前涉事廣告已刪除，外判廣告公司遭解約，而負責廣告事務的公司員工亦被解僱。",
        "image": "https://na.cx/i/kbcdKrf.png",
        "brand": "吉野家",
        "lat": 22.357913,
        "lon": 114.128089
    },
    {
        "id": 77,
        "name": "SAIZERIYA",
        "address": "元朗馬田路80號御庭居地下8號舖",
        "district": "元朗",
        "areas": "新界區",
        "desc": "有人發夢話：13/6 晚飯聽到員工「PING」同其他人講遊行既人都有收錢，佔中果陣都係，佢只係唔得閒先唔去，在場員工都無幫口或者信佢講，另外重有兩個冬菇頭呀嬸同一個後生仔，在場朋友都聽到，想投訴可以SEND FAX去31049939",
        "image": "https://na.cx/i/kbcdKrf.png",
        "brand": "SAIZERIYA",
        "lat": 22.4405289,
        "lon": 114.0220276
    },
    {
        "id": 78,
        "name": "金記燒臘餐廳",
        "address": "元朗水車館街66號地鋪",
        "district": "元朗",
        "areas": "新界區",
        "desc": "有人發夢話：佔中期間同fd去買叉燒排隊中途問fd食左幾多粒催淚彈，辛唔辛苦等，排到問最少可以買幾多錢叉燒，個老闆娘答$50，我地照買左返屋企，比屋企人鬧話個量得$20，而且平時最少係可以買$20已經係我地個日買到既量黎。",
        "image": "https://na.cx/i/kbcdKrf.png",
        "brand": "金記燒臘餐廳",
        "lat": 22.4448151,
        "lon": 114.0308911
    },
    {
        "id": 79,
        "name": "金記燒臘餐廳",
        "address": "元朗水車館街66號地鋪",
        "district": "元朗",
        "areas": "新界區",
        "desc": "有人發夢話：佔中期間同fd去買叉燒排隊中途問fd食左幾多粒催淚彈，辛唔辛苦等，排到問最少可以買幾多錢叉燒，個老闆娘答$50，我地照買左返屋企，比屋企人鬧話個量得$20，而且平時最少係可以買$20已經係我地個日買到既量黎。",
        "image": "https://na.cx/i/kbcdKrf.png",
        "brand": "金記燒臘餐廳",
        "lat": 22.4448151,
        "lon": 114.0308911
    },
    {
        "id": 80,
        "name": "Ztore",
        "address": "港鐵大埔墟站 A1 出口, 步行約10分鐘",
        "district": "大埔",
        "areas": "新界區",
        "desc": "原文網址: https://lih.kg/1216420",
        "image": "https://na.cx/i/kbcdKrf.png",
        "brand": "Ztore",
        "lat": 22.44429,
        "lon": 114.170243
    },
    {
        "id": 81,
        "name": "撈一番",
        "address": "大埔安泰路1號大埔廣場2樓",
        "district": "大埔",
        "areas": "新界區",
        "desc": "有人發夢話：聽到店主話支持送中 然後買緊個客立即話唔買",
        "image": "https://na.cx/i/kbcdKrf.png",
        "brand": "撈一番",
        "lat": 22.452909,
        "lon": 114.170445
    },
    {
        "id": 82,
        "name": "日溢中西美食",
        "address": "大埔寶湖里一號",
        "district": "大埔",
        "areas": "新界區",
        "desc": "有人發夢話：反對示威者行為，支持送中有人",
        "image": "https://na.cx/i/kbcdKrf.png",
        "brand": "日溢中西美食",
        "lat": 22.4501205,
        "lon": 114.1681204
    },
    {
        "id": 83,
        "name": "溢泉茶餐廳",
        "address": "大埔同秀坊1號地舖",
        "district": "大埔",
        "areas": "新界區",
        "desc": "有人發夢話：同紅橋餐廳同一老闆\n大埔紅橋餐廳則同樣被食客網上撰文，指員工一見客人着黑衣即叫對方「食飽好去打卡」，語氣挑釁令其氣得離開，事後老闆急發聲明，自稱同樣反修例並譴責員工，不少街坊網民同樣表明不會再幫襯。",
        "image": "https://na.cx/i/kbcdKrf.png",
        "brand": "溢泉茶餐廳",
        "lat": 22.449008,
        "lon": 114.168207
    },
    {
        "id": 84,
        "name": "紅橋餐廳",
        "address": "大埔廣福道123號地舖",
        "district": "大埔",
        "areas": "新界區",
        "desc": "有人發夢話：大埔紅橋餐廳則同樣被食客網上撰文，指員工一見客人着黑衣即叫對方「食飽好去打卡」，語氣挑釁令其氣得離開，事後老闆急發聲明，自稱同樣反修例並譴責員工，不少街坊網民同樣表明不會再幫襯。",
        "image": "https://na.cx/i/kbcdKrf.png",
        "brand": "紅橋餐廳",
        "lat": 22.448192,
        "lon": 114.16837
    },
    {
        "id": 85,
        "name": "翠河",
        "address": "大埔安慈路1號海寶花園10號舖",
        "district": "大埔",
        "areas": "新界區",
        "desc": "暫沒資料,希望用家提供",
        "image": "https://na.cx/i/kbcdKrf.png",
        "brand": "翠河",
        "lat": 22.4533933,
        "lon": 114.1667183
    },
    {
        "id": 86,
        "name": "萬芳冰室",
        "address": "大埔寶湖道1號富盈門商場地下2號舖",
        "district": "大埔",
        "areas": "新界區",
        "desc": "有人發夢話：紅底.民建聯集團",
        "image": "https://na.cx/i/kbcdKrf.png",
        "brand": "萬芳冰室",
        "lat": 22.4496045,
        "lon": 114.1672979
    },
    {
        "id": 87,
        "name": "陸宜居茶餐廳",
        "address": "大埔靖遠街43號",
        "district": "大埔",
        "areas": "新界區",
        "desc": "有人發夢話：親耳聽到個廚同班中年客罵美國佬搞搞震",
        "image": "https://na.cx/i/kbcdKrf.png",
        "brand": "陸宜居茶餐廳",
        "lat": 22.449113,
        "lon": 114.164964
    },
    {
        "id": 88,
        "name": "新利大藥房",
        "address": "新界屯門鄉事會路94-110號康利中心地下21號舖",
        "district": "屯門",
        "areas": "新界區",
        "desc": "有人發夢話：屯門街坊：\n頭先我同幾位朋友去圖中嘅新利大藥房詢問有沒有生理鹽水買，點知藥房個職員定唔知老細同我地態度好差咁講有都唔買俾我地，要買就俾身分證。\n我明白藥房係有權利唔買，但呢個係咩態度？  (Source :    https://www.facebook.com/587874824557675/posts/2577818358896635/    ",
        "image": "https://na.cx/i/kbcdKrf.png",
        "brand": "新利大藥房",
        "lat": 22.397564,
        "lon": 113.975137
    },
    {
        "id": 89,
        "name": "喜運點心專門店",
        "address": "石門京瑞廣場一期喜運點心專門店地下30C附近",
        "district": "沙田",
        "areas": "新界區",
        "desc": "暫沒資料,希望用家提供",
        "image": "https://na.cx/i/kbcdKrf.png",
        "brand": "喜運點心專門店",
        "lat": 22.3876539,
        "lon": 114.2080941
    },
    {
        "id": 90,
        "name": "萌記牛什麵家",
        "address": "葵芳信芳路186號地下A1號舖",
        "district": "葵芳",
        "areas": "新界區",
        "desc": "暫沒資料,希望用家提供",
        "image": "https://na.cx/i/kbcdKrf.png",
        "brand": "萌記牛什麵家",
        "lat": 22.3578109,
        "lon": 114.1298151
    },
    {
        "id": 113,
        "name": "長洲海傍美食",
        "address": "長洲 海傍街31號地下",
        "district": "長洲",
        "areas": "新界區",
        "desc": "有人發夢話：支持送終認為學生搞搞震但偏偏佢哋就係做學生生意雙面人假仁假義",
        "image": "https://na.cx/i/kbcdKrf.png",
        "brand": "長洲海傍美食",
        "lat": 22.205973,
        "lon": 114.028136
    },
    {
        "id": 114,
        "name": "故鄉茶寮/故鄉俱樂部",
        "address": "長洲教堂路17嘅地下",
        "district": "長洲",
        "areas": "新界區",
        "desc": "有人發夢話：\nJuly 8\n目擊其日本店主撕毀長洲當地連儂牆，認為其政治立場為深藍而發起抵制行動\n\n以後罷食長洲手卷紅豆餅！\nhttps://lih.kg/1296661\n- 分享自 LIHKG 討論區\n\nJuly 9\n該店主解釋，話個位老太係居港日本人，\n唔太清楚政治狀況同連儂牆既心意，只係覺得後生仔夜晚嘈住貼紙，無禮貌所以剥下。\n\n有市民同佢講解左而家既香港情況非常嚴重包括四個市民自殺，佢亦理解。\n佢會放香港加油反送中既口號係佢鋪頭前面同幫手保護連儂牆。而同時亦有網友質疑其行為是否純粹補獲。",
        "image": "https://na.cx/i/kbcdKrf.png",
        "brand": "故鄉茶寮/故鄉俱樂部",
        "lat": 22.209479,
        "lon": 114.029997
    },
    {
        "id": 115,
        "name": "長洲東源小食(大魚蛋)",
        "address": "長洲海傍街30號後座地下",
        "district": "長洲",
        "areas": "新界區",
        "desc": "有人發夢話：\n成日閙d學生搞搞震,但係又要搵佢哋嘅錢,\n最鍾意就係見到啲大陸人就話再搞冇大陸人嚟幫襯香港就死喇！\n勁擦腳，對學生態度好差，佢其實係藍絲 佢親阿哥係長洲鄉事委員會主席翁志明 絕對係 共狗。\n民建聯上次發起撑警遊行支持送中嘅領導人。 d食物處理好唔衛生,不過從來冇人可以搞到佢哋,因為有佢阿哥撐腰!",
        "image": "https://na.cx/i/kbcdKrf.png",
        "brand": "長洲東源小食(大魚蛋)",
        "lat": 22.206082,
        "lon": 114.028227
    },
    {
        "id": 116,
        "name": "華御結",
        "address": "科學園",
        "district": "沙田",
        "areas": "新界區",
        "desc": "有人發夢話：成間啲職員都係有大陸口音嘅呀嬸 然後1/7啲新聞出咗之後 啲呀嬸望住個mon話啲警察軟弱 警察應該開槍 射死曬啲示威者",
        "image": "https://na.cx/i/kbcdKrf.png",
        "brand": "華御結",
        "lat": 22.426302,
        "lon": 114.209341
    },
    {
        "id": 122,
        "name": "薩莉亞餐",
        "address": "新界元朗馬田路80號御庭居地下8號舖",
        "district": "元朗",
        "areas": "新界區",
        "desc": "有人發夢話：13/6 晚飯聽到員工「PING」同其他人講遊行既人都有收錢，\n佔中果陣都係，佢只係唔得閒先唔去，在場員工都無幫口或者信佢講，\n另外重有兩個冬菇頭呀嬸同一個後生仔，在場朋友都聽到，想投訴可以SEND FAX去31049939",
        "image": "https://na.cx/i/kbcdKrf.png",
        "brand": "薩莉亞餐",
        "lat": 22.440608,
        "lon": 114.022038
    },
    {
        "id": 125,
        "name": "開心餐廳小廚",
        "address": "葵涌和宜合道182-184號瑞景大廈地舖",
        "district": "葵涌",
        "areas": "新界區",
        "desc": "有人發夢話：\n7.1衝立會當晚 收銀呀姐睇住cctvb話 班後生搞搞震 拎去打靶就岩",
        "image": "https://na.cx/i/kbcdKrf.png",
        "brand": "開心餐廳小廚",
        "lat": 22.369477,
        "lon": 114.139248
    },
    {
        "id": 126,
        "name": "將軍澳天晉 藝文食館",
        "address": "將軍澳唐俊街12號Popwalk 1樓108號舖",
        "district": "將軍澳",
        "areas": "新界區",
        "desc": "[罷食] 餐廳老闆娘：d黑衫嘅搞到我呢度冇生意 (但係餐廳喺將軍澳)\n原文網址: https://lih.kg/1382906\n有人發夢話：今日晏就同阿媽去將軍澳天晉嗰間藝·文食館食lunch，一開始同阿媽講緊d黑警點衰，個侍應已經黑面，上咗檸茶冇幾耐仲行過嚟收咗我地包糖:o)\n\n跟住個老闆娘返咗嚟就同個侍應係噤講d黑衫幾衰搞到經濟幾差，話佢個工人住元朗見到嗰日成班黑衫所以唔敢出街嚟佢屋企幫手\n\n最精神失常嘅係佢話：「西環有間餐廳已經比佢地搞到執咗笠，仲搞到我呢度冇生意！」\n\n中途我同阿媽都不停串佢地:-[:-[:-[\n\n最後一個小插曲～\n精神失常老闆娘：「一陣三點鐘有嘢講，睇班黑衫點死！」:o):o):o)\n阿媽：「講嚟講去咪三幅屁，有咩好驚有咩新意。」\n我：「播個錄音機喺度咪得囉#hehe#pig」\n然後佢嬲嬲豬攞d餐具發洩，突然砰一聲\n跟住佢又同個侍應講：「你有冇返大陸呀？宜家我連返大陸修甲都唔敢呀，要check手機。」\n阿媽鬧我：「你仲食咩呀食，背脊骨落呀，埋單呀，以後都唔嚟！」\n\n見佢今日得噤少生意，我唔幫佢宣傳下都對唔住自己啦，要再接再厲祝老闆娘早日執柒咗佢間餐廳，等佢日日喺屋企唔洗出街咪見唔到黑衫囉",
        "image": "https://na.cx/i/kbcdKrf.png",
        "brand": "藝文食館",
        "lat": 22.3074207,
        "lon": 114.2614623
    },
    {
        "id": 134,
        "name": "深井陳記燒鵝",
        "address": "深井陳記商業中心地下A舖",
        "district": "深井",
        "areas": "新界區",
        "desc": "17/6 下午三時左右 \n有人發夢話：某分店員工和顧客批評學生被洗腦 逢中必反 不斷抹黑和中傷， 然而店員卻說對引渡條例的內容\n一無所知，又稱自己「讀得書少」",
        "image": "https://na.cx/i/kbcdKrf.png",
        "brand": "深井陳記燒鵝",
        "lat": 22.367981,
        "lon": 114.059732
    },
    {
        "id": 135,
        "name": "深井陳記燒鵝",
        "address": "深井青山公路深井村63號地下",
        "district": "深井",
        "areas": "新界區",
        "desc": "17/6 下午三時左右 \n有人發夢話：某分店員工和顧客批評學生被洗腦 逢中必反 不斷抹黑和中傷， 然而店員卻說對引渡條例的內容\n一無所知，又稱自己「讀得書少」",
        "image": "https://na.cx/i/kbcdKrf.png",
        "brand": "深井陳記燒鵝",
        "lat": 22.367366,
        "lon": 114.059406
    },
    {
        "id": 140,
        "name": "深井陳記燒鵝",
        "address": "荃灣荃灣街市街27號地舖",
        "district": "荃灣",
        "areas": "新界區",
        "desc": "17/6 下午三時左右 \n有人發夢話：某分店員工和顧客批評學生被洗腦 逢中必反 不斷抹黑和中傷， 然而店員卻說對引渡條例的內容\n一無所知，又稱自己「讀得書少」",
        "image": "https://na.cx/i/kbcdKrf.png",
        "brand": "深井陳記燒鵝",
        "lat": 22.371855,
        "lon": 114.117212
    },
    {
        "id": 148,
        "name": "養心殿荃灣店",
        "address": "眾安街55號大鴻輝(荃灣)中心17樓",
        "district": "荃灣",
        "areas": "新界區",
        "desc": "原文網址: https://lih.kg/1220224\n有人發夢話：養心殿老細話上街果班年輕人全部係被煽動 \n\n養心殿老闆KaFai Chan旗下餐廳：\n養心麵\n靖 omakase\n灣仔靠炆雞",
        "image": "https://na.cx/i/kbcdKrf.png",
        "brand": "養心殿",
        "lat": 22.370028,
        "lon": 114.116673
    },
    {
        "id": 149,
        "name": "養心殿馬鞍山店",
        "address": "保泰街16號We Go Mall 2樓208號鋪",
        "district": "馬鞍山",
        "areas": "新界區",
        "desc": "原文網址: https://lih.kg/1220224\n有人發夢話：養心殿老細話上街果班年輕人全部係被煽動 \n\n養心殿老闆KaFai Chan旗下餐廳：\n養心麵\n靖 omakase\n灣仔靠炆雞",
        "image": "https://na.cx/i/kbcdKrf.png",
        "brand": "養心殿",
        "lat": 22.414091,
        "lon": 114.223844
    },
    {
        "id": 150,
        "name": "養心殿將軍澳店",
        "address": "唐德街3號九龍東智選假日酒店2樓",
        "district": "將軍澳",
        "areas": "新界區",
        "desc": "原文網址: https://lih.kg/1220224\n有人發夢話：養心殿老細話上街果班年輕人全部係被煽動 \n\n養心殿老闆KaFai Chan旗下餐廳：\n養心麵\n靖 omakase\n灣仔靠炆雞",
        "image": "https://na.cx/i/kbcdKrf.png",
        "brand": "養心殿",
        "lat": 22.308401,
        "lon": 114.25892
    },
    {
        "id": 152,
        "name": "九份十分",
        "address": "沙田大涌橋路20號",
        "district": "沙田",
        "areas": "新界區",
        "desc": "有人發夢話：見到個做廚房仔嘅後生疑似比個經理話收咗錢去“暴動” ,即時劈砲走人",
        "image": "https://na.cx/i/kbcdKrf.png",
        "brand": "九份十分",
        "lat": 22.38094,
        "lon": 114.194996
    },
    {
        "id": 157,
        "name": "舢板燒 ",
        "address": "屯門屯門鄉事會路112-140號雅都商場Go Go Mall1樓S65號舖",
        "district": "屯門",
        "areas": "新界區",
        "desc": "原文網址: https://lihkg.com/thread/1381657/page/1\n有人發夢話：老闆職員大叫警察打得好",
        "image": "https://na.cx/i/kbcdKrf.png",
        "brand": "舢板燒 ",
        "lat": 22.398525,
        "lon": 113.975365
    },
    {
        "id": 159,
        "name": "太和街市美食工房",
        "address": "大埔 太和路12號太和廣場地下",
        "district": "大埔",
        "areas": "新界區",
        "desc": "原文網址: https://lihkg.com/thread/1377123/page/1\n有人發夢話：啱啱夜晚落去太和街市食野，\n聽到隔離美X工房房老闆發表偉大言論，\n「要打死曬八大啲學生」、「全部拉去打靶」",
        "image": "https://na.cx/i/kbcdKrf.png",
        "brand": "太和街市美食工房",
        "lat": 22.451244,
        "lon": 114.161488
    },
    {
        "id": 160,
        "name": "家家樂風味茶餐廳",
        "address": "葵涌石籬村石籬商場2期3樓",
        "district": "葵涌",
        "areas": "新界區",
        "desc": "原文網址: https://lihkg.com/thread/1396455/page/1\n有人發夢話：老闆娘話示威者係暴徒",
        "image": "https://na.cx/i/kbcdKrf.png",
        "brand": "家家樂風味茶餐廳",
        "lat": 22.365558,
        "lon": 114.138964
    },
    {
        "id": 161,
        "name": "東海堂 - 天水圍站",
        "address": "港鐵站TIS45 號 舖",
        "district": "天水圍",
        "areas": "新界區",
        "desc": "原文網址: https://lihkg.com/thread/1412659/page/1\n有人發夢話：女sales企門口見到著全黑就話「好驚啊」\n然後走返入去企",
        "image": "https://na.cx/i/kbcdKrf.png",
        "brand": "東海堂",
        "lat": 22.448816,
        "lon": 114.005368
    },
    {
        "id": 166,
        "name": "一芳台灣水果茶",
        "address": "沙田沙田正街18號新城市廣場1樓158號舖",
        "district": "沙田",
        "areas": "新界區",
        "desc": "其實呢作為一芳總部員工我會選擇同大家講事實。請大家善用起底功能起我底同我老闆底。大家睇完我講既野想罷既仍然可以罷\n係呢一刻我可以同大家講選擇同我地割蓆既係台灣總代理同大陸代理而佢地都係同一個人。我老闆係極深黃。\n以我老闆即係一芳香港總代理由612到今日佢都全力去支持我比我選擇罷工。甚至我去到示威現場佢都關心我有冇事叫我唔好衝。\n咁我想問下作為香港人既我地立場夠唔夠明顯？\n點解要信用簡體字出聲明既人？\n香港人係唔用微博攪清楚\n我可以選擇唔出聲。但我唔想做港豬做既野\n\n--------------------------------\n\n「一芳台灣水果茶」5日發聲明指出，有部分網路用戶拍攝，並傳播一芳門店撰寫（與香港人同行）店休說明，並張貼在門店的畫面。他們在官方微博上發文支持一國兩制，同時譴責香港暴力罷工，並對違約門店即刻採取解約關店動作。\n\n原文網址: 「三罷」重創香港！一芳台灣水果茶「20家」港門店堅持營業：支持一國兩制 | ETtoday大陸 | ETtoday新聞雲 https://www.ettoday.net/news/20190805/1506424.htm#ixzz5vjKvH0K5 ",
        "image": "https://na.cx/i/e3QTmCh.png",
        "brand": "一芳台灣水果茶",
        "lat": 22.38204,
        "lon": 114.188978
    },
    {
        "id": 168,
        "name": "一芳台灣水果茶",
        "address": "荃灣楊屋道1號荃新天地一期UG52A號舖",
        "district": "荃灣",
        "areas": "新界區",
        "desc": "其實呢作為一芳總部員工我會選擇同大家講事實。請大家善用起底功能起我底同我老闆底。大家睇完我講既野想罷既仍然可以罷\n係呢一刻我可以同大家講選擇同我地割蓆既係台灣總代理同大陸代理而佢地都係同一個人。我老闆係極深黃。\n以我老闆即係一芳香港總代理由612到今日佢都全力去支持我比我選擇罷工。甚至我去到示威現場佢都關心我有冇事叫我唔好衝。\n咁我想問下作為香港人既我地立場夠唔夠明顯？\n點解要信用簡體字出聲明既人？\n香港人係唔用微博攪清楚\n我可以選擇唔出聲。但我唔想做港豬做既野\n\n--------------------------------\n\n「一芳台灣水果茶」5日發聲明指出，有部分網路用戶拍攝，並傳播一芳門店撰寫（與香港人同行）店休說明，並張貼在門店的畫面。他們在官方微博上發文支持一國兩制，同時譴責香港暴力罷工，並對違約門店即刻採取解約關店動作。\n\n原文網址: 「三罷」重創香港！一芳台灣水果茶「20家」港門店堅持營業：支持一國兩制 | ETtoday大陸 | ETtoday新聞雲 https://www.ettoday.net/news/20190805/1506424.htm#ixzz5vjKvH0K5 ",
        "image": "https://na.cx/i/e3QTmCh.png",
        "brand": "一芳台灣水果茶",
        "lat": 22.369577,
        "lon": 114.113725
    },
    {
        "id": 170,
        "name": "一芳台灣水果茶",
        "address": "將軍澳重華路8號東港城2樓259C店舖",
        "district": "將軍澳",
        "areas": "新界區",
        "desc": "其實呢作為一芳總部員工我會選擇同大家講事實。請大家善用起底功能起我底同我老闆底。大家睇完我講既野想罷既仍然可以罷\n係呢一刻我可以同大家講選擇同我地割蓆既係台灣總代理同大陸代理而佢地都係同一個人。我老闆係極深黃。\n以我老闆即係一芳香港總代理由612到今日佢都全力去支持我比我選擇罷工。甚至我去到示威現場佢都關心我有冇事叫我唔好衝。\n咁我想問下作為香港人既我地立場夠唔夠明顯？\n點解要信用簡體字出聲明既人？\n香港人係唔用微博攪清楚\n我可以選擇唔出聲。但我唔想做港豬做既野\n\n--------------------------------\n\n「一芳台灣水果茶」5日發聲明指出，有部分網路用戶拍攝，並傳播一芳門店撰寫（與香港人同行）店休說明，並張貼在門店的畫面。他們在官方微博上發文支持一國兩制，同時譴責香港暴力罷工，並對違約門店即刻採取解約關店動作。\n\n原文網址: 「三罷」重創香港！一芳台灣水果茶「20家」港門店堅持營業：支持一國兩制 | ETtoday大陸 | ETtoday新聞雲 https://www.ettoday.net/news/20190805/1506424.htm#ixzz5vjKvH0K5 ",
        "image": "https://na.cx/i/e3QTmCh.png",
        "brand": "一芳台灣水果茶",
        "lat": 22.316402,
        "lon": 114.265394
    },
    {
        "id": 172,
        "name": "一芳台灣水果茶",
        "address": "元朗教育路1號元朗千色匯地下32號舖",
        "district": "元朗",
        "areas": "新界區",
        "desc": "其實呢作為一芳總部員工我會選擇同大家講事實。請大家善用起底功能起我底同我老闆底。大家睇完我講既野想罷既仍然可以罷\n係呢一刻我可以同大家講選擇同我地割蓆既係台灣總代理同大陸代理而佢地都係同一個人。我老闆係極深黃。\n以我老闆即係一芳香港總代理由612到今日佢都全力去支持我比我選擇罷工。甚至我去到示威現場佢都關心我有冇事叫我唔好衝。\n咁我想問下作為香港人既我地立場夠唔夠明顯？\n點解要信用簡體字出聲明既人？\n香港人係唔用微博攪清楚\n我可以選擇唔出聲。但我唔想做港豬做既野\n\n--------------------------------\n\n「一芳台灣水果茶」5日發聲明指出，有部分網路用戶拍攝，並傳播一芳門店撰寫（與香港人同行）店休說明，並張貼在門店的畫面。他們在官方微博上發文支持一國兩制，同時譴責香港暴力罷工，並對違約門店即刻採取解約關店動作。\n\n原文網址: 「三罷」重創香港！一芳台灣水果茶「20家」港門店堅持營業：支持一國兩制 | ETtoday大陸 | ETtoday新聞雲 https://www.ettoday.net/news/20190805/1506424.htm#ixzz5vjKvH0K5 ",
        "image": "https://na.cx/i/e3QTmCh.png",
        "brand": "一芳台灣水果茶",
        "lat": 22.442668,
        "lon": 114.028407
    },
    {
        "id": 175,
        "name": "一芳台灣水果茶",
        "address": "大埔安邦路9號大埔超級城B區2樓265號舖",
        "district": "大埔",
        "areas": "新界區",
        "desc": "其實呢作為一芳總部員工我會選擇同大家講事實。請大家善用起底功能起我底同我老闆底。大家睇完我講既野想罷既仍然可以罷\n係呢一刻我可以同大家講選擇同我地割蓆既係台灣總代理同大陸代理而佢地都係同一個人。我老闆係極深黃。\n以我老闆即係一芳香港總代理由612到今日佢都全力去支持我比我選擇罷工。甚至我去到示威現場佢都關心我有冇事叫我唔好衝。\n咁我想問下作為香港人既我地立場夠唔夠明顯？\n點解要信用簡體字出聲明既人？\n香港人係唔用微博攪清楚\n我可以選擇唔出聲。但我唔想做港豬做既野\n\n--------------------------------\n\n「一芳台灣水果茶」5日發聲明指出，有部分網路用戶拍攝，並傳播一芳門店撰寫（與香港人同行）店休說明，並張貼在門店的畫面。他們在官方微博上發文支持一國兩制，同時譴責香港暴力罷工，並對違約門店即刻採取解約關店動作。\n\n原文網址: 「三罷」重創香港！一芳台灣水果茶「20家」港門店堅持營業：支持一國兩制 | ETtoday大陸 | ETtoday新聞雲 https://www.ettoday.net/news/20190805/1506424.htm#ixzz5vjKvH0K5 ",
        "image": "https://na.cx/i/e3QTmCh.png",
        "brand": "一芳台灣水果茶",
        "lat": 22.451724,
        "lon": 114.170306
    },
    {
        "id": 176,
        "name": "一芳台灣水果茶",
        "address": "葵芳興芳路223號新都會廣場2樓266號舖",
        "district": "葵芳",
        "areas": "新界區",
        "desc": "其實呢作為一芳總部員工我會選擇同大家講事實。請大家善用起底功能起我底同我老闆底。大家睇完我講既野想罷既仍然可以罷\n係呢一刻我可以同大家講選擇同我地割蓆既係台灣總代理同大陸代理而佢地都係同一個人。我老闆係極深黃。\n以我老闆即係一芳香港總代理由612到今日佢都全力去支持我比我選擇罷工。甚至我去到示威現場佢都關心我有冇事叫我唔好衝。\n咁我想問下作為香港人既我地立場夠唔夠明顯？\n點解要信用簡體字出聲明既人？\n香港人係唔用微博攪清楚\n我可以選擇唔出聲。但我唔想做港豬做既野\n\n--------------------------------\n\n「一芳台灣水果茶」5日發聲明指出，有部分網路用戶拍攝，並傳播一芳門店撰寫（與香港人同行）店休說明，並張貼在門店的畫面。他們在官方微博上發文支持一國兩制，同時譴責香港暴力罷工，並對違約門店即刻採取解約關店動作。\n\n原文網址: 「三罷」重創香港！一芳台灣水果茶「20家」港門店堅持營業：支持一國兩制 | ETtoday大陸 | ETtoday新聞雲 https://www.ettoday.net/news/20190805/1506424.htm#ixzz5vjKvH0K5 ",
        "image": "https://na.cx/i/e3QTmCh.png",
        "brand": "一芳台灣水果茶",
        "lat": 22.357527,
        "lon": 114.127016
    },
    {
        "id": 184,
        "name": "一芳台灣水果茶",
        "address": "屯門屯隆街3號屯門市廣場一期3樓3219-3221號舖",
        "district": "屯門",
        "areas": "新界區",
        "desc": "其實呢作為一芳總部員工我會選擇同大家講事實。請大家善用起底功能起我底同我老闆底。大家睇完我講既野想罷既仍然可以罷\n係呢一刻我可以同大家講選擇同我地割蓆既係台灣總代理同大陸代理而佢地都係同一個人。我老闆係極深黃。\n以我老闆即係一芳香港總代理由612到今日佢都全力去支持我比我選擇罷工。甚至我去到示威現場佢都關心我有冇事叫我唔好衝。\n咁我想問下作為香港人既我地立場夠唔夠明顯？\n點解要信用簡體字出聲明既人？\n香港人係唔用微博攪清楚\n我可以選擇唔出聲。但我唔想做港豬做既野\n\n--------------------------------\n\n「一芳台灣水果茶」5日發聲明指出，有部分網路用戶拍攝，並傳播一芳門店撰寫（與香港人同行）店休說明，並張貼在門店的畫面。他們在官方微博上發文支持一國兩制，同時譴責香港暴力罷工，並對違約門店即刻採取解約關店動作。\n\n原文網址: 「三罷」重創香港！一芳台灣水果茶「20家」港門店堅持營業：支持一國兩制 | ETtoday大陸 | ETtoday新聞雲 https://www.ettoday.net/news/20190805/1506424.htm#ixzz5vjKvH0K5 ",
        "image": "https://na.cx/i/e3QTmCh.png",
        "brand": "一芳台灣水果茶",
        "lat": 22.392456,
        "lon": 113.97664
    },
    {
        "id": 185,
        "name": "一芳台灣水果茶",
        "address": "上水龍琛路39號上水廣場5樓506號舖",
        "district": "上水",
        "areas": "新界區",
        "desc": "其實呢作為一芳總部員工我會選擇同大家講事實。請大家善用起底功能起我底同我老闆底。大家睇完我講既野想罷既仍然可以罷\n係呢一刻我可以同大家講選擇同我地割蓆既係台灣總代理同大陸代理而佢地都係同一個人。我老闆係極深黃。\n以我老闆即係一芳香港總代理由612到今日佢都全力去支持我比我選擇罷工。甚至我去到示威現場佢都關心我有冇事叫我唔好衝。\n咁我想問下作為香港人既我地立場夠唔夠明顯？\n點解要信用簡體字出聲明既人？\n香港人係唔用微博攪清楚\n我可以選擇唔出聲。但我唔想做港豬做既野\n\n--------------------------------\n\n「一芳台灣水果茶」5日發聲明指出，有部分網路用戶拍攝，並傳播一芳門店撰寫（與香港人同行）店休說明，並張貼在門店的畫面。他們在官方微博上發文支持一國兩制，同時譴責香港暴力罷工，並對違約門店即刻採取解約關店動作。\n\n原文網址: 「三罷」重創香港！一芳台灣水果茶「20家」港門店堅持營業：支持一國兩制 | ETtoday大陸 | ETtoday新聞雲 https://www.ettoday.net/news/20190805/1506424.htm#ixzz5vjKvH0K5 ",
        "image": "https://na.cx/i/e3QTmCh.png",
        "brand": "一芳台灣水果茶",
        "lat": 22.502576,
        "lon": 114.127948
    },
    {
        "id": 187,
        "name": "一芳台灣水果茶",
        "address": "馬鞍山西沙路608號馬鞍山廣場2樓216號舖",
        "district": "馬鞍山",
        "areas": "新界區",
        "desc": "其實呢作為一芳總部員工我會選擇同大家講事實。請大家善用起底功能起我底同我老闆底。大家睇完我講既野想罷既仍然可以罷\n係呢一刻我可以同大家講選擇同我地割蓆既係台灣總代理同大陸代理而佢地都係同一個人。我老闆係極深黃。\n以我老闆即係一芳香港總代理由612到今日佢都全力去支持我比我選擇罷工。甚至我去到示威現場佢都關心我有冇事叫我唔好衝。\n咁我想問下作為香港人既我地立場夠唔夠明顯？\n點解要信用簡體字出聲明既人？\n香港人係唔用微博攪清楚\n我可以選擇唔出聲。但我唔想做港豬做既野\n\n--------------------------------\n\n「一芳台灣水果茶」5日發聲明指出，有部分網路用戶拍攝，並傳播一芳門店撰寫（與香港人同行）店休說明，並張貼在門店的畫面。他們在官方微博上發文支持一國兩制，同時譴責香港暴力罷工，並對違約門店即刻採取解約關店動作。\n\n原文網址: 「三罷」重創香港！一芳台灣水果茶「20家」港門店堅持營業：支持一國兩制 | ETtoday大陸 | ETtoday新聞雲 https://www.ettoday.net/news/20190805/1506424.htm#ixzz5vjKvH0K5 ",
        "image": "https://na.cx/i/e3QTmCh.png",
        "brand": "一芳台灣水果茶",
        "lat": 22.425501,
        "lon": 114.231323
    },
    {
        "id": 188,
        "name": "一芳台灣水果茶",
        "address": "青衣青敬路33號青衣城一期1地下G10號舖",
        "district": "青衣",
        "areas": "新界區",
        "desc": "其實呢作為一芳總部員工我會選擇同大家講事實。請大家善用起底功能起我底同我老闆底。大家睇完我講既野想罷既仍然可以罷\n係呢一刻我可以同大家講選擇同我地割蓆既係台灣總代理同大陸代理而佢地都係同一個人。我老闆係極深黃。\n以我老闆即係一芳香港總代理由612到今日佢都全力去支持我比我選擇罷工。甚至我去到示威現場佢都關心我有冇事叫我唔好衝。\n咁我想問下作為香港人既我地立場夠唔夠明顯？\n點解要信用簡體字出聲明既人？\n香港人係唔用微博攪清楚\n我可以選擇唔出聲。但我唔想做港豬做既野\n\n--------------------------------\n\n「一芳台灣水果茶」5日發聲明指出，有部分網路用戶拍攝，並傳播一芳門店撰寫（與香港人同行）店休說明，並張貼在門店的畫面。他們在官方微博上發文支持一國兩制，同時譴責香港暴力罷工，並對違約門店即刻採取解約關店動作。\n\n原文網址: 「三罷」重創香港！一芳台灣水果茶「20家」港門店堅持營業：支持一國兩制 | ETtoday大陸 | ETtoday新聞雲 https://www.ettoday.net/news/20190805/1506424.htm#ixzz5vjKvH0K5 ",
        "image": "https://na.cx/i/e3QTmCh.png",
        "brand": "一芳台灣水果茶",
        "lat": 22.359222,
        "lon": 114.10813
    },
    {
        "id": 190,
        "name": "一芳台灣水果茶",
        "address": "葵涌葵昌路72-76號活@KCC 3樓311號舖",
        "district": "葵涌",
        "areas": "新界區",
        "desc": "其實呢作為一芳總部員工我會選擇同大家講事實。請大家善用起底功能起我底同我老闆底。大家睇完我講既野想罷既仍然可以罷\n係呢一刻我可以同大家講選擇同我地割蓆既係台灣總代理同大陸代理而佢地都係同一個人。我老闆係極深黃。\n以我老闆即係一芳香港總代理由612到今日佢都全力去支持我比我選擇罷工。甚至我去到示威現場佢都關心我有冇事叫我唔好衝。\n咁我想問下作為香港人既我地立場夠唔夠明顯？\n點解要信用簡體字出聲明既人？\n香港人係唔用微博攪清楚\n我可以選擇唔出聲。但我唔想做港豬做既野\n\n--------------------------------\n\n「一芳台灣水果茶」5日發聲明指出，有部分網路用戶拍攝，並傳播一芳門店撰寫（與香港人同行）店休說明，並張貼在門店的畫面。他們在官方微博上發文支持一國兩制，同時譴責香港暴力罷工，並對違約門店即刻採取解約關店動作。\n\n原文網址: 「三罷」重創香港！一芳台灣水果茶「20家」港門店堅持營業：支持一國兩制 | ETtoday大陸 | ETtoday新聞雲 https://www.ettoday.net/news/20190805/1506424.htm#ixzz5vjKvH0K5 ",
        "image": "https://na.cx/i/e3QTmCh.png",
        "brand": "一芳台灣水果茶",
        "lat": 22.362418,
        "lon": 114.132298
    },
    {
        "id": 192,
        "name": "家樂軒小廚",
        "address": "俊宏軒廣地地下G04号舖, 88号 Tin Shui Rd, Tin Shui Wai",
        "district": "天水圍",
        "areas": "新界區",
        "desc": "有人發夢話：老闆娘同d伙記支持元朗恐襲 話d市民抵撚死 廢老集中地",
        "image": "https://na.cx/i/kbcdKrf.png",
        "brand": "家樂軒小廚",
        "lat": 22.468495,
        "lon": 114.000309
    },
    {
        "id": 193,
        "name": "金明華粥品店",
        "address": "天瑞路88號俊宏軒廣場地下L7, Tin Shui Wai",
        "district": "天水圍",
        "areas": "新界區",
        "desc": "有人發夢話：老闆娘同d伙記支持元朗恐襲 話d市民抵撚死 廢老集中地",
        "image": "https://na.cx/i/kbcdKrf.png",
        "brand": "金明華粥品店",
        "lat": 22.46899,
        "lon": 114.001167
    },
    {
        "id": 198,
        "name": "新光酒樓集團",
        "address": "沙田大涌橋道52號富豪花園商場",
        "district": "沙田",
        "areas": "新界區",
        "desc": "https://zh.m.wikipedia.org/zh-hk/新光酒樓集團  \n有人發夢話：同百樂門同一個奶共老細 親共人士飯堂",
        "image": "https://na.cx/i/kbcdKrf.png",
        "brand": "新光酒樓集團",
        "lat": 22.3849,
        "lon": 114.198677
    },
    {
        "id": 199,
        "name": "新光酒樓集團",
        "address": "新蒲崗寧遠街3-23號越秀廣場5樓",
        "district": "新蒲崗",
        "areas": "新界區",
        "desc": "https://zh.m.wikipedia.org/zh-hk/新光酒樓集團  \n有人發夢話：同百樂門同一個奶共老細 親共人士飯堂",
        "image": "https://na.cx/i/kbcdKrf.png",
        "brand": "新光酒樓集團",
        "lat": 22.333956,
        "lon": 114.195926
    },
    {
        "id": 200,
        "name": "新光酒樓集團",
        "address": "葵涌和宜合道33號雍雅軒地下(都會天峰)",
        "district": "葵涌",
        "areas": "新界區",
        "desc": "https://zh.m.wikipedia.org/zh-hk/新光酒樓集團  \n有人發夢話：同百樂門同一個奶共老細 親共人士飯堂",
        "image": "https://na.cx/i/kbcdKrf.png",
        "brand": "新光酒樓集團",
        "lat": 22.366381,
        "lon": 114.136628
    },
    {
        "id": 206,
        "name": "大喜屋日本料理 ",
        "address": "沙田沙田正街21-27號沙田廣場1樓33-35,44-46號舖",
        "district": "沙田",
        "areas": "新界區",
        "desc": "原文網址: https://lihkg.com/thread/1413576/page/1?post=1\n有人發夢話：沙田大喜屋 話8月5日有咩事 公司係唔會負責\n\n大喜屋集團旗下 吉壽 :\n有人發夢話：我頭喺呢間吉壽食緊飯， 樓下差佬掃旺進行中，\n 吉壽有服務員大叔不斷四圍同食客話: 最好出解放軍打死哂樓下啲示威者 \n已經無人想答佢，佢仲不停講，十分煩嫌！ \n本身個個星期去，宜家永不再去幫親。 \n\n吉壽日本料理 吉壽本格御品放題 有冇咩回應\nAdmin已inbox呢兩個page，但尚未有回復",
        "image": "https://na.cx/i/kbcdKrf.png",
        "brand": "大喜屋",
        "lat": 22.383297,
        "lon": 114.189443
    },
    {
        "id": 207,
        "name": "極尚大瀛喜",
        "address": "元朗元龍街9號2樓2001A號舖形點1期",
        "district": "元朗",
        "areas": "新界區",
        "desc": "原文網址: https://lihkg.com/thread/1413576/page/1?post=1\n有人發夢話：沙田大喜屋 話8月5日有咩事 公司係唔會負責\n\n大喜屋集團旗下 吉壽 :\n有人發夢話：我頭喺呢間吉壽食緊飯， 樓下差佬掃旺進行中，\n 吉壽有服務員大叔不斷四圍同食客話: 最好出解放軍打死哂樓下啲示威者 \n已經無人想答佢，佢仲不停講，十分煩嫌！ \n本身個個星期去，宜家永不再去幫親。 \n\n吉壽日本料理 吉壽本格御品放題 有冇咩回應\nAdmin已inbox呢兩個page，但尚未有回復",
        "image": "https://na.cx/i/kbcdKrf.png",
        "brand": "大喜屋",
        "lat": 22.443634,
        "lon": 114.03738
    }
]