[
    {
        "id": 30,
        "name": "大師傅粥品",
        "address": "大圍村南道大圍大圍村南道63號金昌摟地下D號鋪",
        "district": "大圍",
        "areas": "新界區",
        "desc": "有人發夢話 : 員工不斷話人係暴徒 搞亂哂香港",
        "image": "https://na.cx/i/uvSwHez.png",
        "brand": "大師傅粥品",
        "lat": 22.374229,
        "lon": 114.179195
    },
    {
        "id": 31,
        "name": "漢年茶餐廳",
        "address": "大圍積福街100號",
        "district": "大圍",
        "areas": "新界區",
        "desc": "有人發夢話 : 成間藍絲",
        "image": "https://na.cx/i/uvSwHez.png",
        "brand": "漢年茶餐廳",
        "lat": 22.374421,
        "lon": 114.178764
    },
    {
        "id": 36,
        "name": "石門 陳根記",
        "address": "沙田安群街2號沙田安群街2號",
        "district": "沙田",
        "areas": "新界區",
        "desc": "原文網址: https://lihkg.com/thread/1340835/page/1\n\n頭先發夢係中環走，幾個手足去左石門陳根記食飯\n\n食緊飯時電視tvb新聞播緊上環情況，隔黎台有把阿伯聲呢個時候話 : \n\n其實只要搵返一百個人出去 斬斷哂班搞事既手手腳腳，比返安家費就搞掂\n睇下佢地係咪咁夠膽\n\n個下我擰過去，見到係個藍衫黑實阿伯，認得佢就係個老細（以前禾輋既陳根記收銀個度放好多張老細既show肌出海相）\n\n我仲懷疑緊有無聽錯同係咪佢講（同台仲有2 個壯漢）\n\n過左一陣，元朗單野發生，我上Facebook 睇林卓廷live, 睇到嘩左出聲 話痴撚線，入撚埋車箱打班後生仔\n\n個老細係隔離台都望住我個mon, 佢講左句 : \n打得好！ 打得好！",
        "image": "https://na.cx/i/uvSwHez.png",
        "brand": "石門 陳根記",
        "lat": 22.388414,
        "lon": 114.20781
    },
    {
        "id": 42,
        "name": "馬鞍山廣場譚仔",
        "address": "馬鞍山馬鞍山廣場二樓266-268號舖",
        "district": "馬鞍山",
        "areas": "新界區",
        "desc": "原文網址: https://lihkg.com/thread/1215706/page/10\n\n有人發夢話 : 遊行完第二日聽班呀姐話後生仔收左錢，邊有一百萬咁多",
        "image": "https://na.cx/i/uvSwHez.png",
        "brand": "馬鞍山廣場譚仔",
        "lat": 22.425589,
        "lon": 114.231044
    },
    {
        "id": 45,
        "name": "榮式燒雞扒",
        "address": "25-26, 屯門時代廣場北翼2 Tuen Lung St, Tuen Mun",
        "district": "屯門",
        "areas": "新界區",
        "desc": "原文網址: https://lihkg.com/thread/1215441/page/1\n\n有人發夢話 : 聽到個著黑衫唔知係咪店長同其中一個較年長伙記係到討論尋日612佔領\n竟然話尋日大部分係2x歲後生仔 都係收錢搞事 收1500蚊 之後去個d就無得收咁多",
        "image": "https://na.cx/i/uvSwHez.png",
        "brand": "榮式燒雞扒",
        "lat": 22.393557,
        "lon": 113.975826
    },
    {
        "id": 53,
        "name": "老虎堂",
        "address": "荃灣荃興徑14b號",
        "district": "荃灣",
        "areas": "新界區",
        "desc": "原文網址: https://lihkg.com/thread/1215175/page/1\n\nJune 13\n有人發夢話 : 無預先請假佢哋係唔啱，但係佢哋都係想守護佢哋嘅城市。\n淨係顧住自己鋪頭生意就係度屌班後生。",
        "image": "https://na.cx/i/uvSwHez.png",
        "brand": "老虎堂",
        "lat": 22.37263,
        "lon": 114.115517
    },
    {
        "id": 54,
        "name": "日牛涮涮鍋專門店",
        "address": "坑口東港城第一層 197A 號舖",
        "district": "坑口",
        "areas": "新界區",
        "desc": "原文網址:   https://lihkg.com/thread/1338758/page/1\n\nJuly 23\n有人發夢話 : 連登討論區網民「雞蛋撞高牆」昨以「有餐廳拒絕遊行人士入內進餐！！！」為題發文，稱昨日與兩名友人出席遊行後返回將軍澳打算打邊爐，一行三人到東港城的日牛涮涮鍋專門店（日牛，下同）取籌等位，期間談及遊行的詳情。樓主稱，餐廳門口的女職員聽到他與朋友的對話突然黑面，「之後入咗去同另一個男店員講，一路講一路望過嚟，我哋就覺得瀨嘢啦，不過下個就到我哋所以繼續等」。\n\n結果樓主一等就是45分鐘，他稱之後見到「有張四人枱空咗出嚟」，但男職員「即刻攞塊板將張枱隔開兩邊，變做兩張兩人枱，然後畀人入去」。樓主上前與女職員理論，對方僅稱「兩人枱多人排要畀人入先」。\n\n樓主稱，其後再有4人家庭「插隊」入座，女職員回答稱「佢哋嚟先喎，同埋呢，𠵱家我哋鋪頭都就閂門你哋可以唔使再等啦」，樓主大感不滿直接質問 : 「你玩嘢？我哋number前過佢哋。」對方卻稱 : 「冇，你可以食其他餐廳㗎，咁得閒周圍遊行。」",
        "image": "https://na.cx/i/uvSwHez.png",
        "brand": "和心",
        "lat": 22.316989,
        "lon": 114.265549
    },
    {
        "id": 69,
        "name": "吉野家",
        "address": "新界大埔大埔超級城B區1樓130-133及133A舖",
        "district": "大埔",
        "areas": "新界區",
        "desc": "有人發夢話 : 「反送中」運動遍地開花，市民自發在各區設置連儂牆。近百名配備防暴裝備的持盾警員，日前凌晨前往大埔連儂牆撕走涉警資料便條紙，連鎖餐廳吉野家事後在臉書專頁發表宣傳產品的貼文，當中「唔准叫我獅子狗」的字眼被指辱警。中聯辦主導的《文匯報》及《大公報》報道，吉野家已跟外判廣告公司解約，負責廣告事務的公司員工已亦被解聘。職工盟今午到油麻地吉野家僑江大廈分店抗議，批評解僱工做法屬政治打壓，並呼籲市民「向染紅獅子狗說不！」\n\n報道引述吉野家母公司香港合興集團有限公司總裁、全國政協委員洪明基稱，他最近參加了撐警大會，全力支持特區政府依法施政，對事先不知情感到極為憤怒，亦對事件感到非常痛心。目前涉事廣告已刪除，外判廣告公司遭解約，而負責廣告事務的公司員工亦被解僱。",
        "image": "https://na.cx/i/uvSwHez.png",
        "brand": "吉野家",
        "lat": 22.451733,
        "lon": 114.170609
    },
    {
        "id": 70,
        "name": "吉野家",
        "address": "新界元朗天水圍天頌苑頌富廣場第一期1樓114-115號商舖",
        "district": "天水圍",
        "areas": "新界區",
        "desc": "有人發夢話 : 「反送中」運動遍地開花，市民自發在各區設置連儂牆。近百名配備防暴裝備的持盾警員，日前凌晨前往大埔連儂牆撕走涉警資料便條紙，連鎖餐廳吉野家事後在臉書專頁發表宣傳產品的貼文，當中「唔准叫我獅子狗」的字眼被指辱警。中聯辦主導的《文匯報》及《大公報》報道，吉野家已跟外判廣告公司解約，負責廣告事務的公司員工已亦被解聘。職工盟今午到油麻地吉野家僑江大廈分店抗議，批評解僱工做法屬政治打壓，並呼籲市民「向染紅獅子狗說不！」\n\n報道引述吉野家母公司香港合興集團有限公司總裁、全國政協委員洪明基稱，他最近參加了撐警大會，全力支持特區政府依法施政，對事先不知情感到極為憤怒，亦對事件感到非常痛心。目前涉事廣告已刪除，外判廣告公司遭解約，而負責廣告事務的公司員工亦被解僱。",
        "image": "https://na.cx/i/uvSwHez.png",
        "brand": "吉野家",
        "lat": 22.462328,
        "lon": 113.998059
    },
    {
        "id": 71,
        "name": "吉野家",
        "address": "新界屯門時代廣場南翼3樓25號舖",
        "district": "屯門",
        "areas": "新界區",
        "desc": "有人發夢話 : 「反送中」運動遍地開花，市民自發在各區設置連儂牆。近百名配備防暴裝備的持盾警員，日前凌晨前往大埔連儂牆撕走涉警資料便條紙，連鎖餐廳吉野家事後在臉書專頁發表宣傳產品的貼文，當中「唔准叫我獅子狗」的字眼被指辱警。中聯辦主導的《文匯報》及《大公報》報道，吉野家已跟外判廣告公司解約，負責廣告事務的公司員工已亦被解聘。職工盟今午到油麻地吉野家僑江大廈分店抗議，批評解僱工做法屬政治打壓，並呼籲市民「向染紅獅子狗說不！」\n\n報道引述吉野家母公司香港合興集團有限公司總裁、全國政協委員洪明基稱，他最近參加了撐警大會，全力支持特區政府依法施政，對事先不知情感到極為憤怒，亦對事件感到非常痛心。目前涉事廣告已刪除，外判廣告公司遭解約，而負責廣告事務的公司員工亦被解僱。",
        "image": "https://na.cx/i/uvSwHez.png",
        "brand": "吉野家",
        "lat": 22.39258,
        "lon": 113.976223
    },
    {
        "id": 72,
        "name": "吉野家",
        "address": "新界沙田瀝源邨瀝源商場2樓C213A號舖",
        "district": "沙田",
        "areas": "新界區",
        "desc": "有人發夢話 : 「反送中」運動遍地開花，市民自發在各區設置連儂牆。近百名配備防暴裝備的持盾警員，日前凌晨前往大埔連儂牆撕走涉警資料便條紙，連鎖餐廳吉野家事後在臉書專頁發表宣傳產品的貼文，當中「唔准叫我獅子狗」的字眼被指辱警。中聯辦主導的《文匯報》及《大公報》報道，吉野家已跟外判廣告公司解約，負責廣告事務的公司員工已亦被解聘。職工盟今午到油麻地吉野家僑江大廈分店抗議，批評解僱工做法屬政治打壓，並呼籲市民「向染紅獅子狗說不！」\n\n報道引述吉野家母公司香港合興集團有限公司總裁、全國政協委員洪明基稱，他最近參加了撐警大會，全力支持特區政府依法施政，對事先不知情感到極為憤怒，亦對事件感到非常痛心。目前涉事廣告已刪除，外判廣告公司遭解約，而負責廣告事務的公司員工亦被解僱。",
        "image": "https://na.cx/i/uvSwHez.png",
        "brand": "吉野家",
        "lat": 22.384602,
        "lon": 114.191375
    },
    {
        "id": 73,
        "name": "吉野家",
        "address": "新界青衣長發商場3樓313-316號舖",
        "district": "青衣",
        "areas": "新界區",
        "desc": "有人發夢話 : 「反送中」運動遍地開花，市民自發在各區設置連儂牆。近百名配備防暴裝備的持盾警員，日前凌晨前往大埔連儂牆撕走涉警資料便條紙，連鎖餐廳吉野家事後在臉書專頁發表宣傳產品的貼文，當中「唔准叫我獅子狗」的字眼被指辱警。中聯辦主導的《文匯報》及《大公報》報道，吉野家已跟外判廣告公司解約，負責廣告事務的公司員工已亦被解聘。職工盟今午到油麻地吉野家僑江大廈分店抗議，批評解僱工做法屬政治打壓，並呼籲市民「向染紅獅子狗說不！」\n\n報道引述吉野家母公司香港合興集團有限公司總裁、全國政協委員洪明基稱，他最近參加了撐警大會，全力支持特區政府依法施政，對事先不知情感到極為憤怒，亦對事件感到非常痛心。目前涉事廣告已刪除，外判廣告公司遭解約，而負責廣告事務的公司員工亦被解僱。",
        "image": "https://na.cx/i/uvSwHez.png",
        "brand": "吉野家",
        "lat": 22.362181,
        "lon": 114.10356
    },
    {
        "id": 74,
        "name": "吉野家",
        "address": "新界荃灣荃興徑13-17, 19 & 21-23號荃發大廈地下Shop E部份及一樓",
        "district": "荃灣",
        "areas": "新界區",
        "desc": "有人發夢話 : 「反送中」運動遍地開花，市民自發在各區設置連儂牆。近百名配備防暴裝備的持盾警員，日前凌晨前往大埔連儂牆撕走涉警資料便條紙，連鎖餐廳吉野家事後在臉書專頁發表宣傳產品的貼文，當中「唔准叫我獅子狗」的字眼被指辱警。中聯辦主導的《文匯報》及《大公報》報道，吉野家已跟外判廣告公司解約，負責廣告事務的公司員工已亦被解聘。職工盟今午到油麻地吉野家僑江大廈分店抗議，批評解僱工做法屬政治打壓，並呼籲市民「向染紅獅子狗說不！」\n\n報道引述吉野家母公司香港合興集團有限公司總裁、全國政協委員洪明基稱，他最近參加了撐警大會，全力支持特區政府依法施政，對事先不知情感到極為憤怒，亦對事件感到非常痛心。目前涉事廣告已刪除，外判廣告公司遭解約，而負責廣告事務的公司員工亦被解僱。",
        "image": "https://na.cx/i/uvSwHez.png",
        "brand": "吉野家",
        "lat": 22.372582,
        "lon": 114.115723
    },
    {
        "id": 75,
        "name": "吉野家",
        "address": "新界葵涌葵富路7至11號葵涌廣場3樓4號舖",
        "district": "葵涌",
        "areas": "新界區",
        "desc": "有人發夢話 : 「反送中」運動遍地開花，市民自發在各區設置連儂牆。近百名配備防暴裝備的持盾警員，日前凌晨前往大埔連儂牆撕走涉警資料便條紙，連鎖餐廳吉野家事後在臉書專頁發表宣傳產品的貼文，當中「唔准叫我獅子狗」的字眼被指辱警。中聯辦主導的《文匯報》及《大公報》報道，吉野家已跟外判廣告公司解約，負責廣告事務的公司員工已亦被解聘。職工盟今午到油麻地吉野家僑江大廈分店抗議，批評解僱工做法屬政治打壓，並呼籲市民「向染紅獅子狗說不！」\n\n報道引述吉野家母公司香港合興集團有限公司總裁、全國政協委員洪明基稱，他最近參加了撐警大會，全力支持特區政府依法施政，對事先不知情感到極為憤怒，亦對事件感到非常痛心。目前涉事廣告已刪除，外判廣告公司遭解約，而負責廣告事務的公司員工亦被解僱。",
        "image": "https://na.cx/i/uvSwHez.png",
        "brand": "吉野家",
        "lat": 22.357913,
        "lon": 114.128089
    },
    {
        "id": 76,
        "name": "SAIZERIYA",
        "address": "元朗馬田路80號御庭居地下8號舖",
        "district": "元朗",
        "areas": "新界區",
        "desc": "有人發夢話 : 13/6 晚飯聽到員工「PING」同其他人講遊行既人都有收錢，佔中果陣都係，佢只係唔得閒先唔去，在場員工都無幫口或者信佢講，另外重有兩個冬菇頭呀嬸同一個後生仔，在場朋友都聽到，想投訴可以SEND FAX去31049939",
        "image": "https://na.cx/i/uvSwHez.png",
        "brand": "SAIZERIYA",
        "lat": 22.4405289,
        "lon": 114.0220276
    },
    {
        "id": 77,
        "name": "金記燒臘餐廳",
        "address": "元朗水車館街66號地鋪",
        "district": "元朗",
        "areas": "新界區",
        "desc": "有人發夢話 : 佔中期間同fd去買叉燒排隊中途問fd食左幾多粒催淚彈，辛唔辛苦等，排到問最少可以買幾多錢叉燒，個老闆娘答$50，我地照買左返屋企，比屋企人鬧話個量得$20，而且平時最少係可以買$20已經係我地個日買到既量黎。",
        "image": "https://na.cx/i/uvSwHez.png",
        "brand": "金記燒臘餐廳",
        "lat": 22.4448151,
        "lon": 114.0308911
    },
    {
        "id": 78,
        "name": "金記燒臘餐廳",
        "address": "元朗水車館街66號地鋪",
        "district": "元朗",
        "areas": "新界區",
        "desc": "有人發夢話 : 佔中期間同fd去買叉燒排隊中途問fd食左幾多粒催淚彈，辛唔辛苦等，排到問最少可以買幾多錢叉燒，個老闆娘答$50，我地照買左返屋企，比屋企人鬧話個量得$20，而且平時最少係可以買$20已經係我地個日買到既量黎。",
        "image": "https://na.cx/i/uvSwHez.png",
        "brand": "金記燒臘餐廳",
        "lat": 22.4448151,
        "lon": 114.0308911
    },
    {
        "id": 79,
        "name": "Ztore",
        "address": "港鐵大埔墟站 A1 出口, 步行約10分鐘",
        "district": "大埔",
        "areas": "新界區",
        "desc": "原文網址: https://lih.kg/1216420",
        "image": "https://na.cx/i/uvSwHez.png",
        "brand": "Ztore",
        "lat": 22.44429,
        "lon": 114.170243
    },
    {
        "id": 80,
        "name": "撈一番",
        "address": "大埔安泰路1號大埔廣場2樓",
        "district": "大埔",
        "areas": "新界區",
        "desc": "有人發夢話 : 聽到店主話支持送中 然後買緊個客立即話唔買",
        "image": "https://na.cx/i/uvSwHez.png",
        "brand": "撈一番",
        "lat": 22.452909,
        "lon": 114.170445
    },
    {
        "id": 81,
        "name": "日溢中西美食",
        "address": "大埔寶湖里一號",
        "district": "大埔",
        "areas": "新界區",
        "desc": "有人發夢話 : 反對示威者行為，支持送中有人",
        "image": "https://na.cx/i/uvSwHez.png",
        "brand": "日溢中西美食",
        "lat": 22.4501205,
        "lon": 114.1681204
    },
    {
        "id": 82,
        "name": "溢泉茶餐廳",
        "address": "大埔同秀坊1號地舖",
        "district": "大埔",
        "areas": "新界區",
        "desc": "有人發夢話 : 同紅橋餐廳同一老闆\n大埔紅橋餐廳則同樣被食客網上撰文，指員工一見客人着黑衣即叫對方「食飽好去打卡」，語氣挑釁令其氣得離開，事後老闆急發聲明，自稱同樣反修例並譴責員工，不少街坊網民同樣表明不會再幫襯。",
        "image": "https://na.cx/i/uvSwHez.png",
        "brand": "溢泉茶餐廳",
        "lat": 22.449008,
        "lon": 114.168207
    },
    {
        "id": 83,
        "name": "紅橋餐廳",
        "address": "大埔廣福道123號地舖",
        "district": "大埔",
        "areas": "新界區",
        "desc": "有人發夢話 : 大埔紅橋餐廳則同樣被食客網上撰文，指員工一見客人着黑衣即叫對方「食飽好去打卡」，語氣挑釁令其氣得離開，事後老闆急發聲明，自稱同樣反修例並譴責員工，不少街坊網民同樣表明不會再幫襯。",
        "image": "https://na.cx/i/uvSwHez.png",
        "brand": "紅橋餐廳",
        "lat": 22.448192,
        "lon": 114.16837
    },
    {
        "id": 85,
        "name": "萬芳冰室",
        "address": "大埔寶湖道1號富盈門商場地下2號舖",
        "district": "大埔",
        "areas": "新界區",
        "desc": "有人發夢話 : 紅底.民建聯集團",
        "image": "https://na.cx/i/uvSwHez.png",
        "brand": "萬芳冰室",
        "lat": 22.4496045,
        "lon": 114.1672979
    },
    {
        "id": 86,
        "name": "陸宜居茶餐廳",
        "address": "大埔靖遠街43號",
        "district": "大埔",
        "areas": "新界區",
        "desc": "有人發夢話 : 親耳聽到個廚同班中年客罵美國佬搞搞震",
        "image": "https://na.cx/i/uvSwHez.png",
        "brand": "陸宜居茶餐廳",
        "lat": 22.449113,
        "lon": 114.164964
    },
    {
        "id": 87,
        "name": "新利大藥房",
        "address": "新界屯門鄉事會路94-110號康利中心地下21號舖",
        "district": "屯門",
        "areas": "新界區",
        "desc": "有人發夢話 : 屯門街坊 : \n頭先我同幾位朋友去圖中嘅新利大藥房詢問有沒有生理鹽水買，點知藥房個職員定唔知老細同我地態度好差咁講有都唔買俾我地，要買就俾身分證。\n我明白藥房係有權利唔買，但呢個係咩態度？  (Source :    https://www.facebook.com/587874824557675/posts/2577818358896635/    ",
        "image": "https://na.cx/i/uvSwHez.png",
        "brand": "新利大藥房",
        "lat": 22.397564,
        "lon": 113.975137
    },
    {
        "id": 112,
        "name": "長洲海傍美食",
        "address": "長洲 海傍街31號地下",
        "district": "長洲",
        "areas": "新界區",
        "desc": "有人發夢話 : 支持送終認為學生搞搞震但偏偏佢哋就係做學生生意雙面人假仁假義",
        "image": "https://na.cx/i/uvSwHez.png",
        "brand": "長洲海傍美食",
        "lat": 22.205973,
        "lon": 114.028136
    },
    {
        "id": 113,
        "name": "故鄉茶寮/故鄉俱樂部",
        "address": "長洲教堂路17嘅地下",
        "district": "長洲",
        "areas": "新界區",
        "desc": "有人發夢話 : \nJuly 8\n目擊其日本店主撕毀長洲當地連儂牆，認為其政治立場為深藍而發起抵制行動\n\n以後罷食長洲手卷紅豆餅！\nhttps://lih.kg/1296661\n- 分享自 LIHKG 討論區\n\nJuly 9\n該店主解釋，話個位老太係居港日本人，\n唔太清楚政治狀況同連儂牆既心意，只係覺得後生仔夜晚嘈住貼紙，無禮貌所以剥下。\n\n有市民同佢講解左而家既香港情況非常嚴重包括四個市民自殺，佢亦理解。\n佢會放香港加油反送中既口號係佢鋪頭前面同幫手保護連儂牆。而同時亦有網友質疑其行為是否純粹補獲。",
        "image": "https://na.cx/i/uvSwHez.png",
        "brand": "故鄉茶寮/故鄉俱樂部",
        "lat": 22.209479,
        "lon": 114.029997
    },
    {
        "id": 114,
        "name": "長洲東源小食(大魚蛋)",
        "address": "長洲海傍街30號後座地下",
        "district": "長洲",
        "areas": "新界區",
        "desc": "有人發夢話 : \n成日閙d學生搞搞震,但係又要搵佢哋嘅錢,\n最鍾意就係見到啲大陸人就話再搞冇大陸人嚟幫襯香港就死喇！\n勁擦腳，對學生態度好差，佢其實係藍絲 佢親阿哥係長洲鄉事委員會主席翁志明 絕對係 共狗。\n民建聯上次發起撑警遊行支持送中嘅領導人。 d食物處理好唔衛生,不過從來冇人可以搞到佢哋,因為有佢阿哥撐腰!",
        "image": "https://na.cx/i/uvSwHez.png",
        "brand": "長洲東源小食(大魚蛋)",
        "lat": 22.206082,
        "lon": 114.028227
    },
    {
        "id": 115,
        "name": "華御結",
        "address": "科學園",
        "district": "沙田",
        "areas": "新界區",
        "desc": "有人發夢話 : 成間啲職員都係有大陸口音嘅呀嬸 然後1/7啲新聞出咗之後 啲呀嬸望住個mon話啲警察軟弱 警察應該開槍 射死曬啲示威者",
        "image": "https://na.cx/i/uvSwHez.png",
        "brand": "華御結",
        "lat": 22.426302,
        "lon": 114.209341
    },
    {
        "id": 121,
        "name": "薩莉亞餐",
        "address": "新界元朗馬田路80號御庭居地下8號舖",
        "district": "元朗",
        "areas": "新界區",
        "desc": "有人發夢話 : 13/6 晚飯聽到員工「PING」同其他人講遊行既人都有收錢，\n佔中果陣都係，佢只係唔得閒先唔去，在場員工都無幫口或者信佢講，\n另外重有兩個冬菇頭呀嬸同一個後生仔，在場朋友都聽到，想投訴可以SEND FAX去31049939",
        "image": "https://na.cx/i/uvSwHez.png",
        "brand": "薩莉亞餐",
        "lat": 22.440608,
        "lon": 114.022038
    },
    {
        "id": 124,
        "name": "開心餐廳小廚",
        "address": "葵涌和宜合道182-184號瑞景大廈地舖",
        "district": "葵涌",
        "areas": "新界區",
        "desc": "有人發夢話 : \n7.1衝立會當晚 收銀呀姐睇住cctvb話 班後生搞搞震 拎去打靶就岩",
        "image": "https://na.cx/i/uvSwHez.png",
        "brand": "開心餐廳小廚",
        "lat": 22.369477,
        "lon": 114.139248
    },
    {
        "id": 125,
        "name": "將軍澳天晉 藝文食館",
        "address": "將軍澳唐俊街12號Popwalk 1樓108號舖",
        "district": "將軍澳",
        "areas": "新界區",
        "desc": "[罷食] 餐廳老闆娘 : d黑衫嘅搞到我呢度冇生意 (但係餐廳喺將軍澳)\n原文網址: https://lih.kg/1382906\n有人發夢話 : 今日晏就同阿媽去將軍澳天晉嗰間藝·文食館食lunch，一開始同阿媽講緊d黑警點衰，個侍應已經黑面，上咗檸茶冇幾耐仲行過嚟收咗我地包糖:o)\n\n跟住個老闆娘返咗嚟就同個侍應係噤講d黑衫幾衰搞到經濟幾差，話佢個工人住元朗見到嗰日成班黑衫所以唔敢出街嚟佢屋企幫手\n\n最精神失常嘅係佢話 : 「西環有間餐廳已經比佢地搞到執咗笠，仲搞到我呢度冇生意！」\n\n中途我同阿媽都不停串佢地:-[:-[:-[\n\n最後一個小插曲～\n精神失常老闆娘 : 「一陣三點鐘有嘢講，睇班黑衫點死！」:o):o):o)\n阿媽 : 「講嚟講去咪三幅屁，有咩好驚有咩新意。」\n我 : 「播個錄音機喺度咪得囉#hehe#pig」\n然後佢嬲嬲豬攞d餐具發洩，突然砰一聲\n跟住佢又同個侍應講 : 「你有冇返大陸呀？宜家我連返大陸修甲都唔敢呀，要check手機。」\n阿媽鬧我 : 「你仲食咩呀食，背脊骨落呀，埋單呀，以後都唔嚟！」\n\n見佢今日得噤少生意，我唔幫佢宣傳下都對唔住自己啦，要再接再厲祝老闆娘早日執柒咗佢間餐廳，等佢日日喺屋企唔洗出街咪見唔到黑衫囉",
        "image": "https://na.cx/i/uvSwHez.png",
        "brand": "藝文食館",
        "lat": 22.3074207,
        "lon": 114.2614623
    },
    {
        "id": 133,
        "name": "深井陳記燒鵝",
        "address": "深井陳記商業中心地下A舖",
        "district": "深井",
        "areas": "新界區",
        "desc": "17/6 下午三時左右 \n有人發夢話 : 某分店員工和顧客批評學生被洗腦 逢中必反 不斷抹黑和中傷， 然而店員卻說對引渡條例的內容\n一無所知，又稱自己「讀得書少」",
        "image": "https://na.cx/i/uvSwHez.png",
        "brand": "深井陳記燒鵝",
        "lat": 22.367981,
        "lon": 114.059732
    },
    {
        "id": 134,
        "name": "深井陳記燒鵝",
        "address": "深井青山公路深井村63號地下",
        "district": "深井",
        "areas": "新界區",
        "desc": "17/6 下午三時左右 \n有人發夢話 : 某分店員工和顧客批評學生被洗腦 逢中必反 不斷抹黑和中傷， 然而店員卻說對引渡條例的內容\n一無所知，又稱自己「讀得書少」",
        "image": "https://na.cx/i/uvSwHez.png",
        "brand": "深井陳記燒鵝",
        "lat": 22.367366,
        "lon": 114.059406
    },
    {
        "id": 139,
        "name": "深井陳記燒鵝",
        "address": "荃灣荃灣街市街27號地舖",
        "district": "荃灣",
        "areas": "新界區",
        "desc": "17/6 下午三時左右 \n有人發夢話 : 某分店員工和顧客批評學生被洗腦 逢中必反 不斷抹黑和中傷， 然而店員卻說對引渡條例的內容\n一無所知，又稱自己「讀得書少」",
        "image": "https://na.cx/i/uvSwHez.png",
        "brand": "深井陳記燒鵝",
        "lat": 22.371855,
        "lon": 114.117212
    },
    {
        "id": 147,
        "name": "養心殿荃灣店",
        "address": "眾安街55號大鴻輝(荃灣)中心17樓",
        "district": "荃灣",
        "areas": "新界區",
        "desc": "原文網址: https://lih.kg/1220224\n有人發夢話 : 養心殿老細話上街果班年輕人全部係被煽動 \n\n養心殿老闆KaFai Chan旗下餐廳 : \n養心麵\n靖 omakase\n灣仔靠炆雞",
        "image": "https://na.cx/i/uvSwHez.png",
        "brand": "養心殿",
        "lat": 22.370028,
        "lon": 114.116673
    },
    {
        "id": 148,
        "name": "養心殿馬鞍山店",
        "address": "保泰街16號We Go Mall 2樓208號鋪",
        "district": "馬鞍山",
        "areas": "新界區",
        "desc": "原文網址: https://lih.kg/1220224\n有人發夢話 : 養心殿老細話上街果班年輕人全部係被煽動 \n\n養心殿老闆KaFai Chan旗下餐廳 : \n養心麵\n靖 omakase\n灣仔靠炆雞",
        "image": "https://na.cx/i/uvSwHez.png",
        "brand": "養心殿",
        "lat": 22.414091,
        "lon": 114.223844
    },
    {
        "id": 149,
        "name": "養心殿將軍澳店",
        "address": "唐德街3號九龍東智選假日酒店2樓",
        "district": "將軍澳",
        "areas": "新界區",
        "desc": "原文網址: https://lih.kg/1220224\n有人發夢話 : 養心殿老細話上街果班年輕人全部係被煽動 \n\n養心殿老闆KaFai Chan旗下餐廳 : \n養心麵\n靖 omakase\n灣仔靠炆雞",
        "image": "https://na.cx/i/uvSwHez.png",
        "brand": "養心殿",
        "lat": 22.308401,
        "lon": 114.25892
    },
    {
        "id": 151,
        "name": "九份十分",
        "address": "沙田大涌橋路20號",
        "district": "沙田",
        "areas": "新界區",
        "desc": "有人發夢話 : 見到個做廚房仔嘅後生疑似比個經理話收咗錢去“暴動” ,即時劈砲走人",
        "image": "https://na.cx/i/uvSwHez.png",
        "brand": "九份十分",
        "lat": 22.38094,
        "lon": 114.194996
    },
    {
        "id": 156,
        "name": "舢板燒 ",
        "address": "屯門屯門鄉事會路112-140號雅都商場Go Go Mall1樓S65號舖",
        "district": "屯門",
        "areas": "新界區",
        "desc": "原文網址: https://lihkg.com/thread/1381657/page/1\n有人發夢話 : 老闆職員大叫警察打得好",
        "image": "https://na.cx/i/uvSwHez.png",
        "brand": "舢板燒 ",
        "lat": 22.398525,
        "lon": 113.975365
    },
    {
        "id": 158,
        "name": "太和街市美食工房",
        "address": "大埔 太和路12號太和廣場地下",
        "district": "大埔",
        "areas": "新界區",
        "desc": "原文網址: https://lihkg.com/thread/1377123/page/1\n有人發夢話 : 啱啱夜晚落去太和街市食野，\n聽到隔離美X工房房老闆發表偉大言論，\n「要打死曬八大啲學生」、「全部拉去打靶」",
        "image": "https://na.cx/i/uvSwHez.png",
        "brand": "太和街市美食工房",
        "lat": 22.451244,
        "lon": 114.161488
    },
    {
        "id": 159,
        "name": "家家樂風味茶餐廳",
        "address": "葵涌石籬村石籬商場2期3樓",
        "district": "葵涌",
        "areas": "新界區",
        "desc": "原文網址: https://lihkg.com/thread/1396455/page/1\n有人發夢話 : 老闆娘話示威者係暴徒",
        "image": "https://na.cx/i/uvSwHez.png",
        "brand": "家家樂風味茶餐廳",
        "lat": 22.365558,
        "lon": 114.138964
    },
    {
        "id": 160,
        "name": "東海堂 - 天水圍站",
        "address": "港鐵站TIS45 號 舖",
        "district": "天水圍",
        "areas": "新界區",
        "desc": "原文網址: https://lihkg.com/thread/1412659/page/1\n有人發夢話 : 女sales企門口見到著全黑就話「好驚啊」\n然後走返入去企",
        "image": "https://na.cx/i/uvSwHez.png",
        "brand": "東海堂",
        "lat": 22.448816,
        "lon": 114.005368
    },
    {
        "id": 191,
        "name": "家樂軒小廚",
        "address": "俊宏軒廣地地下G04号舖, 88号 Tin Shui Rd, Tin Shui Wai",
        "district": "天水圍",
        "areas": "新界區",
        "desc": "有人發夢話 : 老闆娘同d伙記支持元朗恐襲 話d市民抵撚死 廢老集中地",
        "image": "https://na.cx/i/uvSwHez.png",
        "brand": "家樂軒小廚",
        "lat": 22.468495,
        "lon": 114.000309
    },
    {
        "id": 192,
        "name": "金明華粥品店",
        "address": "天瑞路88號俊宏軒廣場地下L7, Tin Shui Wai",
        "district": "天水圍",
        "areas": "新界區",
        "desc": "有人發夢話 : 老闆娘同d伙記支持元朗恐襲 話d市民抵撚死 廢老集中地",
        "image": "https://na.cx/i/uvSwHez.png",
        "brand": "金明華粥品店",
        "lat": 22.46899,
        "lon": 114.001167
    },
    {
        "id": 197,
        "name": "新光酒樓集團",
        "address": "沙田大涌橋道52號富豪花園商場",
        "district": "沙田",
        "areas": "新界區",
        "desc": "有人發夢話 : 百樂門同新光同一老闆，李國雄，只做同鄉會生意，剝削員工福利",
        "image": "https://na.cx/i/uvSwHez.png",
        "brand": "新光酒樓集團",
        "lat": 22.3849,
        "lon": 114.198677
    },
    {
        "id": 199,
        "name": "新光酒樓集團",
        "address": "葵涌和宜合道33號雍雅軒地下(都會天峰)",
        "district": "葵涌",
        "areas": "新界區",
        "desc": "有人發夢話 : 百樂門同新光同一老闆，李國雄，只做同鄉會生意，剝削員工福利",
        "image": "https://na.cx/i/uvSwHez.png",
        "brand": "新光酒樓集團",
        "lat": 22.366381,
        "lon": 114.136628
    },
    {
        "id": 205,
        "name": "大喜屋日本料理 ",
        "address": "沙田沙田正街21-27號沙田廣場1樓33-35,44-46號舖",
        "district": "沙田",
        "areas": "新界區",
        "desc": "原文網址: https://lihkg.com/thread/1413576/page/1?post=1\n有人發夢話 : 沙田大喜屋 話8月5日有咩事 公司係唔會負責\n\n大喜屋集團旗下 吉壽 :\n有人發夢話 : 我頭喺呢間吉壽食緊飯， 樓下差佬掃旺進行中，\n 吉壽有服務員大叔不斷四圍同食客話: 最好出解放軍打死哂樓下啲示威者 \n已經無人想答佢，佢仲不停講，十分煩嫌！ \n本身個個星期去，宜家永不再去幫親。 \n\n吉壽日本料理 吉壽本格御品放題 有冇咩回應\nAdmin已inbox呢兩個page，但尚未有回復",
        "image": "https://na.cx/i/uvSwHez.png",
        "brand": "大喜屋",
        "lat": 22.383297,
        "lon": 114.189443
    },
    {
        "id": 206,
        "name": "極尚大瀛喜",
        "address": "元朗元龍街9號2樓2001A號舖形點1期",
        "district": "元朗",
        "areas": "新界區",
        "desc": "原文網址: https://lihkg.com/thread/1413576/page/1?post=1\n有人發夢話 : 沙田大喜屋 話8月5日有咩事 公司係唔會負責\n\n大喜屋集團旗下 吉壽 :\n有人發夢話 : 我頭喺呢間吉壽食緊飯， 樓下差佬掃旺進行中，\n 吉壽有服務員大叔不斷四圍同食客話: 最好出解放軍打死哂樓下啲示威者 \n已經無人想答佢，佢仲不停講，十分煩嫌！ \n本身個個星期去，宜家永不再去幫親。 \n\n吉壽日本料理 吉壽本格御品放題 有冇咩回應\nAdmin已inbox呢兩個page，但尚未有回復",
        "image": "https://na.cx/i/uvSwHez.png",
        "brand": "大喜屋",
        "lat": 22.443634,
        "lon": 114.03738
    },
    {
        "id": 216,
        "name": "蔡潤記",
        "address": "東昌街7號",
        "district": "大埔",
        "areas": "新界區",
        "desc": "有人發夢話 : \n大埔group(轉載)第一手消息\n\n啱啱同個同事食飯，佢weekend喺大埔舊蔡潤記撞到柳爺\n\n柳爺一走，個老細即刻話 : 「抵佢死啦，俾人扑穿晒個頭，抵佢死啦！」",
        "image": "https://na.cx/i/uvSwHez.png",
        "brand": "蔡潤記",
        "lat": 22.44825,
        "lon": 114.169337
    },
    {
        "id": 226,
        "name": "季季快餐店",
        "address": "屯門青河坊3號利寶商場地下90號舖",
        "district": "屯門",
        "areas": "新界區",
        "desc": "有人發夢話 : 極深藍店舖，與旁邊維修電視舖、胸圍店一起經常抹黑示威者，形容白衫打人是替天行道嫌打得不夠大力",
        "image": "https://na.cx/i/uvSwHez.png",
        "brand": "季季快餐店",
        "lat": 22.3884899,
        "lon": 113.9769526
    },
    {
        "id": 240,
        "name": "百樂門集團",
        "address": "荃灣 新界荃灣眾安街55號大鴻輝(荃灣)中心2樓",
        "district": "荃灣",
        "areas": "新界區",
        "desc": "有人發夢話 : 百樂門同新光同一老闆，李國雄，只做同鄉會生意，剝削員工福利",
        "image": "https://na.cx/i/uvSwHez.png",
        "brand": "百樂門集團",
        "lat": 22.3700652,
        "lon": 114.1167525
    },
    {
        "id": 246,
        "name": "百樂門集團",
        "address": "荃灣 荃灣青山公路659號帝盛酒店1樓",
        "district": "荃灣",
        "areas": "新界區",
        "desc": "有人發夢話 : 百樂門同新光同一老闆，李國雄，只做同鄉會生意，剝削員工福利",
        "image": "https://na.cx/i/uvSwHez.png",
        "brand": "百樂門集團",
        "lat": 22.3705932,
        "lon": 114.1295469
    },
    {
        "id": 252,
        "name": "百樂門集團",
        "address": "沙田 新界沙田沙田正街21-27號沙田廣場地下L1 33-35 & 44-46號舖",
        "district": "沙田",
        "areas": "新界區",
        "desc": "有人發夢話 : 百樂門同新光同一老闆，李國雄，只做同鄉會生意，剝削員工福利",
        "image": "https://na.cx/i/uvSwHez.png",
        "brand": "百樂門集團",
        "lat": 22.3831876,
        "lon": 114.1893997
    },
    {
        "id": 254,
        "name": "紅磡餐廳",
        "address": "大埔安慈路1號海寶花園地下",
        "district": "大埔",
        "areas": "新界區",
        "desc": "有人發夢話 : 此餐廳於8月5日大罷工仍然照常營業",
        "image": "https://na.cx/i/uvSwHez.png",
        "brand": "紅磡餐廳",
        "lat": 22.4533933,
        "lon": 114.1667183
    },
    {
        "id": 255,
        "name": "一泡而紅",
        "address": "葵涌廣場2樓c38-39A號舖",
        "district": "葵青區",
        "areas": "新界區",
        "desc": "原文網址: https://lihkg.com/thread/1404967/page/1\n有人發夢話 : 岩岩食緊野果陣 聽到d 職員地話 逃犯條例 班人冇做錯事 怕咩俾人捉 又講話 放兩粒催淚彈 又話暴力又點... 完全被CCTVB 洗腦。 本人在此 呼籲葵青友 罷食！",
        "image": "https://na.cx/i/uvSwHez.png",
        "brand": "一泡而紅",
        "lat": 22.357912,
        "lon": 114.1280366
    },
    {
        "id": 256,
        "name": "芯怡美食館",
        "address": "上水新豐路104號地下B鋪",
        "district": "上水",
        "areas": "新界區",
        "desc": "有人發夢話 : 612之後，店員指著相關新聞片段說示威者全部都不是人，是狒狒",
        "image": "https://na.cx/i/uvSwHez.png",
        "brand": "芯怡美食館",
        "lat": 22.50408,
        "lon": 114.12678
    },
    {
        "id": 257,
        "name": "醉權",
        "address": "元朗福田徑2-16號樂富大廈地下1C舖",
        "district": "元朗",
        "areas": "新界區",
        "desc": "有人發夢話 : 老板娘元朗打人果日新聞岀曬仲屌話黑衣人搞事",
        "image": "https://na.cx/i/uvSwHez.png",
        "brand": "醉權",
        "lat": 22.446675,
        "lon": 114.021714
    },
    {
        "id": 264,
        "name": "丸和食堂",
        "address": "丸和食堂 (上水) 上水馬會道170號地舖",
        "district": "上水",
        "areas": "新界區",
        "desc": "有人發夢話 : 聽到侍應大聲話示威者搞亂香港",
        "image": "https://na.cx/i/uvSwHez.png",
        "brand": "丸和食堂",
        "lat": 22.504376,
        "lon": 114.130128
    },
    {
        "id": 265,
        "name": "叁嵐",
        "address": "屯門屯門鄉事會路112-140號雅都商場Go Go Mall1樓S66號舖",
        "district": "屯門",
        "areas": "新界區",
        "desc": "有人發夢話 : 餐廳三個老闆當中有一個老闆係深藍, 完全支持送中條例",
        "image": "https://na.cx/i/uvSwHez.png",
        "brand": "叁嵐",
        "lat": 22.3984801,
        "lon": 113.9753759
    },
    {
        "id": 270,
        "name": "吉野家",
        "address": "Life@KCC 401號舖, 72-76 Kwai Cheong Road, Kwai Chung",
        "district": "葵涌",
        "areas": "新界區",
        "desc": "有人發夢話 : 「反送中」運動遍地開花，市民自發在各區設置連儂牆。近百名配備防暴裝備的持盾警員，日前凌晨前往大埔連儂牆撕走涉警資料便條紙，連鎖餐廳吉野家事後在臉書專頁發表宣傳產品的貼文，當中「唔准叫我獅子狗」的字眼被指辱警。中聯辦主導的《文匯報》及《大公報》報道，吉野家已跟外判廣告公司解約，負責廣告事務的公司員工已亦被解聘。職工盟今午到油麻地吉野家僑江大廈分店抗議，批評解僱工做法屬政治打壓，並呼籲市民「向染紅獅子狗說不！」\n\n報道引述吉野家母公司香港合興集團有限公司總裁、全國政協委員洪明基稱，他最近參加了撐警大會，全力支持特區政府依法施政，對事先不知情感到極為憤怒，亦對事件感到非常痛心。目前涉事廣告已刪除，外判廣告公司遭解約，而負責廣告事務的公司員工亦被解僱。",
        "image": "https://na.cx/i/uvSwHez.png",
        "brand": "吉野家",
        "lat": 22.3624422,
        "lon": 114.1322643
    },
    {
        "id": 274,
        "name": "吉野家",
        "address": "粉嶺名都商場二樓20至21號鋪",
        "district": "粉嶺",
        "areas": "新界區",
        "desc": "有人發夢話 : 「反送中」運動遍地開花，市民自發在各區設置連儂牆。近百名配備防暴裝備的持盾警員，日前凌晨前往大埔連儂牆撕走涉警資料便條紙，連鎖餐廳吉野家事後在臉書專頁發表宣傳產品的貼文，當中「唔准叫我獅子狗」的字眼被指辱警。中聯辦主導的《文匯報》及《大公報》報道，吉野家已跟外判廣告公司解約，負責廣告事務的公司員工已亦被解聘。職工盟今午到油麻地吉野家僑江大廈分店抗議，批評解僱工做法屬政治打壓，並呼籲市民「向染紅獅子狗說不！」\n\n報道引述吉野家母公司香港合興集團有限公司總裁、全國政協委員洪明基稱，他最近參加了撐警大會，全力支持特區政府依法施政，對事先不知情感到極為憤怒，亦對事件感到非常痛心。目前涉事廣告已刪除，外判廣告公司遭解約，而負責廣告事務的公司員工亦被解僱。",
        "image": "https://na.cx/i/uvSwHez.png",
        "brand": "吉野家",
        "lat": 22.4922565,
        "lon": 114.1397086
    },
    {
        "id": 275,
        "name": "吉野家",
        "address": "大圍道1號,金禧花園",
        "district": "大圍",
        "areas": "新界區",
        "desc": "有人發夢話 : 「反送中」運動遍地開花，市民自發在各區設置連儂牆。近百名配備防暴裝備的持盾警員，日前凌晨前往大埔連儂牆撕走涉警資料便條紙，連鎖餐廳吉野家事後在臉書專頁發表宣傳產品的貼文，當中「唔准叫我獅子狗」的字眼被指辱警。中聯辦主導的《文匯報》及《大公報》報道，吉野家已跟外判廣告公司解約，負責廣告事務的公司員工已亦被解聘。職工盟今午到油麻地吉野家僑江大廈分店抗議，批評解僱工做法屬政治打壓，並呼籲市民「向染紅獅子狗說不！」\n\n報道引述吉野家母公司香港合興集團有限公司總裁、全國政協委員洪明基稱，他最近參加了撐警大會，全力支持特區政府依法施政，對事先不知情感到極為憤怒，亦對事件感到非常痛心。目前涉事廣告已刪除，外判廣告公司遭解約，而負責廣告事務的公司員工亦被解僱。",
        "image": "https://na.cx/i/uvSwHez.png",
        "brand": "吉野家",
        "lat": 22.3745431,
        "lon": 114.1776212
    },
    {
        "id": 276,
        "name": "吉野家",
        "address": "荃灣青山公路荃灣段210號地下 A1,C,E,F&G號舖 富華中心",
        "district": "荃灣",
        "areas": "新界區",
        "desc": "有人發夢話 : 「反送中」運動遍地開花，市民自發在各區設置連儂牆。近百名配備防暴裝備的持盾警員，日前凌晨前往大埔連儂牆撕走涉警資料便條紙，連鎖餐廳吉野家事後在臉書專頁發表宣傳產品的貼文，當中「唔准叫我獅子狗」的字眼被指辱警。中聯辦主導的《文匯報》及《大公報》報道，吉野家已跟外判廣告公司解約，負責廣告事務的公司員工已亦被解聘。職工盟今午到油麻地吉野家僑江大廈分店抗議，批評解僱工做法屬政治打壓，並呼籲市民「向染紅獅子狗說不！」\n\n報道引述吉野家母公司香港合興集團有限公司總裁、全國政協委員洪明基稱，他最近參加了撐警大會，全力支持特區政府依法施政，對事先不知情感到極為憤怒，亦對事件感到非常痛心。目前涉事廣告已刪除，外判廣告公司遭解約，而負責廣告事務的公司員工亦被解僱。",
        "image": "https://na.cx/i/uvSwHez.png",
        "brand": "吉野家",
        "lat": 22.3730366,
        "lon": 114.11839
    },
    {
        "id": 280,
        "name": "吉野家",
        "address": "愉景新城",
        "district": "荃灣",
        "areas": "新界區",
        "desc": "有人發夢話 : 「反送中」運動遍地開花，市民自發在各區設置連儂牆。近百名配備防暴裝備的持盾警員，日前凌晨前往大埔連儂牆撕走涉警資料便條紙，連鎖餐廳吉野家事後在臉書專頁發表宣傳產品的貼文，當中「唔准叫我獅子狗」的字眼被指辱警。中聯辦主導的《文匯報》及《大公報》報道，吉野家已跟外判廣告公司解約，負責廣告事務的公司員工已亦被解聘。職工盟今午到油麻地吉野家僑江大廈分店抗議，批評解僱工做法屬政治打壓，並呼籲市民「向染紅獅子狗說不！」\n\n報道引述吉野家母公司香港合興集團有限公司總裁、全國政協委員洪明基稱，他最近參加了撐警大會，全力支持特區政府依法施政，對事先不知情感到極為憤怒，亦對事件感到非常痛心。目前涉事廣告已刪除，外判廣告公司遭解約，而負責廣告事務的公司員工亦被解僱。",
        "image": "https://na.cx/i/uvSwHez.png",
        "brand": "吉野家",
        "lat": 22.3763797,
        "lon": 114.1116067
    },
    {
        "id": 281,
        "name": "Itamama",
        "address": "Itamama 將軍澳重華路8號東港城1樓188號舖",
        "district": "將軍澳",
        "areas": "新界區",
        "desc": "有人發夢話 : 員工係人都知tatse of Asia老細係極藍",
        "image": "https://na.cx/i/uvSwHez.png",
        "brand": "Itamama",
        "lat": 22.316178,
        "lon": 114.2660647
    },
    {
        "id": 289,
        "name": "樂天漁港",
        "address": "大埔榮暉花園101鋪",
        "district": "大埔",
        "areas": "新界區",
        "desc": "有人發夢話 : 老細係極深藍背景",
        "image": "https://na.cx/i/uvSwHez.png",
        "brand": "樂天漁港",
        "lat": 22.4533208,
        "lon": 114.1651465
    },
    {
        "id": 292,
        "name": "廉記冰室",
        "address": "大埔寶湖道28號廣福商場平台P101-P101A號舖",
        "district": "大埔",
        "areas": "新界區",
        "desc": "原文網址: https://www.facebook.com/258224170919874/posts/2408307662578170?sfns=mo\n\n有人發夢話 : 10 Aug 探緊黃碧嬌，呢間野話唔歡迎黑衣人，仲搵幾個人守門口\n瑞士咖啡室分店，其下其他品牌，如廉記冰室、越南咖啡室等\nhttp://www.hkthebox.com/web/news-detail/54?fbclid=IwAR38z6YfLBZcP44gvGeUaTh1vPVnpeujoWMAuuAKQnU1PqgXb8NZxV_j3No",
        "image": "https://na.cx/i/uvSwHez.png",
        "brand": "廉記冰室",
        "lat": 22.4490476,
        "lon": 114.1746419
    },
    {
        "id": 294,
        "name": "華嫂冰室",
        "address": "華嫂冰室 (元朗) 元朗屏山坑頭村",
        "district": "元朗",
        "areas": "新界區",
        "desc": "原文網址:  https://lihkg.com/thread/1420739/page/1\n余文樂 為華嫂冰室嘅大股東",
        "image": "https://na.cx/i/uvSwHez.png",
        "brand": "華嫂冰室",
        "lat": 22.44544,
        "lon": 114.0076535
    },
    {
        "id": 297,
        "name": "大茶飯",
        "address": "將軍澳中心1樓137B",
        "district": "將軍澳",
        "areas": "新界區",
        "desc": "有人發夢話 : 深藍，支持黑警\n發夢自己遊行去左將軍澳，老闆成家恥笑成堆黑衣人去食\n好驚加料",
        "image": "https://na.cx/i/uvSwHez.png",
        "brand": "大茶飯",
        "lat": 22.3067844,
        "lon": 114.25681
    },
    {
        "id": 301,
        "name": "牛八和牛燒肉屋",
        "address": "沙田置富第一城1樓132號舖",
        "district": "沙田",
        "areas": "新界區",
        "desc": "唔講佢地店員服務差、又貴又唔好食，單係佢係坑口日牛事件同集團既食肆已經可以唔洗再幫襯啦！\n\n原文網址:   https://lihkg.com/thread/1338758/page/1\n\nJuly 23\n有人發夢話 : 連登討論區網民「雞蛋撞高牆」昨以「有餐廳拒絕遊行人士入內進餐！！！」為題發文，稱昨日與兩名友人出席遊行後返回將軍澳打算打邊爐，一行三人到東港城的日牛涮涮鍋專門店（日牛，下同）取籌等位，期間談及遊行的詳情。樓主稱，餐廳門口的女職員聽到他與朋友的對話突然黑面，「之後入咗去同另一個男店員講，一路講一路望過嚟，我哋就覺得瀨嘢啦，不過下個就到我哋所以繼續等」。\n\n結果樓主一等就是45分鐘，他稱之後見到「有張四人枱空咗出嚟」，但男職員「即刻攞塊板將張枱隔開兩邊，變做兩張兩人枱，然後畀人入去」。樓主上前與女職員理論，對方僅稱「兩人枱多人排要畀人入先」。\n\n樓主稱，其後再有4人家庭「插隊」入座，女職員回答稱「佢哋嚟先喎，同埋呢，𠵱家我哋鋪頭都就閂門你哋可以唔使再等啦」，樓主大感不滿直接質問 : 「你玩嘢？我哋number前過佢哋。」對方卻稱 : 「冇，你可以食其他餐廳㗎，咁得閒周圍遊行。」\"",
        "image": "https://na.cx/i/uvSwHez.png",
        "brand": "和心",
        "lat": 22.38524,
        "lon": 114.204538
    },
    {
        "id": 306,
        "name": "甜CC 甜品店",
        "address": "粉嶺聯和墟聯和道75A地下",
        "district": "粉嶺",
        "areas": "新界區",
        "desc": "有人發夢話 : 老闆之一 jade lam 係極深藍人士，去佢fb 會睇到佢係咁鬧義士做曱甴，會分享大量仇恨分化真香港人的信息\n\n原文網址:  https://www.facebook.com/jadelam2222",
        "image": "https://na.cx/i/uvSwHez.png",
        "brand": "甜CC 甜品店",
        "lat": 22.499172,
        "lon": 114.1440167
    },
    {
        "id": 307,
        "name": "麥稻田麵包西餅",
        "address": "粉嶺華明路22號雍盛商場地下17號舖",
        "district": "粉嶺",
        "areas": "新界區",
        "desc": "有人發夢話 : 發夢聽住賣麵包果幾位姐仔支持689出錢捉拆國旗既人, 重話班人收錢去遊行實會出賣自己友好快會捉到人",
        "image": "https://na.cx/i/uvSwHez.png",
        "brand": "麥稻田麵包西餅",
        "lat": 22.4828358,
        "lon": 114.1389577
    },
    {
        "id": 310,
        "name": "紅蜻蜓",
        "address": "青衣楓樹窩路1號翠怡商場地下6號舖",
        "district": "青衣",
        "areas": "新界區",
        "desc": "有人發夢話 : 在該店吃飯時，店東大聲與他的朋友分享，他在占中時拉大隊到旺角毆打占中人士，非常興奮。",
        "image": "https://na.cx/i/uvSwHez.png",
        "brand": "紅蜻蜓",
        "lat": 22.3531968,
        "lon": 114.1092879
    },
    {
        "id": 316,
        "name": "磯落亭",
        "address": "大埔儲金閣12-14號地下",
        "district": "大埔",
        "areas": "新界區",
        "desc": "原文網址:  https://lihkg.com/thread/1340835/page/20\n有人發夢話 : 元朗黑社會打人 陳根記老細 : 打得好",
        "image": "https://na.cx/i/uvSwHez.png",
        "brand": "磯落亭",
        "lat": 22.4471945,
        "lon": 114.1679471
    },
    {
        "id": 322,
        "name": "薄荷葉泰國菜",
        "address": "元朗安康路怡康大廈地下12-13號鋪",
        "district": "元朗",
        "areas": "新界區",
        "desc": "有人發夢話 : 老闆係鄉黑，係嗰到翻過兼職，每次遊行示威都俾說話我聽，話我搞搞陣，知我有份去發夢之後對我勁差",
        "image": "https://na.cx/i/uvSwHez.png",
        "brand": "薄荷葉泰國菜",
        "lat": 22.4419377,
        "lon": 114.0235081
    },
    {
        "id": 324,
        "name": "吉野家",
        "address": "天水圍天湖路2號天耀廣場",
        "district": "天水圍",
        "areas": "新界區",
        "desc": "有人發夢話 : 「反送中」運動遍地開花，市民自發在各區設置連儂牆。近百名配備防暴裝備的持盾警員，日前凌晨前往大埔連儂牆撕走涉警資料便條紙，連鎖餐廳吉野家事後在臉書專頁發表宣傳產品的貼文，當中「唔准叫我獅子狗」的字眼被指辱警。中聯辦主導的《文匯報》及《大公報》報道，吉野家已跟外判廣告公司解約，負責廣告事務的公司員工已亦被解聘。職工盟今午到油麻地吉野家僑江大廈分店抗議，批評解僱工做法屬政治打壓，並呼籲市民「向染紅獅子狗說不！」\n\n報道引述吉野家母公司香港合興集團有限公司總裁、全國政協委員洪明基稱，他最近參加了撐警大會，全力支持特區政府依法施政，對事先不知情感到極為憤怒，亦對事件感到非常痛心。目前涉事廣告已刪除，外判廣告公司遭解約，而負責廣告事務的公司員工亦被解僱。",
        "image": "https://na.cx/i/uvSwHez.png",
        "brand": "吉野家",
        "lat": 22.451112,
        "lon": 114.003021
    },
    {
        "id": 325,
        "name": "東海堂",
        "address": "新界元朗天水圍嘉湖銀座二期地下G56店",
        "district": "天水圍",
        "areas": "新界區",
        "desc": "原文網址:  https://www.google.com/amp/s/amp.lihkg.com/thread/1244013/page/1\n有人發夢話 : 東海堂職員蛋糕唔肯寫「唔好搞我後面」",
        "image": "https://na.cx/i/uvSwHez.png",
        "brand": "東海堂",
        "lat": 22.4569712,
        "lon": 114.0051729
    },
    {
        "id": 327,
        "name": "特適茶餐廳",
        "address": "上水符興街",
        "district": "上水",
        "areas": "新界區",
        "desc": "有人發夢話 : 光復上水前一曰，肥婆老闆娘吊9細路搞搞震，搞亂上水阻佢做生意，仲話大家好暴力，明言聽日（光復上水）會有人打爆晒佢的玻璃",
        "image": "https://na.cx/i/uvSwHez.png",
        "brand": "特適茶餐廳",
        "lat": 22.503981,
        "lon": 114.127934
    },
    {
        "id": 330,
        "name": "泰皇悅",
        "address": "上水馬會道",
        "district": "上水",
        "areas": "新界區",
        "desc": "有人發夢話 : 幾個店員經常圍埋鬧黃絲搞亂香港，暴力，又話影響大家消費，搞到佢無生意，佢地唔係一次半次，近2次幫襯都聽到佢地係咁討論。實際其實係野食差左先少人幫襯，自己唔掂就去賴人正仆街\n利伸 本身勁鍾意食佢",
        "image": "https://na.cx/i/uvSwHez.png",
        "brand": "泰皇悅",
        "lat": 22.49942,
        "lon": 114.135485
    },
    {
        "id": 339,
        "name": "Glasshouse",
        "address": "元朗元龍街9號形點一期1樓1028-1029號舖",
        "district": "元朗",
        "areas": "新界區",
        "desc": "原文網址: https://lihkg.com/thread/1406273/page/1\n有人發夢話 :  唔比員工8月5請假罷工!!!",
        "image": "https://na.cx/i/uvSwHez.png",
        "brand": "Gaia Group",
        "lat": 22.4449601,
        "lon": 114.037553
    },
    {
        "id": 351,
        "name": "Greyhound Café",
        "address": "沙田沙田正街18號新城市廣場一期1樓103A舖",
        "district": "沙田",
        "areas": "新界區",
        "desc": "原文網址: https://lihkg.com/thread/1406273/page/1\n有人發夢話 :  唔比員工8月5請假罷工!!!",
        "image": "https://na.cx/i/uvSwHez.png",
        "brand": "Gaia Group",
        "lat": 22.3816318,
        "lon": 114.1887637
    },
    {
        "id": 357,
        "name": "Greyhound Café",
        "address": "將軍澳唐賢街9號PopCorn商場地下G05及G06號舖",
        "district": "將軍澳",
        "areas": "新界區",
        "desc": "原文網址: https://lihkg.com/thread/1406273/page/1\n有人發夢話 :  唔比員工8月5請假罷工!!!",
        "image": "https://na.cx/i/uvSwHez.png",
        "brand": "Gaia Group",
        "lat": 22.3079103,
        "lon": 114.2597248
    },
    {
        "id": 361,
        "name": "金寶餐廳菜館",
        "address": "青衣青裕新村5號",
        "district": "青衣",
        "areas": "新界區",
        "desc": "原文網址: https://m.facebook.com/story.php?story_fbid=10157595099797577&id=有人發夢話 :  剛才睇立場live睇到我和阿媽好唔開心，諗住過對面金寶宵夜，點知我們在食嘢期間，嗰個老闆娘一路睇住TVB直播，一路屌啲學生讀屎片，又話啲人收咗錢，仲叫個食客出去旺角比差佬打可以收到$5000，仲話啲示威者阻住人做生意，明明啲示威者比差佬圍鳩住！",
        "image": "https://na.cx/i/uvSwHez.png",
        "brand": "金寶餐廳菜館",
        "lat": 22.3556359,
        "lon": 114.1018042
    },
    {
        "id": 362,
        "name": "美滿餐廳",
        "address": "粉嶺和泰街33號",
        "district": "粉嶺",
        "areas": "新界區",
        "desc": "原文網址: https://www.facebook.com/photo.php?fbid=10161720937990567&set=gm.10158468836302738&type=3&theater&ifg=1\n\n有人發夢話 :  岩岩去食下午茶\n收銀個阿伯同一班阿叔響度討論琴日反送中遊行\n一開波就話班人收錢出去行呀，又話外國勢力，又話後生唔感恩阿爺，阿爺閂水喉香港食屎啦，年輕人搞屎棍乜乜乜乜\n不停話去到外國有乜事都係阿爺救你地，又話有乜事你地咪又係報警，所以唔應該話警察喎，係示威者搞事先",
        "image": "https://na.cx/i/uvSwHez.png",
        "brand": "美滿餐廳",
        "lat": 22.4994705,
        "lon": 114.1419525
    },
    {
        "id": 366,
        "name": "The Grove",
        "address": "沙田石門安群街3號京瑞廣場一期1樓152號舖",
        "district": "石門",
        "areas": "新界區",
        "desc": "原文網址:  https://lih.kg/1281230",
        "image": "https://na.cx/i/uvSwHez.png",
        "brand": "The Grove",
        "lat": 22.3882479,
        "lon": 114.2083516
    },
    {
        "id": 367,
        "name": "The Grove",
        "address": "大圍田心邨269號地下",
        "district": "沙田",
        "areas": "新界區",
        "desc": "原文網址:  https://lih.kg/1281230",
        "image": "https://na.cx/i/uvSwHez.png",
        "brand": "The Grove",
        "lat": 22.3688442,
        "lon": 114.177815
    },
    {
        "id": 371,
        "name": "豐盛苑粥麵餐廳小廚",
        "address": " 葵涌石籬邨石籬商場2期3樓322號舖",
        "district": "葵青",
        "areas": "新界區",
        "desc": "原文網址: https://lihkg.com/thread/1396455/page/1\n有人發夢話 : 老闆娘話示威者係暴徒\n係同同商場家家樂茶餐廳同一老闆",
        "image": "https://na.cx/i/uvSwHez.png",
        "brand": "豐盛苑粥麵餐廳小廚",
        "lat": 22.3655683,
        "lon": 114.1389353
    },
    {
        "id": 377,
        "name": "吉野家",
        "address": "將軍澳唐德街1號將軍澳廣場2樓2070-2072號舖",
        "district": "將軍澳",
        "areas": "新界區",
        "desc": "有人發夢話 : 「反送中」運動遍地開花，市民自發在各區設置連儂牆。近百名配備防暴裝備的持盾警員，日前凌晨前往大埔連儂牆撕走涉警資料便條紙，連鎖餐廳吉野家事後在臉書專頁發表宣傳產品的貼文，當中「唔准叫我獅子狗」的字眼被指辱警。中聯辦主導的《文匯報》及《大公報》報道，吉野家已跟外判廣告公司解約，負責廣告事務的公司員工已亦被解聘。職工盟今午到油麻地吉野家僑江大廈分店抗議，批評解僱工做法屬政治打壓，並呼籲市民「向染紅獅子狗說不！」\n\n報道引述吉野家母公司香港合興集團有限公司總裁、全國政協委員洪明基稱，他最近參加了撐警大會，全力支持特區政府依法施政，對事先不知情感到極為憤怒，亦對事件感到非常痛心。目前涉事廣告已刪除，外判廣告公司遭解約，而負責廣告事務的公司員工亦被解僱。",
        "image": "https://na.cx/i/uvSwHez.png",
        "brand": "吉野家",
        "lat": 22.3085319,
        "lon": 114.2624899
    },
    {
        "id": 378,
        "name": "吉野家",
        "address": "將軍澳常寧路2號TKO Gateway西翼1樓W104號舖",
        "district": "將軍澳",
        "areas": "新界區",
        "desc": "有人發夢話 : 「反送中」運動遍地開花，市民自發在各區設置連儂牆。近百名配備防暴裝備的持盾警員，日前凌晨前往大埔連儂牆撕走涉警資料便條紙，連鎖餐廳吉野家事後在臉書專頁發表宣傳產品的貼文，當中「唔准叫我獅子狗」的字眼被指辱警。中聯辦主導的《文匯報》及《大公報》報道，吉野家已跟外判廣告公司解約，負責廣告事務的公司員工已亦被解聘。職工盟今午到油麻地吉野家僑江大廈分店抗議，批評解僱工做法屬政治打壓，並呼籲市民「向染紅獅子狗說不！」\n\n報道引述吉野家母公司香港合興集團有限公司總裁、全國政協委員洪明基稱，他最近參加了撐警大會，全力支持特區政府依法施政，對事先不知情感到極為憤怒，亦對事件感到非常痛心。目前涉事廣告已刪除，外判廣告公司遭解約，而負責廣告事務的公司員工亦被解僱。",
        "image": "https://na.cx/i/uvSwHez.png",
        "brand": "吉野家",
        "lat": 22.3171998,
        "lon": 114.2659481
    },
    {
        "id": 380,
        "name": "老虎堂",
        "address": "大圍村南道15-35號地下26A號舖",
        "district": "大圍",
        "areas": "新界區",
        "desc": "原文網址: https://lihkg.com/thread/1215175/page/1\n\nJune 13\n有人發夢話 : 無預先請假佢哋係唔啱，但係佢哋都係想守護佢哋嘅城市。\n淨係顧住自己鋪頭生意就係度屌班後生。",
        "image": "https://na.cx/i/uvSwHez.png",
        "brand": "老虎堂",
        "lat": 22.373495,
        "lon": 114.177955
    },
    {
        "id": 386,
        "name": "瑞士咖啡室",
        "address": "葵涌葵昌路9-15號貴豐工業大廈地下",
        "district": "葵涌",
        "areas": "新界區",
        "desc": "原文網址: https://www.facebook.com/258224170919874/posts/2408307662578170?sfns=mo\n\n有人發夢話 : 10 Aug 探緊黃碧嬌，呢間野話唔歡迎黑衣人，仲搵幾個人守門口\n瑞士咖啡室分店，其下其他品牌，如廉記冰室、越南咖啡室等\nhttp://www.hkthebox.com/web/news-detail/54?fbclid=IwAR38z6YfLBZcP44gvGeUaTh1vPVnpeujoWMAuuAKQnU1PqgXb8NZxV_j3No",
        "image": "https://na.cx/i/uvSwHez.png",
        "brand": "瑞士咖啡室",
        "lat": 22.3647983,
        "lon": 114.1336239
    },
    {
        "id": 387,
        "name": "瑞士咖啡室",
        "address": "將軍澳坑口明德邨明德商場地下14B鋪",
        "district": "將軍澳",
        "areas": "新界區",
        "desc": "原文網址: https://www.facebook.com/258224170919874/posts/2408307662578170?sfns=mo\n\n有人發夢話 : 10 Aug 探緊黃碧嬌，呢間野話唔歡迎黑衣人，仲搵幾個人守門口\n瑞士咖啡室分店，其下其他品牌，如廉記冰室、越南咖啡室等\nhttp://www.hkthebox.com/web/news-detail/54?fbclid=IwAR38z6YfLBZcP44gvGeUaTh1vPVnpeujoWMAuuAKQnU1PqgXb8NZxV_j3No",
        "image": "https://na.cx/i/uvSwHez.png",
        "brand": "瑞士咖啡室",
        "lat": 22.316604,
        "lon": 114.268751
    },
    {
        "id": 388,
        "name": "瑞士咖啡室",
        "address": "葵涌和宜合道26-30號和宜商場地下B&C鋪",
        "district": "葵涌",
        "areas": "新界區",
        "desc": "原文網址: https://www.facebook.com/258224170919874/posts/2408307662578170?sfns=mo\n\n有人發夢話 : 10 Aug 探緊黃碧嬌，呢間野話唔歡迎黑衣人，仲搵幾個人守門口\n瑞士咖啡室分店，其下其他品牌，如廉記冰室、越南咖啡室等\nhttp://www.hkthebox.com/web/news-detail/54?fbclid=IwAR38z6YfLBZcP44gvGeUaTh1vPVnpeujoWMAuuAKQnU1PqgXb8NZxV_j3No",
        "image": "https://na.cx/i/uvSwHez.png",
        "brand": "瑞士咖啡室",
        "lat": 22.3658377,
        "lon": 114.1373082
    },
    {
        "id": 403,
        "name": "名門讌客",
        "address": "錦田錦田公路455號",
        "district": "元朗",
        "areas": "新界區",
        "desc": "原文網址:  https://hk.news.appledaily.com/breaking/realtime/article/20190727/59870241\n有人發夢話 : 《蘋果》揭發，在酒樓內誓師的過百蒙面白衣人，原來以元朗錦田的名門讌客作基地！記者晚上8時許抵達酒樓，發現大批白衣人正正坐在酒樓門口臨時搭建的帳篷內，當中有人手持白色頭盔、戴上口罩，記者再深入酒樓內，發現另一批白衣人正聚集在一個私人包廂內，延開多圍。記者表示想進內食飯，但職員指今日維修冷氣，不招待客人，但記者發現，酒樓內冷氣充足，並無壞冷氣的迹象，且在大廳坐滿食客，懷疑因有白衣人包下包廂不招待生面口的客人。記者離開後，立即有數名白衣人尾隨追蹤，邊行邊用手機拍攝，更大聲「兇」記者 : 「入嚟做乜X嘢呀！」",
        "image": "https://na.cx/i/uvSwHez.png",
        "brand": "名門讌客",
        "lat": 22.4396211,
        "lon": 114.0676251
    },
    {
        "id": 407,
        "name": "潮明園粉麵餐廳小廚",
        "address": "上水新發街44號",
        "district": "上水",
        "areas": "新界區",
        "desc": "原文網址:  https://www.facebook.com/groups/HK.North/permalink/1509686732505179?sfns=mo\n\n有人發夢話 : 啱啱同老公入錯深藍食肆食宵夜，收銀嗰位女士（應該係老闆娘）自己睇片睇到好勞氣⋯\n不停話 : 「啲學生收咗錢，喺警署門外不停叫囂，佛都有火呀，轉頭話啲警察掉催淚彈，真係睇到好火滾⋯",
        "image": "https://na.cx/i/uvSwHez.png",
        "brand": "潮明園粉麵餐廳小廚",
        "lat": 22.503201,
        "lon": 114.127087
    },
    {
        "id": 418,
        "name": "富臨皇宮",
        "address": "元朗鳳琴街 22號金龍樓地下",
        "district": "元朗",
        "areas": "新界區",
        "desc": "原文網址:  https://hk.finance.appledaily.com/finance/realtime/article/20190812/59922630\n北角富臨聚集福建幫 網民籲罷食 富臨 : 白衣人酒樓內冇違法 | \n昨日8.11，北角有穿紅衫的福建幫人士於英皇道富臨皇宮酒家門外聚集，門外更有發生打鬥，有黑衣途人被圍毆。事件引起網民憤怒，呼籲罷食富臨旗下餐廳。\n\n原文網址:  https://hk.news.appledaily.com/breaking/realtime/article/20190811/59920790\n北角一間酒樓變成福建幫指揮中心，部份人換上紅衫後疑進行誓師大會。\n\n原文網址:  https://lihkg.com/thread/1443304/page/1\n數已百計福建人同黑社會集結係北角錦屏街富臨皇宮酒樓",
        "image": "https://na.cx/i/uvSwHez.png",
        "brand": "富臨",
        "lat": 22.443326,
        "lon": 114.0336694
    },
    {
        "id": 419,
        "name": "富臨皇宮",
        "address": "上水天平邨購物中心201號舖",
        "district": "上水",
        "areas": "新界區",
        "desc": "原文網址:  https://hk.finance.appledaily.com/finance/realtime/article/20190812/59922630\n北角富臨聚集福建幫 網民籲罷食 富臨 : 白衣人酒樓內冇違法 | \n昨日8.11，北角有穿紅衫的福建幫人士於英皇道富臨皇宮酒家門外聚集，門外更有發生打鬥，有黑衣途人被圍毆。事件引起網民憤怒，呼籲罷食富臨旗下餐廳。\n\n原文網址:  https://hk.news.appledaily.com/breaking/realtime/article/20190811/59920790\n北角一間酒樓變成福建幫指揮中心，部份人換上紅衫後疑進行誓師大會。\n\n原文網址:  https://lihkg.com/thread/1443304/page/1\n數已百計福建人同黑社會集結係北角錦屏街富臨皇宮酒樓",
        "image": "https://na.cx/i/uvSwHez.png",
        "brand": "富臨",
        "lat": 22.5035547,
        "lon": 114.1338063
    },
    {
        "id": 420,
        "name": "富臨皇宮",
        "address": "天水圍天盛苑天盛商場1樓L116號舖",
        "district": "天水圍",
        "areas": "新界區",
        "desc": "原文網址:  https://hk.finance.appledaily.com/finance/realtime/article/20190812/59922630\n北角富臨聚集福建幫 網民籲罷食 富臨 : 白衣人酒樓內冇違法 | \n昨日8.11，北角有穿紅衫的福建幫人士於英皇道富臨皇宮酒家門外聚集，門外更有發生打鬥，有黑衣途人被圍毆。事件引起網民憤怒，呼籲罷食富臨旗下餐廳。\n\n原文網址:  https://hk.news.appledaily.com/breaking/realtime/article/20190811/59920790\n北角一間酒樓變成福建幫指揮中心，部份人換上紅衫後疑進行誓師大會。\n\n原文網址:  https://lihkg.com/thread/1443304/page/1\n數已百計福建人同黑社會集結係北角錦屏街富臨皇宮酒樓",
        "image": "https://na.cx/i/uvSwHez.png",
        "brand": "富臨",
        "lat": 22.4478055,
        "lon": 114.0022748
    },
    {
        "id": 421,
        "name": "富臨皇宮",
        "address": "沙田石門安群街1號京瑞廣場2期2樓201號舖",
        "district": "沙田",
        "areas": "新界區",
        "desc": "原文網址:  https://hk.finance.appledaily.com/finance/realtime/article/20190812/59922630\n北角富臨聚集福建幫 網民籲罷食 富臨 : 白衣人酒樓內冇違法 | \n昨日8.11，北角有穿紅衫的福建幫人士於英皇道富臨皇宮酒家門外聚集，門外更有發生打鬥，有黑衣途人被圍毆。事件引起網民憤怒，呼籲罷食富臨旗下餐廳。\n\n原文網址:  https://hk.news.appledaily.com/breaking/realtime/article/20190811/59920790\n北角一間酒樓變成福建幫指揮中心，部份人換上紅衫後疑進行誓師大會。\n\n原文網址:  https://lihkg.com/thread/1443304/page/1\n數已百計福建人同黑社會集結係北角錦屏街富臨皇宮酒樓",
        "image": "https://na.cx/i/uvSwHez.png",
        "brand": "富臨",
        "lat": 22.3887693,
        "lon": 114.2087244
    },
    {
        "id": 423,
        "name": "富臨皇宮",
        "address": "青衣牙鷹洲街8號灝景灣商場4樓",
        "district": "青衣",
        "areas": "新界區",
        "desc": "原文網址:  https://hk.finance.appledaily.com/finance/realtime/article/20190812/59922630\n北角富臨聚集福建幫 網民籲罷食 富臨 : 白衣人酒樓內冇違法 | \n昨日8.11，北角有穿紅衫的福建幫人士於英皇道富臨皇宮酒家門外聚集，門外更有發生打鬥，有黑衣途人被圍毆。事件引起網民憤怒，呼籲罷食富臨旗下餐廳。\n\n原文網址:  https://hk.news.appledaily.com/breaking/realtime/article/20190811/59920790\n北角一間酒樓變成福建幫指揮中心，部份人換上紅衫後疑進行誓師大會。\n\n原文網址:  https://lihkg.com/thread/1443304/page/1\n數已百計福建人同黑社會集結係北角錦屏街富臨皇宮酒樓",
        "image": "https://na.cx/i/uvSwHez.png",
        "brand": "富臨",
        "lat": 22.3616494,
        "lon": 114.1053339
    },
    {
        "id": 433,
        "name": "陶源酒家(鮑魚專門店)",
        "address": "荃灣沙咀道6號嘉達環球中心地舖",
        "district": "荃灣",
        "areas": "新界區",
        "desc": "原文網址:  https://hk.finance.appledaily.com/finance/realtime/article/20190812/59922630\n北角富臨聚集福建幫 網民籲罷食 富臨 : 白衣人酒樓內冇違法 | \n昨日8.11，北角有穿紅衫的福建幫人士於英皇道富臨皇宮酒家門外聚集，門外更有發生打鬥，有黑衣途人被圍毆。事件引起網民憤怒，呼籲罷食富臨旗下餐廳。\n\n原文網址:  https://hk.news.appledaily.com/breaking/realtime/article/20190811/59920790\n北角一間酒樓變成福建幫指揮中心，部份人換上紅衫後疑進行誓師大會。\n\n原文網址:  https://lihkg.com/thread/1443304/page/1\n數已百計福建人同黑社會集結係北角錦屏街富臨皇宮酒樓",
        "image": "https://na.cx/i/uvSwHez.png",
        "brand": "富臨",
        "lat": 22.3750613,
        "lon": 114.1072403
    },
    {
        "id": 436,
        "name": "富臨酒家",
        "address": "葵涌和宜合道 26-30號地下A舖",
        "district": "葵涌",
        "areas": "新界區",
        "desc": "原文網址:  https://hk.finance.appledaily.com/finance/realtime/article/20190812/59922630\n北角富臨聚集福建幫 網民籲罷食 富臨 : 白衣人酒樓內冇違法 | \n昨日8.11，北角有穿紅衫的福建幫人士於英皇道富臨皇宮酒家門外聚集，門外更有發生打鬥，有黑衣途人被圍毆。事件引起網民憤怒，呼籲罷食富臨旗下餐廳。\n\n原文網址:  https://hk.news.appledaily.com/breaking/realtime/article/20190811/59920790\n北角一間酒樓變成福建幫指揮中心，部份人換上紅衫後疑進行誓師大會。\n\n原文網址:  https://lihkg.com/thread/1443304/page/1\n數已百計福建人同黑社會集結係北角錦屏街富臨皇宮酒樓",
        "image": "https://na.cx/i/uvSwHez.png",
        "brand": "富臨",
        "lat": 22.3658113,
        "lon": 114.1371543
    },
    {
        "id": 437,
        "name": "富臨酒家",
        "address": "屯門海榮路 22號屯門中央廣場商場地下(部份)及1樓",
        "district": "屯門",
        "areas": "新界區",
        "desc": "原文網址:  https://hk.finance.appledaily.com/finance/realtime/article/20190812/59922630\n北角富臨聚集福建幫 網民籲罷食 富臨 : 白衣人酒樓內冇違法 | \n昨日8.11，北角有穿紅衫的福建幫人士於英皇道富臨皇宮酒家門外聚集，門外更有發生打鬥，有黑衣途人被圍毆。事件引起網民憤怒，呼籲罷食富臨旗下餐廳。\n\n原文網址:  https://hk.news.appledaily.com/breaking/realtime/article/20190811/59920790\n北角一間酒樓變成福建幫指揮中心，部份人換上紅衫後疑進行誓師大會。\n\n原文網址:  https://lihkg.com/thread/1443304/page/1\n數已百計福建人同黑社會集結係北角錦屏街富臨皇宮酒樓",
        "image": "https://na.cx/i/uvSwHez.png",
        "brand": "富臨",
        "lat": 22.3812527,
        "lon": 113.9714961
    },
    {
        "id": 440,
        "name": "富臨漁港",
        "address": "沙田瀝源街 7號沙田娛樂城 4樓",
        "district": "沙田",
        "areas": "新界區",
        "desc": "原文網址:  https://hk.finance.appledaily.com/finance/realtime/article/20190812/59922630\n北角富臨聚集福建幫 網民籲罷食 富臨 : 白衣人酒樓內冇違法 | \n昨日8.11，北角有穿紅衫的福建幫人士於英皇道富臨皇宮酒家門外聚集，門外更有發生打鬥，有黑衣途人被圍毆。事件引起網民憤怒，呼籲罷食富臨旗下餐廳。\n\n原文網址:  https://hk.news.appledaily.com/breaking/realtime/article/20190811/59920790\n北角一間酒樓變成福建幫指揮中心，部份人換上紅衫後疑進行誓師大會。\n\n原文網址:  https://lihkg.com/thread/1443304/page/1\n數已百計福建人同黑社會集結係北角錦屏街富臨皇宮酒樓",
        "image": "https://na.cx/i/uvSwHez.png",
        "brand": "富臨",
        "lat": 22.3843155,
        "lon": 114.1923692
    },
    {
        "id": 441,
        "name": "富臨漁港",
        "address": "屯門建榮街24-30號建榮商業大廈地下",
        "district": "屯門",
        "areas": "新界區",
        "desc": "原文網址:  https://hk.finance.appledaily.com/finance/realtime/article/20190812/59922630\n北角富臨聚集福建幫 網民籲罷食 富臨 : 白衣人酒樓內冇違法 | \n昨日8.11，北角有穿紅衫的福建幫人士於英皇道富臨皇宮酒家門外聚集，門外更有發生打鬥，有黑衣途人被圍毆。事件引起網民憤怒，呼籲罷食富臨旗下餐廳。\n\n原文網址:  https://hk.news.appledaily.com/breaking/realtime/article/20190811/59920790\n北角一間酒樓變成福建幫指揮中心，部份人換上紅衫後疑進行誓師大會。\n\n原文網址:  https://lihkg.com/thread/1443304/page/1\n數已百計福建人同黑社會集結係北角錦屏街富臨皇宮酒樓",
        "image": "https://na.cx/i/uvSwHez.png",
        "brand": "富臨",
        "lat": 22.3967843,
        "lon": 113.9697702
    },
    {
        "id": 448,
        "name": "炑八韓烤",
        "address": "沙田正街11-17號偉華中心2樓8C舖",
        "district": "沙田",
        "areas": "新界區",
        "desc": "原文網址:  https://hk.finance.appledaily.com/finance/realtime/article/20190812/59922630\n北角富臨聚集福建幫 網民籲罷食 富臨 : 白衣人酒樓內冇違法 | \n昨日8.11，北角有穿紅衫的福建幫人士於英皇道富臨皇宮酒家門外聚集，門外更有發生打鬥，有黑衣途人被圍毆。事件引起網民憤怒，呼籲罷食富臨旗下餐廳。\n\n原文網址:  https://hk.news.appledaily.com/breaking/realtime/article/20190811/59920790\n北角一間酒樓變成福建幫指揮中心，部份人換上紅衫後疑進行誓師大會。\n\n原文網址:  https://lihkg.com/thread/1443304/page/1\n數已百計福建人同黑社會集結係北角錦屏街富臨皇宮酒樓",
        "image": "https://na.cx/i/uvSwHez.png",
        "brand": "富臨",
        "lat": 22.3813414,
        "lon": 114.1873924
    },
    {
        "id": 449,
        "name": "炑八韓烤",
        "address": "新界荃灣眾安街2-8號周合成大廈1樓及地下部份",
        "district": "荃灣",
        "areas": "新界區",
        "desc": "原文網址:  https://hk.finance.appledaily.com/finance/realtime/article/20190812/59922630\n北角富臨聚集福建幫 網民籲罷食 富臨 : 白衣人酒樓內冇違法 | \n昨日8.11，北角有穿紅衫的福建幫人士於英皇道富臨皇宮酒家門外聚集，門外更有發生打鬥，有黑衣途人被圍毆。事件引起網民憤怒，呼籲罷食富臨旗下餐廳。\n\n原文網址:  https://hk.news.appledaily.com/breaking/realtime/article/20190811/59920790\n北角一間酒樓變成福建幫指揮中心，部份人換上紅衫後疑進行誓師大會。\n\n原文網址:  https://lihkg.com/thread/1443304/page/1\n數已百計福建人同黑社會集結係北角錦屏街富臨皇宮酒樓",
        "image": "https://na.cx/i/uvSwHez.png",
        "brand": "富臨",
        "lat": 22.3719,
        "lon": 114.118315
    },
    {
        "id": 450,
        "name": "炑八韓烤",
        "address": "屯門屯隆街3號屯門市廣場二期1樓12及15-17A號舖",
        "district": "屯門",
        "areas": "新界區",
        "desc": "原文網址:  https://hk.finance.appledaily.com/finance/realtime/article/20190812/59922630\n北角富臨聚集福建幫 網民籲罷食 富臨 : 白衣人酒樓內冇違法 | \n昨日8.11，北角有穿紅衫的福建幫人士於英皇道富臨皇宮酒家門外聚集，門外更有發生打鬥，有黑衣途人被圍毆。事件引起網民憤怒，呼籲罷食富臨旗下餐廳。\n\n原文網址:  https://hk.news.appledaily.com/breaking/realtime/article/20190811/59920790\n北角一間酒樓變成福建幫指揮中心，部份人換上紅衫後疑進行誓師大會。\n\n原文網址:  https://lihkg.com/thread/1443304/page/1\n數已百計福建人同黑社會集結係北角錦屏街富臨皇宮酒樓",
        "image": "https://na.cx/i/uvSwHez.png",
        "brand": "富臨",
        "lat": 22.3938083,
        "lon": 113.9760468
    },
    {
        "id": 451,
        "name": "炑八韓烤",
        "address": "屯門湖翠路1號蝴蝶廣場3樓R307-310號舖",
        "district": "屯門",
        "areas": "新界區",
        "desc": "原文網址:  https://hk.finance.appledaily.com/finance/realtime/article/20190812/59922630\n北角富臨聚集福建幫 網民籲罷食 富臨 : 白衣人酒樓內冇違法 | \n昨日8.11，北角有穿紅衫的福建幫人士於英皇道富臨皇宮酒家門外聚集，門外更有發生打鬥，有黑衣途人被圍毆。事件引起網民憤怒，呼籲罷食富臨旗下餐廳。\n\n原文網址:  https://hk.news.appledaily.com/breaking/realtime/article/20190811/59920790\n北角一間酒樓變成福建幫指揮中心，部份人換上紅衫後疑進行誓師大會。\n\n原文網址:  https://lihkg.com/thread/1443304/page/1\n數已百計福建人同黑社會集結係北角錦屏街富臨皇宮酒樓",
        "image": "https://na.cx/i/uvSwHez.png",
        "brand": "富臨",
        "lat": 22.3744763,
        "lon": 113.9634668
    },
    {
        "id": 452,
        "name": "炑八韓烤",
        "address": "新界天水圍天秀路8號天一商城2樓2011號舖",
        "district": "天水圍",
        "areas": "新界區",
        "desc": "原文網址:  https://hk.finance.appledaily.com/finance/realtime/article/20190812/59922630\n北角富臨聚集福建幫 網民籲罷食 富臨 : 白衣人酒樓內冇違法 | \n昨日8.11，北角有穿紅衫的福建幫人士於英皇道富臨皇宮酒家門外聚集，門外更有發生打鬥，有黑衣途人被圍毆。事件引起網民憤怒，呼籲罷食富臨旗下餐廳。\n\n原文網址:  https://hk.news.appledaily.com/breaking/realtime/article/20190811/59920790\n北角一間酒樓變成福建幫指揮中心，部份人換上紅衫後疑進行誓師大會。\n\n原文網址:  https://lihkg.com/thread/1443304/page/1\n數已百計福建人同黑社會集結係北角錦屏街富臨皇宮酒樓",
        "image": "https://na.cx/i/uvSwHez.png",
        "brand": "富臨",
        "lat": 22.4646166,
        "lon": 114.0028471
    },
    {
        "id": 455,
        "name": "炑八韓烤",
        "address": "新界荃灣荃新天地2期1樓125號舖",
        "district": "荃灣",
        "areas": "新界區",
        "desc": "原文網址:  https://hk.finance.appledaily.com/finance/realtime/article/20190812/59922630\n北角富臨聚集福建幫 網民籲罷食 富臨 : 白衣人酒樓內冇違法 | \n昨日8.11，北角有穿紅衫的福建幫人士於英皇道富臨皇宮酒家門外聚集，門外更有發生打鬥，有黑衣途人被圍毆。事件引起網民憤怒，呼籲罷食富臨旗下餐廳。\n\n原文網址:  https://hk.news.appledaily.com/breaking/realtime/article/20190811/59920790\n北角一間酒樓變成福建幫指揮中心，部份人換上紅衫後疑進行誓師大會。\n\n原文網址:  https://lihkg.com/thread/1443304/page/1\n數已百計福建人同黑社會集結係北角錦屏街富臨皇宮酒樓",
        "image": "https://na.cx/i/uvSwHez.png",
        "brand": "富臨",
        "lat": 22.3677905,
        "lon": 114.1144359
    },
    {
        "id": 456,
        "name": "炑八韓烤",
        "address": "新界將軍澳新都城中心2期高層地下UG 89-94號舖",
        "district": "將軍澳",
        "areas": "新界區",
        "desc": "原文網址:  https://hk.finance.appledaily.com/finance/realtime/article/20190812/59922630\n北角富臨聚集福建幫 網民籲罷食 富臨 : 白衣人酒樓內冇違法 | \n昨日8.11，北角有穿紅衫的福建幫人士於英皇道富臨皇宮酒家門外聚集，門外更有發生打鬥，有黑衣途人被圍毆。事件引起網民憤怒，呼籲罷食富臨旗下餐廳。\n\n原文網址:  https://hk.news.appledaily.com/breaking/realtime/article/20190811/59920790\n北角一間酒樓變成福建幫指揮中心，部份人換上紅衫後疑進行誓師大會。\n\n原文網址:  https://lihkg.com/thread/1443304/page/1\n數已百計福建人同黑社會集結係北角錦屏街富臨皇宮酒樓",
        "image": "https://na.cx/i/uvSwHez.png",
        "brand": "富臨",
        "lat": 22.3228322,
        "lon": 114.258409
    },
    {
        "id": 457,
        "name": "炑八韓烤",
        "address": "新界天水圍天恩路12-18號嘉湖海逸2期1樓117號舖",
        "district": "天水圍",
        "areas": "新界區",
        "desc": "原文網址:  https://hk.finance.appledaily.com/finance/realtime/article/20190812/59922630\n北角富臨聚集福建幫 網民籲罷食 富臨 : 白衣人酒樓內冇違法 | \n昨日8.11，北角有穿紅衫的福建幫人士於英皇道富臨皇宮酒家門外聚集，門外更有發生打鬥，有黑衣途人被圍毆。事件引起網民憤怒，呼籲罷食富臨旗下餐廳。\n\n原文網址:  https://hk.news.appledaily.com/breaking/realtime/article/20190811/59920790\n北角一間酒樓變成福建幫指揮中心，部份人換上紅衫後疑進行誓師大會。\n\n原文網址:  https://lihkg.com/thread/1443304/page/1\n數已百計福建人同黑社會集結係北角錦屏街富臨皇宮酒樓",
        "image": "https://na.cx/i/uvSwHez.png",
        "brand": "富臨",
        "lat": 22.4570825,
        "lon": 114.0039293
    },
    {
        "id": 460,
        "name": "炑八韓烤",
        "address": "新界將軍澳調景嶺健明邨彩明商場地下249號舖",
        "district": "將軍澳",
        "areas": "新界區",
        "desc": "原文網址:  https://hk.finance.appledaily.com/finance/realtime/article/20190812/59922630\n北角富臨聚集福建幫 網民籲罷食 富臨 : 白衣人酒樓內冇違法 | \n昨日8.11，北角有穿紅衫的福建幫人士於英皇道富臨皇宮酒家門外聚集，門外更有發生打鬥，有黑衣途人被圍毆。事件引起網民憤怒，呼籲罷食富臨旗下餐廳。\n\n原文網址:  https://hk.news.appledaily.com/breaking/realtime/article/20190811/59920790\n北角一間酒樓變成福建幫指揮中心，部份人換上紅衫後疑進行誓師大會。\n\n原文網址:  https://lihkg.com/thread/1443304/page/1\n數已百計福建人同黑社會集結係北角錦屏街富臨皇宮酒樓",
        "image": "https://na.cx/i/uvSwHez.png",
        "brand": "富臨",
        "lat": 22.306176,
        "lon": 114.2511385
    },
    {
        "id": 461,
        "name": "炑八韓烤",
        "address": "青衣新界青衣青敬路33號青衣城1樓119B號舖",
        "district": "青衣",
        "areas": "新界區",
        "desc": "原文網址:  https://hk.finance.appledaily.com/finance/realtime/article/20190812/59922630\n北角富臨聚集福建幫 網民籲罷食 富臨 : 白衣人酒樓內冇違法 | \n昨日8.11，北角有穿紅衫的福建幫人士於英皇道富臨皇宮酒家門外聚集，門外更有發生打鬥，有黑衣途人被圍毆。事件引起網民憤怒，呼籲罷食富臨旗下餐廳。\n\n原文網址:  https://hk.news.appledaily.com/breaking/realtime/article/20190811/59920790\n北角一間酒樓變成福建幫指揮中心，部份人換上紅衫後疑進行誓師大會。\n\n原文網址:  https://lihkg.com/thread/1443304/page/1\n數已百計福建人同黑社會集結係北角錦屏街富臨皇宮酒樓",
        "image": "https://na.cx/i/uvSwHez.png",
        "brand": "富臨",
        "lat": 22.3557491,
        "lon": 114.1083016
    },
    {
        "id": 467,
        "name": "四季文昌品牌",
        "address": "新界天水圍天恩路12號嘉湖海逸酒店1期1樓",
        "district": "天水圍",
        "areas": "新界區",
        "desc": "原文網址:  https://hk.finance.appledaily.com/finance/realtime/article/20190812/59922630\n北角富臨聚集福建幫 網民籲罷食 富臨 : 白衣人酒樓內冇違法 | \n昨日8.11，北角有穿紅衫的福建幫人士於英皇道富臨皇宮酒家門外聚集，門外更有發生打鬥，有黑衣途人被圍毆。事件引起網民憤怒，呼籲罷食富臨旗下餐廳。\n\n原文網址:  https://hk.news.appledaily.com/breaking/realtime/article/20190811/59920790\n北角一間酒樓變成福建幫指揮中心，部份人換上紅衫後疑進行誓師大會。\n\n原文網址:  https://lihkg.com/thread/1443304/page/1\n數已百計福建人同黑社會集結係北角錦屏街富臨皇宮酒樓",
        "image": "https://na.cx/i/uvSwHez.png",
        "brand": "富臨",
        "lat": 22.4581664,
        "lon": 114.0028385
    },
    {
        "id": 468,
        "name": "富臨薈",
        "address": "新界沙田正街11-17號偉華商場2樓9號舖",
        "district": "沙田",
        "areas": "新界區",
        "desc": "原文網址:  https://hk.finance.appledaily.com/finance/realtime/article/20190812/59922630\n北角富臨聚集福建幫 網民籲罷食 富臨 : 白衣人酒樓內冇違法 | \n昨日8.11，北角有穿紅衫的福建幫人士於英皇道富臨皇宮酒家門外聚集，門外更有發生打鬥，有黑衣途人被圍毆。事件引起網民憤怒，呼籲罷食富臨旗下餐廳。\n\n原文網址:  https://hk.news.appledaily.com/breaking/realtime/article/20190811/59920790\n北角一間酒樓變成福建幫指揮中心，部份人換上紅衫後疑進行誓師大會。\n\n原文網址:  https://lihkg.com/thread/1443304/page/1\n數已百計福建人同黑社會集結係北角錦屏街富臨皇宮酒樓",
        "image": "https://na.cx/i/uvSwHez.png",
        "brand": "富臨",
        "lat": 22.3813414,
        "lon": 114.1873924
    },
    {
        "id": 471,
        "name": "炑八Taste",
        "address": "新界元朗朗日路9號形點1期2樓Foodeli 5號舖",
        "district": "元朗",
        "areas": "新界區",
        "desc": "原文網址:  https://hk.finance.appledaily.com/finance/realtime/article/20190812/59922630\n北角富臨聚集福建幫 網民籲罷食 富臨 : 白衣人酒樓內冇違法 | \n昨日8.11，北角有穿紅衫的福建幫人士於英皇道富臨皇宮酒家門外聚集，門外更有發生打鬥，有黑衣途人被圍毆。事件引起網民憤怒，呼籲罷食富臨旗下餐廳。\n\n原文網址:  https://hk.news.appledaily.com/breaking/realtime/article/20190811/59920790\n北角一間酒樓變成福建幫指揮中心，部份人換上紅衫後疑進行誓師大會。\n\n原文網址:  https://lihkg.com/thread/1443304/page/1\n數已百計福建人同黑社會集結係北角錦屏街富臨皇宮酒樓",
        "image": "https://na.cx/i/uvSwHez.png",
        "brand": "富臨",
        "lat": 22.4457587,
        "lon": 114.0352248
    },
    {
        "id": 473,
        "name": "COTI",
        "address": "新界沙田石門安群街1號京瑞廣場二期2樓228A號舖",
        "district": "沙田",
        "areas": "新界區",
        "desc": "原文網址:  https://hk.finance.appledaily.com/finance/realtime/article/20190812/59922630\n北角富臨聚集福建幫 網民籲罷食 富臨 : 白衣人酒樓內冇違法 | \n昨日8.11，北角有穿紅衫的福建幫人士於英皇道富臨皇宮酒家門外聚集，門外更有發生打鬥，有黑衣途人被圍毆。事件引起網民憤怒，呼籲罷食富臨旗下餐廳。\n\n原文網址:  https://hk.news.appledaily.com/breaking/realtime/article/20190811/59920790\n北角一間酒樓變成福建幫指揮中心，部份人換上紅衫後疑進行誓師大會。\n\n原文網址:  https://lihkg.com/thread/1443304/page/1\n數已百計福建人同黑社會集結係北角錦屏街富臨皇宮酒樓",
        "image": "https://na.cx/i/uvSwHez.png",
        "brand": "富臨",
        "lat": 22.3888914,
        "lon": 114.20842
    },
    {
        "id": 474,
        "name": "COTI",
        "address": "新界荃灣沙咀道6號嘉達環球中心地鋪",
        "district": "荃灣",
        "areas": "新界區",
        "desc": "原文網址:  https://hk.finance.appledaily.com/finance/realtime/article/20190812/59922630\n北角富臨聚集福建幫 網民籲罷食 富臨 : 白衣人酒樓內冇違法 | \n昨日8.11，北角有穿紅衫的福建幫人士於英皇道富臨皇宮酒家門外聚集，門外更有發生打鬥，有黑衣途人被圍毆。事件引起網民憤怒，呼籲罷食富臨旗下餐廳。\n\n原文網址:  https://hk.news.appledaily.com/breaking/realtime/article/20190811/59920790\n北角一間酒樓變成福建幫指揮中心，部份人換上紅衫後疑進行誓師大會。\n\n原文網址:  https://lihkg.com/thread/1443304/page/1\n數已百計福建人同黑社會集結係北角錦屏街富臨皇宮酒樓",
        "image": "https://na.cx/i/uvSwHez.png",
        "brand": "富臨",
        "lat": 22.3750613,
        "lon": 114.1072403
    },
    {
        "id": 476,
        "name": "Foodeli",
        "address": "元朗YOHO MALL",
        "district": "元朗",
        "areas": "新界區",
        "desc": "原文網址:  https://hk.finance.appledaily.com/finance/realtime/article/20190812/59922630\n北角富臨聚集福建幫 網民籲罷食 富臨 : 白衣人酒樓內冇違法 | \n昨日8.11，北角有穿紅衫的福建幫人士於英皇道富臨皇宮酒家門外聚集，門外更有發生打鬥，有黑衣途人被圍毆。事件引起網民憤怒，呼籲罷食富臨旗下餐廳。\n\n原文網址:  https://hk.news.appledaily.com/breaking/realtime/article/20190811/59920790\n北角一間酒樓變成福建幫指揮中心，部份人換上紅衫後疑進行誓師大會。\n\n原文網址:  https://lihkg.com/thread/1443304/page/1\n數已百計福建人同黑社會集結係北角錦屏街富臨皇宮酒樓",
        "image": "https://na.cx/i/uvSwHez.png",
        "brand": "富臨",
        "lat": 22.4442414,
        "lon": 114.0359613
    },
    {
        "id": 477,
        "name": "甜舍",
        "address": "元朗朗日路9號形點1期2樓Foodeli 12號舖\t",
        "district": "元朗",
        "areas": "新界區",
        "desc": "原文網址:  https://hk.finance.appledaily.com/finance/realtime/article/20190812/59922630\n北角富臨聚集福建幫 網民籲罷食 富臨 : 白衣人酒樓內冇違法 | \n昨日8.11，北角有穿紅衫的福建幫人士於英皇道富臨皇宮酒家門外聚集，門外更有發生打鬥，有黑衣途人被圍毆。事件引起網民憤怒，呼籲罷食富臨旗下餐廳。\n\n原文網址:  https://hk.news.appledaily.com/breaking/realtime/article/20190811/59920790\n北角一間酒樓變成福建幫指揮中心，部份人換上紅衫後疑進行誓師大會。\n\n原文網址:  https://lihkg.com/thread/1443304/page/1\n數已百計福建人同黑社會集結係北角錦屏街富臨皇宮酒樓",
        "image": "https://na.cx/i/uvSwHez.png",
        "brand": "富臨",
        "lat": 22.443614,
        "lon": 114.03738
    },
    {
        "id": 478,
        "name": "西鐵燒烤樂園",
        "address": "元朗西鐵站J出口",
        "district": "元朗",
        "areas": "新界區",
        "desc": "原文網址: https://m.facebook.com/groups/1400713453474153?view=permalink&id=2427898157422339\n有人發夢話 : 元朗721鄉伸有份既西鐵燒烤",
        "image": "https://na.cx/i/uvSwHez.png",
        "brand": "西鐵燒烤樂園",
        "lat": 22.446919,
        "lon": 114.0363157
    },
    {
        "id": 479,
        "name": "富臨皇宮",
        "address": "迎濤灣廣場",
        "district": "馬鞍山",
        "areas": "新界區",
        "desc": "原文網址:  https://hk.finance.appledaily.com/finance/realtime/article/20190812/59922630\n北角富臨聚集福建幫 網民籲罷食 富臨 : 白衣人酒樓內冇違法 | \n昨日8.11，北角有穿紅衫的福建幫人士於英皇道富臨皇宮酒家門外聚集，門外更有發生打鬥，有黑衣途人被圍毆。事件引起網民憤怒，呼籲罷食富臨旗下餐廳。\n\n原文網址:  https://hk.news.appledaily.com/breaking/realtime/article/20190811/59920790\n北角一間酒樓變成福建幫指揮中心，部份人換上紅衫後疑進行誓師大會。\n\n原文網址:  https://lihkg.com/thread/1443304/page/1\n數已百計福建人同黑社會集結係北角錦屏街富臨皇宮酒樓",
        "image": "https://na.cx/i/uvSwHez.png",
        "brand": "富臨",
        "lat": 22.425293,
        "lon": 114.2274556
    },
    {
        "id": 500,
        "name": "吉野家",
        "address": "吉野家 (沙田) 沙田瀝源街6號瀝源廣場2樓C213A號舖",
        "district": "沙田",
        "areas": "新界區",
        "desc": "有人發夢話 : 「反送中」運動遍地開花，市民自發在各區設置連儂牆。近百名配備防暴裝備的持盾警員，日前凌晨前往大埔連儂牆撕走涉警資料便條紙，連鎖餐廳吉野家事後在臉書專頁發表宣傳產品的貼文，當中「唔准叫我獅子狗」的字眼被指辱警。中聯辦主導的《文匯報》及《大公報》報道，吉野家已跟外判廣告公司解約，負責廣告事務的公司員工已亦被解聘。職工盟今午到油麻地吉野家僑江大廈分店抗議，批評解僱工做法屬政治打壓，並呼籲市民「向染紅獅子狗說不！」\n\n報道引述吉野家母公司香港合興集團有限公司總裁、全國政協委員洪明基稱，他最近參加了撐警大會，全力支持特區政府依法施政，對事先不知情感到極為憤怒，亦對事件感到非常痛心。目前涉事廣告已刪除，外判廣告公司遭解約，而負責廣告事務的公司員工亦被解僱。",
        "image": "https://na.cx/i/uvSwHez.png",
        "brand": "吉野家",
        "lat": 22.3845826,
        "lon": 114.1913748
    },
    {
        "id": 504,
        "name": "華星冰室",
        "address": "大埔大埔太和路15號",
        "district": "大埔",
        "areas": "新界區",
        "desc": "有人發夢話 : 譚詠麟開嘅\n有人發夢話 : 全店侍應為深藍，稱呼示威者為口罩黨和黑衫黨，又稱其為暴徒。視已獲不反對通知書的和平遊行是搞亂香港。\np.s.內有陳百祥贈之招牌",
        "image": "https://na.cx/i/uvSwHez.png",
        "brand": "華星冰室",
        "lat": 22.4520279,
        "lon": 114.1641903
    },
    {
        "id": 506,
        "name": "華星冰室",
        "address": "元朗阜財街光華中心36-38",
        "district": "元朗",
        "areas": "新界區",
        "desc": "有人發夢話 : 譚詠麟開嘅\n有人發夢話 : 全店侍應為深藍，稱呼示威者為口罩黨和黑衫黨，又稱其為暴徒。視已獲不反對通知書的和平遊行是搞亂香港。\np.s.內有陳百祥贈之招牌",
        "image": "https://na.cx/i/uvSwHez.png",
        "brand": "華星冰室",
        "lat": 22.4440064,
        "lon": 114.0301426
    },
    {
        "id": 527,
        "name": "天后站清湯腩",
        "address": "將軍澳唐俊街11號寶盈花園地下S8B舖",
        "district": "將軍澳",
        "areas": "新界區",
        "desc": "有人發夢話 : 老闆深藍扮中立，成日想啲示威者比警察打死, 721之後第二日下午茶時間，原本想入去食，點知喺門口就聽到老闆喺度好大聲同其他人講話啲示威者比黑社會打係抵死，話啲警察唔出黎捉黑社會係啱。",
        "image": "https://na.cx/i/uvSwHez.png",
        "brand": "天后站清湯腩",
        "lat": 22.306474,
        "lon": 114.261768
    },
    {
        "id": 529,
        "name": "友口馥",
        "address": "北盛街23號",
        "district": "大埔",
        "areas": "新界區",
        "desc": "原文網址:   https://m.facebook.com/groups/12786375244?view=permalink&id=10162280368800245&anchor_composer=false\n有人發夢話 : 老闆娘撐警",
        "image": "https://na.cx/i/uvSwHez.png",
        "brand": "友口馥",
        "lat": 22.4494757,
        "lon": 114.1633749
    },
    {
        "id": 538,
        "name": "龍門冰室",
        "address": "屯門海麗花園商場地下",
        "district": "屯門",
        "areas": "新界區",
        "desc": "富臨有關食肆\n\n原文網址:  https://hk.finance.appledaily.com/finance/realtime/article/20190812/59922630\n北角富臨聚集福建幫 網民籲罷食 富臨 : 白衣人酒樓內冇違法 | \n昨日8.11，北角有穿紅衫的福建幫人士於英皇道富臨皇宮酒家門外聚集，門外更有發生打鬥，有黑衣途人被圍毆。事件引起網民憤怒，呼籲罷食富臨旗下餐廳。\n\n原文網址:  https://hk.news.appledaily.com/breaking/realtime/article/20190811/59920790\n北角一間酒樓變成福建幫指揮中心，部份人換上紅衫後疑進行誓師大會。\n\n原文網址:  https://lihkg.com/thread/1443304/page/1\n數已百計福建人同黑社會集結係北角錦屏街富臨皇宮酒樓",
        "image": "https://na.cx/i/uvSwHez.png",
        "brand": "富臨",
        "lat": 22.4077155,
        "lon": 113.9681105
    },
    {
        "id": 551,
        "name": "鳳城皇宴",
        "address": "屯門海珠路2號海典軒1座鳳城皇宴(屯門店)地下1-3",
        "district": "屯門",
        "areas": "新界區",
        "desc": "有人發夢話 : 經理極深藍日，常和兩個廢老說抗爭者阻住地球轉，要打鳩青年!",
        "image": "https://na.cx/i/uvSwHez.png",
        "brand": "鳳城皇宴",
        "lat": 22.3838265,
        "lon": 113.9708453
    },
    {
        "id": 555,
        "name": "和生飯店",
        "address": "屯門麒麟圍屯門麒麟圍村口",
        "district": "屯門",
        "areas": "新界區",
        "desc": "有人發夢話 : 鄉黑開設食肆，鄉下老集會地點!",
        "image": "https://na.cx/i/uvSwHez.png",
        "brand": "和生飯店",
        "lat": 22.4111996,
        "lon": 113.9761189
    },
    {
        "id": 556,
        "name": "傳麵世家",
        "address": "元朗合材街26-28號興隆樓",
        "district": "元朗",
        "areas": "新界區",
        "desc": "有人發夢話 : Facebook有人出post問知唔知傳麵世家立場，有人回 : 藍爆，試過去食野時，聽到D伙計話有黑衫後生仔入去叫野食就撈D口水，屎水比佢補補身，我即走",
        "image": "https://na.cx/i/uvSwHez.png",
        "brand": "傳麵世家",
        "lat": 22.4427211,
        "lon": 114.0297339
    },
    {
        "id": 557,
        "name": "翡翠拉麵小籠包",
        "address": "將軍澳唐賢街9號PopCorn商場1樓F09號舖",
        "district": "將軍澳",
        "areas": "新界區",
        "desc": "原文網址:  https://lihkg.com/thread/1453859/page/1\n\n有人發夢話 : 小弟第一次開post真係嬲到呢 就噚晚有女義士比狗整盲左 所以我地後生的兼職都自覺去機場 今日有個同事有更要返 係個群到講聲返唔到 比人知佢要去機場就話「咁你去機場啦 星期日都唔洗番拉」就比人踢左 去到今時今日依個情況都打壓想為自由發聲嘅人 大家諗下啲咁嘅「良心企業」仲值唔值得去食！",
        "image": "https://na.cx/i/uvSwHez.png",
        "brand": "翡翠拉麵小籠包",
        "lat": 22.3083551,
        "lon": 114.2591828
    },
    {
        "id": 559,
        "name": "茶廳 cha teng",
        "address": "青衣城二期",
        "district": "葵青",
        "areas": "新界區",
        "desc": "有人發夢話 : 一手，812 尖沙咀地鐵封咗，有個員工大嬸幫個輪椅伯伯入座嘅時候講咗句 : 尖沙咀地鐵封咗，班黑衣人搞嘢！",
        "image": "https://na.cx/i/uvSwHez.png",
        "brand": "茶廳 cha teng",
        "lat": 22.3600644,
        "lon": 114.1069973
    },
    {
        "id": 565,
        "name": "百斗記雞煲火煱",
        "address": "元朗元朗泰祥街14號, 盛發大廈",
        "district": "元朗",
        "areas": "新界區",
        "desc": "原文網址:  https://www.facebook.com/groups/116345152315546/permalink/428524954430896?sfns=mo\n有人發夢話 : 泰祥街百斗記個阿姐的深藍言論令人不安，去前三思 ",
        "image": "https://na.cx/i/uvSwHez.png",
        "brand": "百斗記雞煲火煱",
        "lat": 22.4455024,
        "lon": 114.0308214
    },
    {
        "id": 566,
        "name": "大尾篤麥師父",
        "address": "汀角 Ting Kok Rd, 202號",
        "district": "大埔",
        "areas": "新界區",
        "desc": "有人發夢話 : 佢自己fb留幾時出解放軍",
        "image": "https://na.cx/i/uvSwHez.png",
        "brand": "大尾篤麥師父",
        "lat": 22.4710127,
        "lon": 114.2200899
    },
    {
        "id": 567,
        "name": "寶葉餐廳小廚",
        "address": "荃灣 灰窰角街50-56號 昌泰工業大厦地下",
        "district": "荃灣",
        "areas": "新界區",
        "desc": "有人發夢話 : 今天12/8我中午在“寶葉”食飯，（餐廳內是長期播放TVB新聞台），當時電視正播放政府試“水炮車”比議員看時，我聽見前檯及服務員姐都在説，叫政府快些出“水炮車”射死啲仆街。",
        "image": "https://na.cx/i/uvSwHez.png",
        "brand": "寶葉餐廳小廚",
        "lat": 22.3655638,
        "lon": 114.1185278
    },
    {
        "id": 568,
        "name": "阿久根和牛拉麵館",
        "address": "旺角廣華街",
        "district": "旺角",
        "areas": "新界區",
        "desc": "原文網址:  鼎爺仔李泳漢斥「暴徒仲恐佈」 : 始作俑者始係呢班黑衣人\nhttps://www.hk01.com/%E5%8D%B3%E6%99%82%E5%A8%9B%E6%A8%82/362940/%E9%BC%8E%E7%88%BA%E4%BB%94%E6%9D%8E%E6%B3%B3%E6%BC%A2%E6%96%A5-%E6%9A%B4%E5%BE%92%E4%BB%B2%E6%81%90%E4%BD%88-%E5%A7%8B%E4%BD%9C%E4%BF%91%E8%80%85%E5%A7%8B%E4%BF%82%E5%91%A2%E7%8F%AD%E9%BB%91%E8%A1%A3%E4%BA%BA?utm_medium=Social&utm_source=fbpost_link&utm_campaign=mama",
        "image": "https://na.cx/i/uvSwHez.png",
        "brand": "阿久根和牛拉麵館",
        "lat": 22.3163772,
        "lon": 114.1731668
    },
    {
        "id": 570,
        "name": "台式便當",
        "address": "荃灣荃昌中心昌寧商場地下",
        "district": "荃灣",
        "areas": "新界區",
        "desc": "有人發夢話 : 佢記錯以為我係做狗，係到話示威者無人性，叫狗加油，話支持佢地",
        "image": "https://na.cx/i/uvSwHez.png",
        "brand": "台式便當",
        "lat": 22.371027,
        "lon": 114.1203127
    },
    {
        "id": 571,
        "name": "松記粥品",
        "address": "元朗又新街17號元新大廈地下6及13舖",
        "district": "元朗",
        "areas": "新界區",
        "desc": "有人發夢話 : 幾位員工表示示威者成日打機, 打上腦先出黎示威玩, 腦生草",
        "image": "https://na.cx/i/uvSwHez.png",
        "brand": "松記粥品",
        "lat": 22.443849,
        "lon": 114.031188
    },
    {
        "id": 572,
        "name": "卡洛芝士吐司專門店",
        "address": "山頂道128號凌霄閣G11號舖",
        "district": "山頂",
        "areas": "新界區",
        "desc": "原文網址:  https://imgur.com/a/LejtqYb",
        "image": "https://na.cx/i/uvSwHez.png",
        "brand": "卡洛芝士吐司專門店",
        "lat": 22.2712975,
        "lon": 114.1497899
    },
    {
        "id": 575,
        "name": "100米台式餐廳",
        "address": "大埔大元街市平台美食廣場12號舖",
        "district": "大埔",
        "areas": "新界區",
        "desc": "有人發夢話 : 支持香港警察/元朗恐襲餐廳",
        "image": "https://na.cx/i/uvSwHez.png",
        "brand": "100米台式餐廳",
        "lat": 22.454748,
        "lon": 114.1687474
    },
    {
        "id": 578,
        "name": "意樂",
        "address": "沙田禾輋商場1樓",
        "district": "沙田",
        "areas": "新界區",
        "desc": "原文網址: https://lih.kg/1325706\n有人發夢話 : 亞洲國際飲食集團曾禁止員工遊行",
        "image": "https://na.cx/i/uvSwHez.png",
        "brand": "亞洲國際飲食集團",
        "lat": 22.3881686,
        "lon": 114.1948267
    },
    {
        "id": 582,
        "name": "富華茶餐廳",
        "address": "荃灣四陂坊16號地舖",
        "district": "荃灣",
        "areas": "新界區",
        "desc": "有人發夢話 : 啱啱係富華茶餐廳都遇到咁嘅情況，差啲仲比啲阿叔喊打喊剎，話個女仔係黎智英助手，係比鐵珠打中，示威者收咗3000萬，個女仔仲彈咁大件事點解唔報警⋯⋯我問阿叔點解講得言之鑿鑿咁肯定，就比佢屌鳩我，拍枱差啲想打柒我咁滯！啲藍絲恐怖到好似仲左降頭咁！\n\n有人發夢話 :這間於四坡坊的「富華茶餐廳」，老板係極藍絲。平時都去開食，有晚去食剛電視播CCTVB 上環清場，個冷血老板大講開槍射死晒班學生就啱，又話班學生搞搞震阻住佢做生意，成間餐廳都屌學生。當晚快手食完就算，以前唔會再食，唔想食完背脊骨落",
        "image": "https://na.cx/i/uvSwHez.png",
        "brand": "富華茶餐廳",
        "lat": 22.3697366,
        "lon": 114.1174669
    },
    {
        "id": 584,
        "name": "石籬粉仔",
        "address": "葵涌大隴街129-151號葵都大厦",
        "district": "葵涌",
        "areas": "新界區",
        "desc": "有人發夢話 : 一手。全天播放無綫新聞，見有食客討論黑警有幾仆街，廢老老細出嚟特登倒灑垃圾，特登令廢水濺落黃底食客身上，仲要一面串樣毫無歉意，再同伙記打眼色。",
        "image": "https://na.cx/i/uvSwHez.png",
        "brand": "石籬粉仔",
        "lat": 22.3663945,
        "lon": 114.1388493
    },
    {
        "id": 586,
        "name": "星輝菜館",
        "address": "元朗建德街19號地下6號舖",
        "district": "元朗",
        "areas": "新界區",
        "desc": "有人發夢話 : 本人721當晚親眼見到有多名白衣人去食晚餐，老闆同多人稔熟，親自招呼，還稱呼其中一名白衣人為村長，其後約8 : 30該村長還說“班曱甴邊敢入嚟元朗丫!”",
        "image": "https://na.cx/i/uvSwHez.png",
        "brand": "星輝菜館",
        "lat": 22.4412202,
        "lon": 114.0304555
    },
    {
        "id": 591,
        "name": "好運來茶餐廳盆菜店",
        "address": "元朗擊壤路9號地下7號舖(元朗西巴士總站968站頭後面)",
        "district": "元朗",
        "areas": "新界區",
        "desc": "原文網址: https://lihkg.com/thread/1476548/page/1\n有人發夢話 :小弟發夢聽到 呢間餐廳有個女夥記 支持黑警槍殺示威者\n13/8 夜晚機場發生嗰單嘢大家都知\n唔多講 入正題\n話說小弟返工返好早\n朝早五點幾要出門口\n而且要開工日子例牌會去呢間嘢買早餐返公司食\n14/8 朝早嗰陣咁啱呢間嘢播緊cctvb報導8月13夜晚嗰單嘢\n當中有一幕影住示威者打嗰條黑警抆槍嗰幕\n呢間嘢其中有一位女夥記表現相當激動\n佢就話:「開槍啦 殺撚曬佢哋啦(示威者) 咁撚樣打人都得嘅 癲撚咗呀」\n之後裏面一大堆廢老和應\n小弟冇出聲 但係表示好心寒",
        "image": "https://na.cx/i/uvSwHez.png",
        "brand": "好運來茶餐廳盆菜店",
        "lat": 22.4449146,
        "lon": 114.024712
    },
    {
        "id": 592,
        "name": "合利芳坊小菜館",
        "address": "荃灣曹公坊17號號地下",
        "district": "荃灣",
        "areas": "新界區",
        "desc": "原文網址: https://www.facebook.com/groups/381185265342025?view=permalink&id=2204440809683119&anchor_composer=false\n有人發夢話 :荃灣合利芳坊小菜館\n老闆15/8晚\n高談闊論講白衫人冇錯，被打嘅人係抵死，個女仔係自己人射傷",
        "image": "https://na.cx/i/uvSwHez.png",
        "brand": "合利芳坊小菜館",
        "lat": 22.3730727,
        "lon": 114.1112815
    },
    {
        "id": 593,
        "name": "聚友盞餐廳小廚",
        "address": "新界元朗鳳祥路5號偉發大廈地下5號鋪",
        "district": "元朗",
        "areas": "新界區",
        "desc": "有人發夢話 :親耳聽入面有個肥佬廚師話斬手斬腳就啱，仲話夠膽入村就捉X住對腳斬斷佢。",
        "image": "https://na.cx/i/uvSwHez.png",
        "brand": "聚友盞餐廳小廚",
        "lat": 22.443949,
        "lon": 114.032848
    },
    {
        "id": 594,
        "name": "吉野家",
        "address": "上水龍琛路4號地鋪",
        "district": "上水",
        "areas": "新界區",
        "desc": "有人發夢話 : 「反送中」運動遍地開花，市民自發在各區設置連儂牆。近百名配備防暴裝備的持盾警員，日前凌晨前往大埔連儂牆撕走涉警資料便條紙，連鎖餐廳吉野家事後在臉書專頁發表宣傳產品的貼文，當中「唔准叫我獅子狗」的字眼被指辱警。中聯辦主導的《文匯報》及《大公報》報道，吉野家已跟外判廣告公司解約，負責廣告事務的公司員工已亦被解聘。職工盟今午到油麻地吉野家僑江大廈分店抗議，批評解僱工做法屬政治打壓，並呼籲市民「向染紅獅子狗說不！」\n\n報道引述吉野家母公司香港合興集團有限公司總裁、全國政協委員洪明基稱，他最近參加了撐警大會，全力支持特區政府依法施政，對事先不知情感到極為憤怒，亦對事件感到非常痛心。目前涉事廣告已刪除，外判廣告公司遭解約，而負責廣告事務的公司員工亦被解僱。",
        "image": "https://na.cx/i/uvSwHez.png",
        "brand": "吉野家",
        "lat": 22.503948,
        "lon": 114.129912
    },
    {
        "id": 595,
        "name": "巴蜀風",
        "address": "屯門良德街9號盈豐商場地下",
        "district": "屯門",
        "areas": "新界區",
        "desc": "有人發夢話 : 侍應呀媽話警犬打人唔夠出力，應該大力d打死班示威者",
        "image": "https://na.cx/i/uvSwHez.png",
        "brand": "巴蜀風",
        "lat": 22.4088709,
        "lon": 113.9676236
    },
    {
        "id": 596,
        "name": "富來餐廳小廚",
        "address": "屯門湖秀街2號悅湖山莊悅湖商場地下67-72號舖",
        "district": "屯門",
        "areas": "新界區",
        "desc": "有人發夢話 : 我仲記得老豆搵仔講過佢個仔係popo黎 但我搵唔返了",
        "image": "https://na.cx/i/uvSwHez.png",
        "brand": "富來餐廳小廚",
        "lat": 22.3735463,
        "lon": 113.9680535
    },
    {
        "id": 597,
        "name": "Itamomo 意樂",
        "address": "G/F, 21 Wo Fung St, Fanling",
        "district": "粉嶺",
        "areas": "新界區",
        "desc": "原文網址: https://lih.kg/1325706\n有人發夢話 : 亞洲國際飲食集團曾禁止員工遊行",
        "image": "https://na.cx/i/uvSwHez.png",
        "brand": "亞洲國際飲食集團",
        "lat": 22.498689,
        "lon": 114.142298
    },
    {
        "id": 603,
        "name": "UCC Coffee Shop",
        "address": "新界沙田正街2號新城市廣場3期一田百貨1樓ST-01-008號鋪",
        "district": "沙田",
        "areas": "新界區",
        "desc": "原文網址:  https://lihkg.com/thread/1479220/page/1\n原文網址:  https://www.facebook.com/democratic.consumers.power.hk/photos/a.1710731039151273/3009973422560355/?type=3&theater\n\n有人發夢話 : \n內部通告訓示員工遇到示威時嘅應對方法: \n－ 如我們在暴動區的店舖不幸被示威者圍攻，請保持冷靜 (講人話唔該，香港示威者幾時「圍攻」過一間店舖？)\n－ 除非他們要求，否則不要動 (講到示威者好似一人一枝 AK47 喺手咁)\n－ 給他們所要求的東西，盡快滿足暴徒的要求 (開口埋口就「暴徒」，咁「暴警」入嚟又點？示威人士得五個要求，你 UCC 滿足到咩？)\n－ 盡可能記住所有關於暴徒的資料 (篤灰搏攞好市民獎)\n－ 記住暴徒觸摸過什麼 (套埋指模㖭，定係真係覺得示威者係曱甴，掂過啲嘢要消毒？)",
        "image": "https://na.cx/i/uvSwHez.png",
        "brand": "UCC Coffee Shop",
        "lat": 22.3792521,
        "lon": 114.1877382
    },
    {
        "id": 607,
        "name": "吉野家",
        "address": "沙田好運中心3樓108, 109, 109A1號舖",
        "district": "沙田",
        "areas": "新界區",
        "desc": "有人發夢話 : 「反送中」運動遍地開花，市民自發在各區設置連儂牆。近百名配備防暴裝備的持盾警員，日前凌晨前往大埔連儂牆撕走涉警資料便條紙，連鎖餐廳吉野家事後在臉書專頁發表宣傳產品的貼文，當中「唔准叫我獅子狗」的字眼被指辱警。中聯辦主導的《文匯報》及《大公報》報道，吉野家已跟外判廣告公司解約，負責廣告事務的公司員工已亦被解聘。職工盟今午到油麻地吉野家僑江大廈分店抗議，批評解僱工做法屬政治打壓，並呼籲市民「向染紅獅子狗說不！」\n\n報道引述吉野家母公司香港合興集團有限公司總裁、全國政協委員洪明基稱，他最近參加了撐警大會，全力支持特區政府依法施政，對事先不知情感到極為憤怒，亦對事件感到非常痛心。目前涉事廣告已刪除，外判廣告公司遭解約，而負責廣告事務的公司員工亦被解僱。",
        "image": "https://na.cx/i/uvSwHez.png",
        "brand": "吉野家",
        "lat": 22.3824835,
        "lon": 114.191174
    },
    {
        "id": 610,
        "name": "經典廚房 classic kitchen",
        "address": "S-223 HANDS, 2A Tuen Mun Heung Sze Wui Rd, Tuen Mun",
        "district": "屯門",
        "areas": "新界區",
        "desc": "有人發夢話 : 食飯時聽到多個職員批評示威者",
        "image": "https://na.cx/i/uvSwHez.png",
        "brand": "經典廚房 classic kitchen",
        "lat": 22.3879599,
        "lon": 113.975674
    },
    {
        "id": 612,
        "name": "得得店茶餐廳",
        "address": "長洲大新海傍路96號地下",
        "district": "長洲",
        "areas": "新界區",
        "desc": "有人發夢話 : 朋友聽到老闆鬧示威者暴徒",
        "image": "https://na.cx/i/uvSwHez.png",
        "brand": "得得店茶餐廳",
        "lat": 22.2070042,
        "lon": 114.0287605
    },
    {
        "id": 613,
        "name": "為食堡",
        "address": "長洲建新里10號海景樓B座地下",
        "district": "長洲",
        "areas": "新界區",
        "desc": "有人發夢話 : 親耳聽到老闆同食客一齊話班示威者收咗錢，同埋話黑警好克制",
        "image": "https://na.cx/i/uvSwHez.png",
        "brand": "為食堡",
        "lat": 22.2058621,
        "lon": 114.0279642
    },
    {
        "id": 619,
        "name": "MELLOW BROWN COFFEE by UCC",
        "address": "新界沙田新城市廣場1期7層706號舖",
        "district": "沙田",
        "areas": "新界區",
        "desc": "原文網址:  https://lihkg.com/thread/1479220/page/1\n原文網址:  https://www.facebook.com/democratic.consumers.power.hk/photos/a.1710731039151273/3009973422560355/?type=3&theater\n\n有人發夢話 : \n內部通告訓示員工遇到示威時嘅應對方法: \n－ 如我們在暴動區的店舖不幸被示威者圍攻，請保持冷靜 (講人話唔該，香港示威者幾時「圍攻」過一間店舖？)\n－ 除非他們要求，否則不要動 (講到示威者好似一人一枝 AK47 喺手咁)\n－ 給他們所要求的東西，盡快滿足暴徒的要求 (開口埋口就「暴徒」，咁「暴警」入嚟又點？示威人士得五個要求，你 UCC 滿足到咩？)\n－ 盡可能記住所有關於暴徒的資料 (篤灰搏攞好市民獎)\n－ 記住暴徒觸摸過什麼 (套埋指模㖭，定係真係覺得示威者係曱甴，掂過啲嘢要消毒？)",
        "image": "https://na.cx/i/uvSwHez.png",
        "brand": "UCC Coffee Shop",
        "lat": 22.3823753,
        "lon": 114.1882615
    },
    {
        "id": 626,
        "name": "自家人酒家",
        "address": "屯門美樂花園",
        "district": "屯門",
        "areas": "新界區",
        "desc": "原文網址:  https://www.facebook.com/587874824557675/posts/2706125782732558/\n有網民發夢看到此新開張酒家門前大量政協花牌 關係耐人尋味 非比尋常",
        "image": "https://na.cx/i/uvSwHez.png",
        "brand": "自家人酒家",
        "lat": 22.373368,
        "lon": 113.961526
    }
]
