[
    {
        "id": 1,
        "name": "九龍城銀龍",
        "address": "九龍城福佬村道18號號地下2B舖",
        "district": "九龍城",
        "areas": "九龍區",
        "desc": "有人發夢話：九龍城啲侍應阿姐同啲食客講話啲示威者係暴徒 喺度搞事 有啲食客係依家先睇到新聞 唔知咩事就信哂佢地 聽到我火滾",
        "image": "https://na.cx/i/kbcdKrf.png",
        "brand": "九龍城銀龍",
        "lat": 22.328495,
        "lon": 114.187746
    },
    {
        "id": 2,
        "name": "土瓜灣糖妃",
        "address": "土瓜灣美景街26號",
        "district": "土瓜灣",
        "areas": "九龍區",
        "desc": "有人發夢話：X警Ryan同其女友Yuet Hang主理",
        "image": "https://na.cx/i/kbcdKrf.png",
        "brand": "土瓜灣糖妃",
        "lat": 22.316405,
        "lon": 114.190564
    },
    {
        "id": 3,
        "name": "鵝皇館",
        "address": "大角咀塘尾道55號G/F, Sun Hing Steel Furniture Comme Bldg",
        "district": "大角咀",
        "areas": "九龍區",
        "desc": "有人發夢話：條柒頭燒味佬無啦啦話 班𡃁仔係收錢搞事 跟住問個後生少少既伙記有無人叫你去 個伙記無出聲",
        "image": "https://na.cx/i/kbcdKrf.png",
        "brand": "鵝皇館",
        "lat": 22.320112,
        "lon": 114.165663
    },
    {
        "id": 4,
        "name": "自在素食",
        "address": "塘尾界限街43號地下A1號舖恆富大廈",
        "district": "太子",
        "areas": "九龍區",
        "desc": "有人發夢話：本來我忍了幾天，費時講，但真係忍唔住。 早幾日，去呢間自在素食時，我隔離枱就係老闆娘。她說，反送中的年輕人搞亂香港，食飽飯無屎屙。最難頂果句係⋯⋯ 她說死去的義士們抵死。 我無辦法接受一個以佛教徒為名的人，毒舌死去的人。就算任何立場，這樣心腸歹毒也不能接受。 P.S.: 呢見野好多廢老和老闆娘一齊顛倒是非黑白，難聽過粗口。唔想被激死，最好唔好去啦！ ",
        "image": "https://na.cx/i/kbcdKrf.png",
        "brand": "自在素食",
        "lat": 22.32678,
        "lon": 114.167986
    },
    {
        "id": 5,
        "name": "潮味工房",
        "address": "牛池灣清水灣道三期地下, 彩云一村彩雲(一)邨日月樓彩雲商場",
        "district": "牛頭角",
        "areas": "九龍區",
        "desc": "暫沒資料,希望用家提供",
        "image": "https://na.cx/i/kbcdKrf.png",
        "brand": "潮味工房",
        "lat": 22.334246,
        "lon": 114.214266
    },
    {
        "id": 6,
        "name": "殿大喜屋",
        "address": "F, 號, 26 Kimberley Rd, Tsim Sha Tsui",
        "district": "尖沙咀",
        "areas": "九龍區",
        "desc": "暫沒資料,希望用家提供",
        "image": "https://na.cx/i/kbcdKrf.png",
        "brand": "殿大喜屋",
        "lat": 22.300294,
        "lon": 114.173298
    },
    {
        "id": 7,
        "name": "京都抹茶庵丸久小山園日本茶販売店",
        "address": "Shop 210, K11 Mall,, 19 Carnarvon Rd, Tsim Sha Tsui",
        "district": "尖沙咀",
        "areas": "九龍區",
        "desc": "暫沒資料,希望用家提供",
        "image": "https://na.cx/i/kbcdKrf.png",
        "brand": "京都抹茶庵丸久小山園日本茶販売店",
        "lat": 22.297483,
        "lon": 114.173762
    },
    {
        "id": 8,
        "name": "肥仔記美食",
        "address": "尖沙咀厚福街3號G1華博商業大廈",
        "district": "尖沙咀",
        "areas": "九龍區",
        "desc": "暫沒資料,希望用家提供",
        "image": "https://na.cx/i/kbcdKrf.png",
        "brand": "肥仔記美食",
        "lat": 22.299426,
        "lon": 114.174036
    },
    {
        "id": 9,
        "name": "包剪麵",
        "address": "尖沙咀金馬倫道21號",
        "district": "尖沙咀",
        "areas": "九龍區",
        "desc": "暫沒資料,希望用家提供",
        "image": "https://na.cx/i/kbcdKrf.png",
        "brand": "包剪麵",
        "lat": 22.299271,
        "lon": 114.174046
    },
    {
        "id": 10,
        "name": "樂天大喜屋",
        "address": "彌敦道601號二樓全層創興廣場2樓",
        "district": "旺角",
        "areas": "九龍區",
        "desc": "暫沒資料,希望用家提供",
        "image": "https://na.cx/i/kbcdKrf.png",
        "brand": "樂天大喜屋",
        "lat": 22.316257,
        "lon": 114.169739
    },
    {
        "id": 11,
        "name": "吉壽日本料理",
        "address": "旺角彌敦道655號5樓",
        "district": "旺角",
        "areas": "九龍區",
        "desc": "有人發夢話：我頭喺呢間吉壽食緊飯， 樓下差佬掃旺進行中，\n 吉壽有服務員大叔不斷四圍同食客話: 最好出解放軍打死哂樓下啲示威者 \n已經無人想答佢，佢仲不停講，十分煩嫌！ \n本身個個星期去，宜家永不再去幫親。 \n\n吉壽日本料理 吉壽本格御品放題 有冇咩回應\nAdmin已inbox呢兩個page，但尚未有回復\"",
        "image": "https://na.cx/i/kbcdKrf.png",
        "brand": "吉壽日本料理",
        "lat": 22.31857,
        "lon": 114.169302
    },
    {
        "id": 12,
        "name": "鮮入圍煮",
        "address": "旺角登打士街43H號登打士廣場2/F",
        "district": "旺角",
        "areas": "九龍區",
        "desc": "原文網址: https://lihkg.com/thread/1356707/page/1\n有人發夢話：在網上自稱是旺角登打士街的一間火鍋店「鮮入圍煮」的「品牌負責人」，以名字獲微博認證的帳號，自稱是內地美食家的沈濤發文，多次就近期事件表態，其中有關元朗白衣人的襲擊，他指自己多次看過片段，認為「先是示威者想衝出地鐵站，被守護到站外的『保護元朗』的市民（又說是黑社會，看着也不像呀）呵住。雙方以閘機為界，偶有小範圍衝突」。並指之後示威者多次想反攻，但被擊退，更以言語挑釁白衣人。最終示威者不敵，被「保護元朗」的市民所擊退，更指「圖三是指揮者林卓庭（廷），活該！」在隨後的另一條微博，他又指「從頭看到尾，沒有看到元朗人打過一個路人，都是一再挑釁的示威者。」\n在「鮮入圍煮」facebook有網民貼出有關的微博，但該店未有回應。而根據facebook留言中，不少內地遊客都曾透過「沈濤」或相關的微博或是內地apps介紹去光顧該火鍋店。",
        "image": "https://na.cx/i/kbcdKrf.png",
        "brand": "鮮入圍煮",
        "lat": 22.315716,
        "lon": 114.171108
    },
    {
        "id": 13,
        "name": "雅蘭對面活壽司",
        "address": "旺角奶路臣街11號",
        "district": "旺角",
        "areas": "九龍區",
        "desc": "暫沒資料,希望用家提供",
        "image": "https://na.cx/i/kbcdKrf.png",
        "brand": "雅蘭對面活壽司",
        "lat": 22.318579,
        "lon": 114.169052
    },
    {
        "id": 14,
        "name": "華記茶餐廳",
        "address": "油麻地文英街2-24號文英樓",
        "district": "油麻地",
        "areas": "九龍區",
        "desc": "暫沒資料,希望用家提供",
        "image": "https://na.cx/i/kbcdKrf.png",
        "brand": "華記茶餐廳",
        "lat": 22.307407,
        "lon": 114.166751
    },
    {
        "id": 15,
        "name": "榮發粉麵專家",
        "address": "必嘉街88號",
        "district": "紅磡",
        "areas": "九龍區",
        "desc": "有人發夢話：有個伙記話我地班後生仔抵撚死，有書唔讀係度搞示威",
        "image": "https://na.cx/i/kbcdKrf.png",
        "brand": "榮發粉麵專家",
        "lat": 22.306528,
        "lon": 114.184845
    },
    {
        "id": 16,
        "name": "德豐",
        "address": "深水埗桂林街145號A及147號地舖",
        "district": "深水埗",
        "areas": "九龍區",
        "desc": "有人發夢話：12號當日去食早餐話出去游行搞呢搞路個班人",
        "image": "https://na.cx/i/kbcdKrf.png",
        "brand": "德豐",
        "lat": 22.332364,
        "lon": 114.162717
    },
    {
        "id": 17,
        "name": "新蒲崗燒皇燒烤雞煲專門店",
        "address": "新蒲崗衍慶街34號地舖",
        "district": "新蒲崗",
        "areas": "九龍區",
        "desc": "有人發夢話：69個職員話人遊行係搞事，仲話點解黑警要批",
        "image": "https://na.cx/i/kbcdKrf.png",
        "brand": "新蒲崗燒皇燒烤雞煲專門店",
        "lat": 22.335787,
        "lon": 114.194793
    },
    {
        "id": 18,
        "name": "大滿喜",
        "address": "觀塘觀塘道414, Kwun Tong號10/F One Pacific Centre",
        "district": "觀塘",
        "areas": "九龍區",
        "desc": "暫沒資料,希望用家提供",
        "image": "https://na.cx/i/kbcdKrf.png",
        "brand": "大滿喜",
        "lat": 22.312667,
        "lon": 114.224678
    },
    {
        "id": 19,
        "name": "Sum Sum Dessert",
        "address": "1305 室, 港貿中心117 How Ming St, Kwun Tong",
        "district": "觀塘",
        "areas": "九龍區",
        "desc": "暫沒資料,希望用家提供",
        "image": "https://na.cx/i/kbcdKrf.png",
        "brand": "Sum Sum Dessert",
        "lat": 22.311619,
        "lon": 114.224567
    },
    {
        "id": 20,
        "name": "牛八和牛燒肉屋",
        "address": "鑽石山龍蟠街3號荷里活廣場3樓311 舖",
        "district": "鑽石山",
        "areas": "九龍區",
        "desc": "暫沒資料,希望用家提供",
        "image": "https://na.cx/i/kbcdKrf.png",
        "brand": "牛八和牛燒肉屋",
        "lat": 22.341005,
        "lon": 114.202116
    },
    {
        "id": 43,
        "name": "養心殿",
        "address": "旺角彌敦道607號Shop106-112, 1/F新興大廈",
        "district": "旺角",
        "areas": "九龍區",
        "desc": "原文網址:  https://lih.kg/1220224\n有人發夢話：養心殿老細話上街果班年輕人全部係被煽動 \n\n養心殿老闆KaFai Chan旗下餐廳：\n養心麵\n靖 omakase\n灣仔靠炆雞",
        "image": "https://na.cx/i/kbcdKrf.png",
        "brand": "養心殿",
        "lat": 22.316962,
        "lon": 114.169615
    },
    {
        "id": 44,
        "name": "麥當勞",
        "address": "旺角彌敦道612-618號",
        "district": "旺角",
        "areas": "九龍區",
        "desc": "July 08\n有人發夢話：就今晨於油麻地富運商業中心麥當勞發生的事件，香港麥當勞有以下回應：\n基於保安理由，同時保障餐廳內的顧客及僱員，香港麥當勞於每間餐廳均設置閉路電視，並會確保閉路電視正常運作。\n為保護及尊重顧客的私隱，閉路電視片段不會公開展示。但根據本公司對事件的了解，於今早(即七月八日) 凌晨一時左右，數名警察及一名男士從街外走進位於旺角富運麥當勞餐廳，而該名男士於數秒後已被警察帶走。整個過程中，並沒有打鬥及推撞行為。",
        "image": "https://na.cx/i/kbcdKrf.png",
        "brand": "麥當勞",
        "lat": 22.317386,
        "lon": 114.170292
    },
    {
        "id": 46,
        "name": "老虎堂",
        "address": "觀塘觀塘道418號創紀之城5期apm第1層L1-11號舖",
        "district": "觀塘",
        "areas": "九龍區",
        "desc": "原文網址: https://lihkg.com/thread/1215175/page/1\n\nJune 13\n有人發夢話：無預先請假佢哋係唔啱，但係佢哋都係想守護佢哋嘅城市。\n淨係顧住自己鋪頭生意就係度屌班後生。",
        "image": "https://na.cx/i/kbcdKrf.png",
        "brand": "老虎堂",
        "lat": 22.312275,
        "lon": 114.225275
    },
    {
        "id": 48,
        "name": "老虎堂",
        "address": "旺角彌敦道700號T.O.P地下15號舖",
        "district": "旺角",
        "areas": "九龍區",
        "desc": "原文網址: https://lihkg.com/thread/1215175/page/1\n\nJune 13\n有人發夢話：無預先請假佢哋係唔啱，但係佢哋都係想守護佢哋嘅城市。\n淨係顧住自己鋪頭生意就係度屌班後生。",
        "image": "https://na.cx/i/kbcdKrf.png",
        "brand": "老虎堂",
        "lat": 22.320739,
        "lon": 114.169406
    },
    {
        "id": 49,
        "name": "老虎堂",
        "address": "匯景花園匯景道匯景廣場",
        "district": "藍田",
        "areas": "九龍區",
        "desc": "原文網址: https://lihkg.com/thread/1215175/page/1\n\nJune 13\n有人發夢話：無預先請假佢哋係唔啱，但係佢哋都係想守護佢哋嘅城市。\n淨係顧住自己鋪頭生意就係度屌班後生。",
        "image": "https://na.cx/i/kbcdKrf.png",
        "brand": "老虎堂",
        "lat": 22.307031,
        "lon": 114.233152
    },
    {
        "id": 51,
        "name": "老虎堂",
        "address": "佐敦白加士街70號號地下E",
        "district": "佐敦",
        "areas": "九龍區",
        "desc": "原文網址: https://lihkg.com/thread/1215175/page/1\n\nJune 13\n有人發夢話：無預先請假佢哋係唔啱，但係佢哋都係想守護佢哋嘅城市。\n淨係顧住自己鋪頭生意就係度屌班後生。",
        "image": "https://na.cx/i/kbcdKrf.png",
        "brand": "老虎堂",
        "lat": 22.305857,
        "lon": 114.170803
    },
    {
        "id": 52,
        "name": "老虎堂",
        "address": "尖沙咀樂道5號嘉樂大廈地下2號舖",
        "district": "尖沙咀",
        "areas": "九龍區",
        "desc": "原文網址: https://lihkg.com/thread/1215175/page/1\n\nJune 13\n有人發夢話：無預先請假佢哋係唔啱，但係佢哋都係想守護佢哋嘅城市。\n淨係顧住自己鋪頭生意就係度屌班後生。",
        "image": "https://na.cx/i/kbcdKrf.png",
        "brand": "老虎堂",
        "lat": 22.296798,
        "lon": 114.171481
    },
    {
        "id": 59,
        "name": "吉野家",
        "address": "九龍土瓜灣馬頭圍道209號海悅廣場商場1樓2A,2B,2C及3號舖",
        "district": "土瓜灣",
        "areas": "九龍區",
        "desc": "有人發夢話：「反送中」運動遍地開花，市民自發在各區設置連儂牆。近百名配備防暴裝備的持盾警員，日前凌晨前往大埔連儂牆撕走涉警資料便條紙，連鎖餐廳吉野家事後在臉書專頁發表宣傳產品的貼文，當中「唔准叫我獅子狗」的字眼被指辱警。中聯辦主導的《文匯報》及《大公報》報道，吉野家已跟外判廣告公司解約，負責廣告事務的公司員工已亦被解聘。職工盟今午到油麻地吉野家僑江大廈分店抗議，批評解僱工做法屬政治打壓，並呼籲市民「向染紅獅子狗說不！」\n\n報道引述吉野家母公司香港合興集團有限公司總裁、全國政協委員洪明基稱，他最近參加了撐警大會，全力支持特區政府依法施政，對事先不知情感到極為憤怒，亦對事件感到非常痛心。目前涉事廣告已刪除，外判廣告公司遭解約，而負責廣告事務的公司員工亦被解僱。",
        "image": "https://na.cx/i/kbcdKrf.png",
        "brand": "吉野家",
        "lat": 22.322018,
        "lon": 114.187923
    },
    {
        "id": 60,
        "name": "吉野家",
        "address": "九龍佐敦上海街121-123號金海大廈A1號地下及一樓",
        "district": "佐敦",
        "areas": "九龍區",
        "desc": "有人發夢話：「反送中」運動遍地開花，市民自發在各區設置連儂牆。近百名配備防暴裝備的持盾警員，日前凌晨前往大埔連儂牆撕走涉警資料便條紙，連鎖餐廳吉野家事後在臉書專頁發表宣傳產品的貼文，當中「唔准叫我獅子狗」的字眼被指辱警。中聯辦主導的《文匯報》及《大公報》報道，吉野家已跟外判廣告公司解約，負責廣告事務的公司員工已亦被解聘。職工盟今午到油麻地吉野家僑江大廈分店抗議，批評解僱工做法屬政治打壓，並呼籲市民「向染紅獅子狗說不！」\n\n報道引述吉野家母公司香港合興集團有限公司總裁、全國政協委員洪明基稱，他最近參加了撐警大會，全力支持特區政府依法施政，對事先不知情感到極為憤怒，亦對事件感到非常痛心。目前涉事廣告已刪除，外判廣告公司遭解約，而負責廣告事務的公司員工亦被解僱。",
        "image": "https://na.cx/i/kbcdKrf.png",
        "brand": "吉野家",
        "lat": 22.306393,
        "lon": 114.16932
    },
    {
        "id": 61,
        "name": "吉野家",
        "address": "九龍何文田何文田廣場3樓318號舖",
        "district": "何文田",
        "areas": "九龍區",
        "desc": "有人發夢話：「反送中」運動遍地開花，市民自發在各區設置連儂牆。近百名配備防暴裝備的持盾警員，日前凌晨前往大埔連儂牆撕走涉警資料便條紙，連鎖餐廳吉野家事後在臉書專頁發表宣傳產品的貼文，當中「唔准叫我獅子狗」的字眼被指辱警。中聯辦主導的《文匯報》及《大公報》報道，吉野家已跟外判廣告公司解約，負責廣告事務的公司員工已亦被解聘。職工盟今午到油麻地吉野家僑江大廈分店抗議，批評解僱工做法屬政治打壓，並呼籲市民「向染紅獅子狗說不！」\n\n報道引述吉野家母公司香港合興集團有限公司總裁、全國政協委員洪明基稱，他最近參加了撐警大會，全力支持特區政府依法施政，對事先不知情感到極為憤怒，亦對事件感到非常痛心。目前涉事廣告已刪除，外判廣告公司遭解約，而負責廣告事務的公司員工亦被解僱。",
        "image": "https://na.cx/i/kbcdKrf.png",
        "brand": "吉野家",
        "lat": 22.316179,
        "lon": 114.181765
    },
    {
        "id": 62,
        "name": "吉野家",
        "address": "九龍旺角彌敦道655號地庫",
        "district": "旺角",
        "areas": "九龍區",
        "desc": "有人發夢話：「反送中」運動遍地開花，市民自發在各區設置連儂牆。近百名配備防暴裝備的持盾警員，日前凌晨前往大埔連儂牆撕走涉警資料便條紙，連鎖餐廳吉野家事後在臉書專頁發表宣傳產品的貼文，當中「唔准叫我獅子狗」的字眼被指辱警。中聯辦主導的《文匯報》及《大公報》報道，吉野家已跟外判廣告公司解約，負責廣告事務的公司員工已亦被解聘。職工盟今午到油麻地吉野家僑江大廈分店抗議，批評解僱工做法屬政治打壓，並呼籲市民「向染紅獅子狗說不！」\n\n報道引述吉野家母公司香港合興集團有限公司總裁、全國政協委員洪明基稱，他最近參加了撐警大會，全力支持特區政府依法施政，對事先不知情感到極為憤怒，亦對事件感到非常痛心。目前涉事廣告已刪除，外判廣告公司遭解約，而負責廣告事務的公司員工亦被解僱。",
        "image": "https://na.cx/i/kbcdKrf.png",
        "brand": "吉野家",
        "lat": 22.318619,
        "lon": 114.169249
    },
    {
        "id": 63,
        "name": "吉野家",
        "address": "九龍奧海城一期地下高層UG32號舖",
        "district": "奧海城",
        "areas": "九龍區",
        "desc": "有人發夢話：「反送中」運動遍地開花，市民自發在各區設置連儂牆。近百名配備防暴裝備的持盾警員，日前凌晨前往大埔連儂牆撕走涉警資料便條紙，連鎖餐廳吉野家事後在臉書專頁發表宣傳產品的貼文，當中「唔准叫我獅子狗」的字眼被指辱警。中聯辦主導的《文匯報》及《大公報》報道，吉野家已跟外判廣告公司解約，負責廣告事務的公司員工已亦被解聘。職工盟今午到油麻地吉野家僑江大廈分店抗議，批評解僱工做法屬政治打壓，並呼籲市民「向染紅獅子狗說不！」\n\n報道引述吉野家母公司香港合興集團有限公司總裁、全國政協委員洪明基稱，他最近參加了撐警大會，全力支持特區政府依法施政，對事先不知情感到極為憤怒，亦對事件感到非常痛心。目前涉事廣告已刪除，外判廣告公司遭解約，而負責廣告事務的公司員工亦被解僱。",
        "image": "https://na.cx/i/kbcdKrf.png",
        "brand": "吉野家",
        "lat": 22.31824,
        "lon": 114.159096
    },
    {
        "id": 64,
        "name": "吉野家",
        "address": "九龍慈雲山慈雲山中心 3樓314-315 號舖",
        "district": "慈雲山",
        "areas": "九龍區",
        "desc": "有人發夢話：「反送中」運動遍地開花，市民自發在各區設置連儂牆。近百名配備防暴裝備的持盾警員，日前凌晨前往大埔連儂牆撕走涉警資料便條紙，連鎖餐廳吉野家事後在臉書專頁發表宣傳產品的貼文，當中「唔准叫我獅子狗」的字眼被指辱警。中聯辦主導的《文匯報》及《大公報》報道，吉野家已跟外判廣告公司解約，負責廣告事務的公司員工已亦被解聘。職工盟今午到油麻地吉野家僑江大廈分店抗議，批評解僱工做法屬政治打壓，並呼籲市民「向染紅獅子狗說不！」\n\n報道引述吉野家母公司香港合興集團有限公司總裁、全國政協委員洪明基稱，他最近參加了撐警大會，全力支持特區政府依法施政，對事先不知情感到極為憤怒，亦對事件感到非常痛心。目前涉事廣告已刪除，外判廣告公司遭解約，而負責廣告事務的公司員工亦被解僱。",
        "image": "https://na.cx/i/kbcdKrf.png",
        "brand": "吉野家",
        "lat": 22.348288,
        "lon": 114.200476
    },
    {
        "id": 65,
        "name": "吉野家",
        "address": "九龍彌敦道524號僑江大廈地舖",
        "district": "油麻地",
        "areas": "九龍區",
        "desc": "有人發夢話：「反送中」運動遍地開花，市民自發在各區設置連儂牆。近百名配備防暴裝備的持盾警員，日前凌晨前往大埔連儂牆撕走涉警資料便條紙，連鎖餐廳吉野家事後在臉書專頁發表宣傳產品的貼文，當中「唔准叫我獅子狗」的字眼被指辱警。中聯辦主導的《文匯報》及《大公報》報道，吉野家已跟外判廣告公司解約，負責廣告事務的公司員工已亦被解聘。職工盟今午到油麻地吉野家僑江大廈分店抗議，批評解僱工做法屬政治打壓，並呼籲市民「向染紅獅子狗說不！」\n\n報道引述吉野家母公司香港合興集團有限公司總裁、全國政協委員洪明基稱，他最近參加了撐警大會，全力支持特區政府依法施政，對事先不知情感到極為憤怒，亦對事件感到非常痛心。目前涉事廣告已刪除，外判廣告公司遭解約，而負責廣告事務的公司員工亦被解僱。",
        "image": "https://na.cx/i/kbcdKrf.png",
        "brand": "吉野家",
        "lat": 22.312662,
        "lon": 114.171026
    },
    {
        "id": 66,
        "name": "吉野家",
        "address": "九龍藍田匯景廣場 4樓 2 號舖 A部份",
        "district": "藍田",
        "areas": "九龍區",
        "desc": "有人發夢話：「反送中」運動遍地開花，市民自發在各區設置連儂牆。近百名配備防暴裝備的持盾警員，日前凌晨前往大埔連儂牆撕走涉警資料便條紙，連鎖餐廳吉野家事後在臉書專頁發表宣傳產品的貼文，當中「唔准叫我獅子狗」的字眼被指辱警。中聯辦主導的《文匯報》及《大公報》報道，吉野家已跟外判廣告公司解約，負責廣告事務的公司員工已亦被解聘。職工盟今午到油麻地吉野家僑江大廈分店抗議，批評解僱工做法屬政治打壓，並呼籲市民「向染紅獅子狗說不！」\n\n報道引述吉野家母公司香港合興集團有限公司總裁、全國政協委員洪明基稱，他最近參加了撐警大會，全力支持特區政府依法施政，對事先不知情感到極為憤怒，亦對事件感到非常痛心。目前涉事廣告已刪除，外判廣告公司遭解約，而負責廣告事務的公司員工亦被解僱。",
        "image": "https://na.cx/i/kbcdKrf.png",
        "brand": "吉野家",
        "lat": 22.307154,
        "lon": 114.233549
    },
    {
        "id": 67,
        "name": "吉野家",
        "address": "九龍灣淘大商場第一期一樓F41-45號舖",
        "district": "九龍灣",
        "areas": "九龍區",
        "desc": "有人發夢話：「反送中」運動遍地開花，市民自發在各區設置連儂牆。近百名配備防暴裝備的持盾警員，日前凌晨前往大埔連儂牆撕走涉警資料便條紙，連鎖餐廳吉野家事後在臉書專頁發表宣傳產品的貼文，當中「唔准叫我獅子狗」的字眼被指辱警。中聯辦主導的《文匯報》及《大公報》報道，吉野家已跟外判廣告公司解約，負責廣告事務的公司員工已亦被解聘。職工盟今午到油麻地吉野家僑江大廈分店抗議，批評解僱工做法屬政治打壓，並呼籲市民「向染紅獅子狗說不！」\n\n報道引述吉野家母公司香港合興集團有限公司總裁、全國政協委員洪明基稱，他最近參加了撐警大會，全力支持特區政府依法施政，對事先不知情感到極為憤怒，亦對事件感到非常痛心。目前涉事廣告已刪除，外判廣告公司遭解約，而負責廣告事務的公司員工亦被解僱。",
        "image": "https://na.cx/i/kbcdKrf.png",
        "brand": "吉野家",
        "lat": 22.307154,
        "lon": 114.233549
    },
    {
        "id": 68,
        "name": "吉野家",
        "address": "九龍觀塘成業街7號寧晉中心地下36號舖",
        "district": "觀塘",
        "areas": "九龍區",
        "desc": "有人發夢話：「反送中」運動遍地開花，市民自發在各區設置連儂牆。近百名配備防暴裝備的持盾警員，日前凌晨前往大埔連儂牆撕走涉警資料便條紙，連鎖餐廳吉野家事後在臉書專頁發表宣傳產品的貼文，當中「唔准叫我獅子狗」的字眼被指辱警。中聯辦主導的《文匯報》及《大公報》報道，吉野家已跟外判廣告公司解約，負責廣告事務的公司員工已亦被解聘。職工盟今午到油麻地吉野家僑江大廈分店抗議，批評解僱工做法屬政治打壓，並呼籲市民「向染紅獅子狗說不！」\n\n報道引述吉野家母公司香港合興集團有限公司總裁、全國政協委員洪明基稱，他最近參加了撐警大會，全力支持特區政府依法施政，對事先不知情感到極為憤怒，亦對事件感到非常痛心。目前涉事廣告已刪除，外判廣告公司遭解約，而負責廣告事務的公司員工亦被解僱。",
        "image": "https://na.cx/i/kbcdKrf.png",
        "brand": "吉野家",
        "lat": 22.311082,
        "lon": 114.226172
    },
    {
        "id": 91,
        "name": "西記粥品",
        "address": "黃大仙環鳳街26號地舖",
        "district": "黃大仙",
        "areas": "九龍區",
        "desc": "有人發夢話：唔知係伙記定老闆娘，一路睇cctvb一路鬧示威者廢青。",
        "image": "https://na.cx/i/kbcdKrf.png",
        "brand": "西記粥品",
        "lat": 22.3437596,
        "lon": 114.1982536
    },
    {
        "id": 92,
        "name": "景霖廚房(前稱麥記)",
        "address": "紅磡寶其利街73號A舖",
        "district": "紅磡",
        "areas": "九龍區",
        "desc": "有人發夢話：69之前曾經親耳聽到樓面同收銀一日最衰都係佔中(2019年喇dllm仲佔中)",
        "image": "https://na.cx/i/kbcdKrf.png",
        "brand": "景霖廚房(前稱麥記)",
        "lat": 22.3068648,
        "lon": 114.1859452
    },
    {
        "id": 93,
        "name": "木蘭館",
        "address": "石硤尾偉智里1-3號白田購物中心地下5號舖",
        "district": "石硤尾",
        "areas": "九龍區",
        "desc": "暫沒資料,希望用家提供",
        "image": "https://na.cx/i/kbcdKrf.png",
        "brand": "木蘭館",
        "lat": 22.3349604,
        "lon": 114.1669223
    },
    {
        "id": 94,
        "name": "Lei Sure",
        "address": "油麻地眾坊街59號C舖",
        "district": "油麻地",
        "areas": "九龍區",
        "desc": "有人發夢話：奶共cafe",
        "image": "https://na.cx/i/kbcdKrf.png",
        "brand": "Lei Sure",
        "lat": 22.3099238,
        "lon": 114.1690076
    },
    {
        "id": 95,
        "name": "通達食店",
        "address": "香港旺角旺角花園街172號地下",
        "district": "旺角",
        "areas": "九龍區",
        "desc": "原文網址: https://lihkg.com/thread/1215706/page/1",
        "image": "https://na.cx/i/kbcdKrf.png",
        "brand": "通達食店",
        "lat": 22.3222452,
        "lon": 114.1707015
    },
    {
        "id": 96,
        "name": "紅茶",
        "address": "旺角彌敦道594-596號地舖",
        "district": "旺角",
        "areas": "九龍區",
        "desc": "有人發夢話：12/6去食早餐親耳聽到個待應同其他伙記話我地班學生收咗人錢今日又開工啦，搞亂香港，俾狗打抵死啦",
        "image": "https://na.cx/i/kbcdKrf.png",
        "brand": "紅茶",
        "lat": 22.316221,
        "lon": 114.1702936
    },
    {
        "id": 97,
        "name": "紅磡冰室",
        "address": "香港尖沙咀金馬倫道38號",
        "district": "尖沙咀",
        "areas": "九龍區",
        "desc": "有人發夢話：紅磡冰室尖沙咀店嘅員工，就因為當住馬馬 Rose Ma面前，指一班涉及噚日金鐘警民大衝突嘅市民係「暴民」，結果喺阿Rose嘅Facebook同埋Instagram貼文被網民廣傳之後，紅磡冰室嘅負責人，唯有急急腳喺今日黃昏，發表道歉聲明，指冰室並無既定政治立場。唔少網民就表示，從今以後唔會再幫襯呢間冰室咁話。",
        "image": "https://na.cx/i/kbcdKrf.png",
        "brand": "紅磡冰室",
        "lat": 22.2989946,
        "lon": 114.1747523
    },
    {
        "id": 98,
        "name": "新聯威茶餐廳",
        "address": "尖沙咀山林道18號",
        "district": "尖沙咀",
        "areas": "九龍區",
        "desc": "暫沒資料,希望用家提供",
        "image": "https://na.cx/i/kbcdKrf.png",
        "brand": "新聯威茶餐廳",
        "lat": 22.3025625,
        "lon": 114.1730687
    },
    {
        "id": 118,
        "name": "幸福堂",
        "address": "旺角弼街51號明發大廈地下A號舖 ",
        "district": "旺角",
        "areas": "九龍區",
        "desc": "有人發夢話：老闆IG 撐警",
        "image": "https://na.cx/i/kbcdKrf.png",
        "brand": "幸福堂",
        "lat": 22.32238,
        "lon": 114.170042
    },
    {
        "id": 120,
        "name": "幸福堂",
        "address": "旺角登打士街43H號登打士廣場地下7號舖",
        "district": "旺角",
        "areas": "九龍區",
        "desc": "有人發夢話：老闆IG 撐警",
        "image": "https://na.cx/i/kbcdKrf.png",
        "brand": "幸福堂",
        "lat": 22.315613,
        "lon": 114.171112
    },
    {
        "id": 127,
        "name": "Just Salad／（同埋連埋有一間燒味鋪）",
        "address": "九龍灣宏照道25號源發工業大廈地下3號舖",
        "district": "九龍灣",
        "areas": "九龍區",
        "desc": "有人發夢話：員工喺開舖之前屌柒啲示威人士，燒味佬更加話自己係三合會成員，以前綽號小霸王",
        "image": "https://na.cx/i/kbcdKrf.png",
        "brand": "Just Salad",
        "lat": 22.32258,
        "lon": 114.209244
    },
    {
        "id": 128,
        "name": "四川辣妹子 ",
        "address": "深水埗荔枝角道204號",
        "district": "深水埗",
        "areas": "九龍區",
        "desc": "原文網址: https://lihkg.com/thread/1345593/page/1",
        "image": "https://na.cx/i/i0A6coz.png",
        "brand": "四川辣妹子 ",
        "lat": 22.326659,
        "lon": 114.163366
    },
    {
        "id": 129,
        "name": "倫敦大酒樓",
        "address": "旺角彌敦道612-618號好望角大廈",
        "district": "旺角",
        "areas": "九龍區",
        "desc": "有人發夢話：禮義廉搞黨慶地點，點會唔紅？前老闆陳茂發（而家佢個女接手）課過幾球俾工聯會",
        "image": "https://na.cx/i/kbcdKrf.png",
        "brand": "倫敦大酒樓",
        "lat": 22.317398,
        "lon": 114.170022
    },
    {
        "id": 130,
        "name": "觀塘華興麵家",
        "address": "觀塘秀茂坪寶琳路2號寶達商場地下M.C BOX",
        "district": "觀塘",
        "areas": "九龍區",
        "desc": "有人發夢話：69當晚後生店員與煮麵師傅指遊行示威者收錢，衝馬路者會多啲錢。",
        "image": "https://na.cx/i/kbcdKrf.png",
        "brand": "觀塘華興麵家",
        "lat": 22.317595,
        "lon": 114.236223
    },
    {
        "id": 131,
        "name": "觀唐碼頭 百味軒",
        "address": "觀塘碼頭熟食市場",
        "district": "觀塘",
        "areas": "九龍區",
        "desc": "有人發夢話：其中一個落單阿姨對電視指罵泛民議員張超雄",
        "image": "https://na.cx/i/kbcdKrf.png",
        "brand": "百味軒",
        "lat": 22.306785,
        "lon": 114.222405
    },
    {
        "id": 132,
        "name": "牛池灣 英輝咖啡屋",
        "address": "牛池灣金池俓29號地下",
        "district": "牛池灣",
        "areas": "九龍區",
        "desc": "有人發夢話：聽到店內待應高談闊論談打示威者，更聲稱自己是警察就打死示威者及斬示威者頭落黎",
        "image": "https://na.cx/i/kbcdKrf.png",
        "brand": "英輝咖啡屋",
        "lat": 22.334989,
        "lon": 114.208924
    },
    {
        "id": 133,
        "name": "深井陳記燒鵝",
        "address": "將軍澳唐賢街19號天晉匯II期1樓127號舖",
        "district": "將軍澳",
        "areas": "九龍區",
        "desc": "17/6 下午三時左右 \n有人發夢話：某分店員工和顧客批評學生被洗腦 逢中必反 不斷抹黑和中傷， 然而店員卻說對引渡條例的內容\n一無所知，又稱自己「讀得書少」",
        "image": "https://na.cx/i/kbcdKrf.png",
        "brand": "深井陳記燒鵝",
        "lat": 22.30578,
        "lon": 114.259278
    },
    {
        "id": 137,
        "name": "深井陳記燒鵝",
        "address": "旺角新填地街427-427A號",
        "district": "旺角",
        "areas": "九龍區",
        "desc": "17/6 下午三時左右 \n有人發夢話：某分店員工和顧客批評學生被洗腦 逢中必反 不斷抹黑和中傷， 然而店員卻說對引渡條例的內容\n一無所知，又稱自己「讀得書少」",
        "image": "https://na.cx/i/kbcdKrf.png",
        "brand": "深井陳記燒鵝",
        "lat": 22.318692,
        "lon": 114.167553
    },
    {
        "id": 138,
        "name": "深井陳記燒鵝",
        "address": "油塘高超道38號大本型3樓大食代308-312號舖",
        "district": "油塘",
        "areas": "九龍區",
        "desc": "17/6 下午三時左右 \n有人發夢話：某分店員工和顧客批評學生被洗腦 逢中必反 不斷抹黑和中傷， 然而店員卻說對引渡條例的內容\n一無所知，又稱自己「讀得書少」",
        "image": "https://na.cx/i/kbcdKrf.png",
        "brand": "深井陳記燒鵝",
        "lat": 22.296616,
        "lon": 114.238569
    },
    {
        "id": 139,
        "name": "深井陳記燒鵝",
        "address": "土瓜灣馬頭角道33欣榮花園商場地下13-14號舖",
        "district": "土瓜灣",
        "areas": "九龍區",
        "desc": "17/6 下午三時左右 \n有人發夢話：某分店員工和顧客批評學生被洗腦 逢中必反 不斷抹黑和中傷， 然而店員卻說對引渡條例的內容\n一無所知，又稱自己「讀得書少」",
        "image": "https://na.cx/i/kbcdKrf.png",
        "brand": "深井陳記燒鵝",
        "lat": 22.321053,
        "lon": 114.189092
    },
    {
        "id": 141,
        "name": "深井陳記燒鵝",
        "address": "旺角新填地街393號地舖",
        "district": "旺角",
        "areas": "九龍區",
        "desc": "17/6 下午三時左右 \n有人發夢話：某分店員工和顧客批評學生被洗腦 逢中必反 不斷抹黑和中傷， 然而店員卻說對引渡條例的內容\n一無所知，又稱自己「讀得書少」",
        "image": "https://na.cx/i/kbcdKrf.png",
        "brand": "深井陳記燒鵝",
        "lat": 22.317858,
        "lon": 114.167697
    },
    {
        "id": 142,
        "name": "鴻圖樓茶餐廳",
        "address": "牛頭角鴻圖道30號地下",
        "district": "牛頭角",
        "areas": "九龍區",
        "desc": "有人發夢話：612當日伙記睇住CCTVB不停在食肆內周圍大叫要出動解放軍鎮壓",
        "image": "https://na.cx/i/kbcdKrf.png",
        "brand": "鴻圖樓茶餐廳",
        "lat": 22.31256,
        "lon": 114.220007
    },
    {
        "id": 144,
        "name": "養心殿旺角通菜街店",
        "address": "旺角通菜街1A-1L威達商業大廈3樓3A及3B舖",
        "district": "旺角",
        "areas": "九龍區",
        "desc": "原文網址: https://lih.kg/1220224\n有人發夢話：養心殿老細話上街果班年輕人全部係被煽動 \n\n養心殿老闆KaFai Chan旗下餐廳：\n養心麵\n靖 omakase\n灣仔靠炆雞",
        "image": "https://na.cx/i/kbcdKrf.png",
        "brand": "養心殿",
        "lat": 22.316335,
        "lon": 114.171026
    },
    {
        "id": 146,
        "name": "養心殿尖沙咀店",
        "address": "棉登徑8號地庫",
        "district": "尖沙咀",
        "areas": "九龍區",
        "desc": "原文網址: https://lih.kg/1220224\n有人發夢話：養心殿老細話上街果班年輕人全部係被煽動 \n\n養心殿老闆KaFai Chan旗下餐廳：\n養心麵\n靖 omakase\n灣仔靠炆雞",
        "image": "https://na.cx/i/kbcdKrf.png",
        "brand": "養心殿",
        "lat": 22.296758,
        "lon": 114.174195
    },
    {
        "id": 147,
        "name": "養心殿佐敦店",
        "address": "吳松街182號榮國中心2樓",
        "district": "佐敦",
        "areas": "九龍區",
        "desc": "原文網址: https://lih.kg/1220224\n有人發夢話：養心殿老細話上街果班年輕人全部係被煽動 \n\n養心殿老闆KaFai Chan旗下餐廳：\n養心麵\n靖 omakase\n灣仔靠炆雞",
        "image": "https://na.cx/i/kbcdKrf.png",
        "brand": "養心殿",
        "lat": 22.303722,
        "lon": 114.170343
    },
    {
        "id": 151,
        "name": "靖尖沙咀店",
        "address": "尖沙咀赫德道2號金麟中心7樓",
        "district": "尖沙咀",
        "areas": "九龍區",
        "desc": "原文網址: https://lih.kg/1220224\n有人發夢話：養心殿老細話上街果班年輕人全部係被煽動 \n\n養心殿老闆KaFai Chan旗下餐廳：\n養心麵\n靖 omakase\n灣仔靠炆雞",
        "image": "https://na.cx/i/kbcdKrf.png",
        "brand": "養心殿",
        "lat": 22.298262,
        "lon": 114.174409
    },
    {
        "id": 158,
        "name": "魔怪食堂",
        "address": "何文田窩打老道67E號怡景大廈",
        "district": "何文田",
        "areas": "九龍區",
        "desc": "原文網址: https://lihkg.com/thread/1412511/page/1\n有人發夢話：老細係咁X罷工示威 仲話今朝架車撞得岩 撞撚死曬佢地就岩",
        "image": "https://na.cx/i/kbcdKrf.png",
        "brand": "魔怪食堂",
        "lat": 22.318441,
        "lon": 114.174863
    },
    {
        "id": 162,
        "name": "新樂餐廳",
        "address": "佐敦彌敦道223號新樂酒店閣樓",
        "district": "佐敦",
        "areas": "九龍區",
        "desc": "原文網址: https://lihkg.com/thread/1407523/page/1\n有人發夢話：琴日係彌敦道行緊去老尖，路經油麻地間新樂餐廳，我地拎住D保護物資好重，就入去飲杯嘢，朋友聽住個reception報警叫人黎。我地即刻走人。D人話個老闆幫黑警做嘢。",
        "image": "https://na.cx/i/kbcdKrf.png",
        "brand": "新樂餐廳",
        "lat": 22.304268,
        "lon": 114.17148
    },
    {
        "id": 165,
        "name": "一芳台灣水果茶",
        "address": "旺角亞皆老街8號朗豪坊4樓20號舖",
        "district": "旺角",
        "areas": "九龍區",
        "desc": "其實呢作為一芳總部員工我會選擇同大家講事實。請大家善用起底功能起我底同我老闆底。大家睇完我講既野想罷既仍然可以罷\n係呢一刻我可以同大家講選擇同我地割蓆既係台灣總代理同大陸代理而佢地都係同一個人。我老闆係極深黃。\n以我老闆即係一芳香港總代理由612到今日佢都全力去支持我比我選擇罷工。甚至我去到示威現場佢都關心我有冇事叫我唔好衝。\n咁我想問下作為香港人既我地立場夠唔夠明顯？\n點解要信用簡體字出聲明既人？\n香港人係唔用微博攪清楚\n我可以選擇唔出聲。但我唔想做港豬做既野\n\n--------------------------------\n\n「一芳台灣水果茶」5日發聲明指出，有部分網路用戶拍攝，並傳播一芳門店撰寫（與香港人同行）店休說明，並張貼在門店的畫面。他們在官方微博上發文支持一國兩制，同時譴責香港暴力罷工，並對違約門店即刻採取解約關店動作。\n\n原文網址: 「三罷」重創香港！一芳台灣水果茶「20家」港門店堅持營業：支持一國兩制 | ETtoday大陸 | ETtoday新聞雲 https://www.ettoday.net/news/20190805/1506424.htm#ixzz5vjKvH0K5 ",
        "image": "https://na.cx/i/e3QTmCh.png",
        "brand": "一芳台灣水果茶",
        "lat": 22.318069,
        "lon": 114.168766
    },
    {
        "id": 167,
        "name": "一芳台灣水果茶",
        "address": "尖沙咀彌敦道132號美麗華廣場一期1樓109A號舖",
        "district": "尖沙咀",
        "areas": "九龍區",
        "desc": "其實呢作為一芳總部員工我會選擇同大家講事實。請大家善用起底功能起我底同我老闆底。大家睇完我講既野想罷既仍然可以罷\n係呢一刻我可以同大家講選擇同我地割蓆既係台灣總代理同大陸代理而佢地都係同一個人。我老闆係極深黃。\n以我老闆即係一芳香港總代理由612到今日佢都全力去支持我比我選擇罷工。甚至我去到示威現場佢都關心我有冇事叫我唔好衝。\n咁我想問下作為香港人既我地立場夠唔夠明顯？\n點解要信用簡體字出聲明既人？\n香港人係唔用微博攪清楚\n我可以選擇唔出聲。但我唔想做港豬做既野\n\n--------------------------------\n\n「一芳台灣水果茶」5日發聲明指出，有部分網路用戶拍攝，並傳播一芳門店撰寫（與香港人同行）店休說明，並張貼在門店的畫面。他們在官方微博上發文支持一國兩制，同時譴責香港暴力罷工，並對違約門店即刻採取解約關店動作。\n\n原文網址: 「三罷」重創香港！一芳台灣水果茶「20家」港門店堅持營業：支持一國兩制 | ETtoday大陸 | ETtoday新聞雲 https://www.ettoday.net/news/20190805/1506424.htm#ixzz5vjKvH0K5 ",
        "image": "https://na.cx/i/e3QTmCh.png",
        "brand": "一芳台灣水果茶",
        "lat": 22.300962,
        "lon": 114.172549
    },
    {
        "id": 171,
        "name": "一芳台灣水果茶",
        "address": "黃大仙龍翔道136號黃大仙中心北館地下G05A及G05B號舖",
        "district": "黃大仙",
        "areas": "九龍區",
        "desc": "其實呢作為一芳總部員工我會選擇同大家講事實。請大家善用起底功能起我底同我老闆底。大家睇完我講既野想罷既仍然可以罷\n係呢一刻我可以同大家講選擇同我地割蓆既係台灣總代理同大陸代理而佢地都係同一個人。我老闆係極深黃。\n以我老闆即係一芳香港總代理由612到今日佢都全力去支持我比我選擇罷工。甚至我去到示威現場佢都關心我有冇事叫我唔好衝。\n咁我想問下作為香港人既我地立場夠唔夠明顯？\n點解要信用簡體字出聲明既人？\n香港人係唔用微博攪清楚\n我可以選擇唔出聲。但我唔想做港豬做既野\n\n--------------------------------\n\n「一芳台灣水果茶」5日發聲明指出，有部分網路用戶拍攝，並傳播一芳門店撰寫（與香港人同行）店休說明，並張貼在門店的畫面。他們在官方微博上發文支持一國兩制，同時譴責香港暴力罷工，並對違約門店即刻採取解約關店動作。\n\n原文網址: 「三罷」重創香港！一芳台灣水果茶「20家」港門店堅持營業：支持一國兩制 | ETtoday大陸 | ETtoday新聞雲 https://www.ettoday.net/news/20190805/1506424.htm#ixzz5vjKvH0K5 ",
        "image": "https://na.cx/i/e3QTmCh.png",
        "brand": "一芳台灣水果茶",
        "lat": 22.34138,
        "lon": 114.194213
    },
    {
        "id": 173,
        "name": "一芳台灣水果茶",
        "address": "深水埗欽州街96號地下",
        "district": "深水埗",
        "areas": "九龍區",
        "desc": "其實呢作為一芳總部員工我會選擇同大家講事實。請大家善用起底功能起我底同我老闆底。大家睇完我講既野想罷既仍然可以罷\n係呢一刻我可以同大家講選擇同我地割蓆既係台灣總代理同大陸代理而佢地都係同一個人。我老闆係極深黃。\n以我老闆即係一芳香港總代理由612到今日佢都全力去支持我比我選擇罷工。甚至我去到示威現場佢都關心我有冇事叫我唔好衝。\n咁我想問下作為香港人既我地立場夠唔夠明顯？\n點解要信用簡體字出聲明既人？\n香港人係唔用微博攪清楚\n我可以選擇唔出聲。但我唔想做港豬做既野\n\n--------------------------------\n\n「一芳台灣水果茶」5日發聲明指出，有部分網路用戶拍攝，並傳播一芳門店撰寫（與香港人同行）店休說明，並張貼在門店的畫面。他們在官方微博上發文支持一國兩制，同時譴責香港暴力罷工，並對違約門店即刻採取解約關店動作。\n\n原文網址: 「三罷」重創香港！一芳台灣水果茶「20家」港門店堅持營業：支持一國兩制 | ETtoday大陸 | ETtoday新聞雲 https://www.ettoday.net/news/20190805/1506424.htm#ixzz5vjKvH0K5 ",
        "image": "https://na.cx/i/e3QTmCh.png",
        "brand": "一芳台灣水果茶",
        "lat": 22.332668,
        "lon": 114.162125
    },
    {
        "id": 177,
        "name": "一芳台灣水果茶",
        "address": "觀塘觀塘道418號創紀之城五期apm4樓L4-26號舖",
        "district": "觀塘",
        "areas": "九龍區",
        "desc": "其實呢作為一芳總部員工我會選擇同大家講事實。請大家善用起底功能起我底同我老闆底。大家睇完我講既野想罷既仍然可以罷\n係呢一刻我可以同大家講選擇同我地割蓆既係台灣總代理同大陸代理而佢地都係同一個人。我老闆係極深黃。\n以我老闆即係一芳香港總代理由612到今日佢都全力去支持我比我選擇罷工。甚至我去到示威現場佢都關心我有冇事叫我唔好衝。\n咁我想問下作為香港人既我地立場夠唔夠明顯？\n點解要信用簡體字出聲明既人？\n香港人係唔用微博攪清楚\n我可以選擇唔出聲。但我唔想做港豬做既野\n\n--------------------------------\n\n「一芳台灣水果茶」5日發聲明指出，有部分網路用戶拍攝，並傳播一芳門店撰寫（與香港人同行）店休說明，並張貼在門店的畫面。他們在官方微博上發文支持一國兩制，同時譴責香港暴力罷工，並對違約門店即刻採取解約關店動作。\n\n原文網址: 「三罷」重創香港！一芳台灣水果茶「20家」港門店堅持營業：支持一國兩制 | ETtoday大陸 | ETtoday新聞雲 https://www.ettoday.net/news/20190805/1506424.htm#ixzz5vjKvH0K5 ",
        "image": "https://na.cx/i/e3QTmCh.png",
        "brand": "一芳台灣水果茶",
        "lat": 22.312325,
        "lon": 114.225298
    },
    {
        "id": 178,
        "name": "一芳台灣水果茶",
        "address": "尖沙咀加連威老道100號港晶中心地下58號鋪",
        "district": "尖沙咀",
        "areas": "九龍區",
        "desc": "其實呢作為一芳總部員工我會選擇同大家講事實。請大家善用起底功能起我底同我老闆底。大家睇完我講既野想罷既仍然可以罷\n係呢一刻我可以同大家講選擇同我地割蓆既係台灣總代理同大陸代理而佢地都係同一個人。我老闆係極深黃。\n以我老闆即係一芳香港總代理由612到今日佢都全力去支持我比我選擇罷工。甚至我去到示威現場佢都關心我有冇事叫我唔好衝。\n咁我想問下作為香港人既我地立場夠唔夠明顯？\n點解要信用簡體字出聲明既人？\n香港人係唔用微博攪清楚\n我可以選擇唔出聲。但我唔想做港豬做既野\n\n--------------------------------\n\n「一芳台灣水果茶」5日發聲明指出，有部分網路用戶拍攝，並傳播一芳門店撰寫（與香港人同行）店休說明，並張貼在門店的畫面。他們在官方微博上發文支持一國兩制，同時譴責香港暴力罷工，並對違約門店即刻採取解約關店動作。\n\n原文網址: 「三罷」重創香港！一芳台灣水果茶「20家」港門店堅持營業：支持一國兩制 | ETtoday大陸 | ETtoday新聞雲 https://www.ettoday.net/news/20190805/1506424.htm#ixzz5vjKvH0K5 ",
        "image": "https://na.cx/i/e3QTmCh.png",
        "brand": "一芳台灣水果茶",
        "lat": 22.300743,
        "lon": 114.178134
    },
    {
        "id": 179,
        "name": "一芳台灣水果茶",
        "address": "樂富聯合道198號樂富廣場3樓3127號舖",
        "district": "樂富",
        "areas": "九龍區",
        "desc": "其實呢作為一芳總部員工我會選擇同大家講事實。請大家善用起底功能起我底同我老闆底。大家睇完我講既野想罷既仍然可以罷\n係呢一刻我可以同大家講選擇同我地割蓆既係台灣總代理同大陸代理而佢地都係同一個人。我老闆係極深黃。\n以我老闆即係一芳香港總代理由612到今日佢都全力去支持我比我選擇罷工。甚至我去到示威現場佢都關心我有冇事叫我唔好衝。\n咁我想問下作為香港人既我地立場夠唔夠明顯？\n點解要信用簡體字出聲明既人？\n香港人係唔用微博攪清楚\n我可以選擇唔出聲。但我唔想做港豬做既野\n\n--------------------------------\n\n「一芳台灣水果茶」5日發聲明指出，有部分網路用戶拍攝，並傳播一芳門店撰寫（與香港人同行）店休說明，並張貼在門店的畫面。他們在官方微博上發文支持一國兩制，同時譴責香港暴力罷工，並對違約門店即刻採取解約關店動作。\n\n原文網址: 「三罷」重創香港！一芳台灣水果茶「20家」港門店堅持營業：支持一國兩制 | ETtoday大陸 | ETtoday新聞雲 https://www.ettoday.net/news/20190805/1506424.htm#ixzz5vjKvH0K5 ",
        "image": "https://na.cx/i/e3QTmCh.png",
        "brand": "一芳台灣水果茶",
        "lat": 22.33779,
        "lon": 114.186664
    },
    {
        "id": 180,
        "name": "一芳台灣水果茶",
        "address": "紅磡黃埔天地聚寶坊(第11期)地庫一層11號舖",
        "district": "紅磡",
        "areas": "九龍區",
        "desc": "其實呢作為一芳總部員工我會選擇同大家講事實。請大家善用起底功能起我底同我老闆底。大家睇完我講既野想罷既仍然可以罷\n係呢一刻我可以同大家講選擇同我地割蓆既係台灣總代理同大陸代理而佢地都係同一個人。我老闆係極深黃。\n以我老闆即係一芳香港總代理由612到今日佢都全力去支持我比我選擇罷工。甚至我去到示威現場佢都關心我有冇事叫我唔好衝。\n咁我想問下作為香港人既我地立場夠唔夠明顯？\n點解要信用簡體字出聲明既人？\n香港人係唔用微博攪清楚\n我可以選擇唔出聲。但我唔想做港豬做既野\n\n--------------------------------\n\n「一芳台灣水果茶」5日發聲明指出，有部分網路用戶拍攝，並傳播一芳門店撰寫（與香港人同行）店休說明，並張貼在門店的畫面。他們在官方微博上發文支持一國兩制，同時譴責香港暴力罷工，並對違約門店即刻採取解約關店動作。\n\n原文網址: 「三罷」重創香港！一芳台灣水果茶「20家」港門店堅持營業：支持一國兩制 | ETtoday大陸 | ETtoday新聞雲 https://www.ettoday.net/news/20190805/1506424.htm#ixzz5vjKvH0K5 ",
        "image": "https://na.cx/i/e3QTmCh.png",
        "brand": "一芳台灣水果茶",
        "lat": 22.306107,
        "lon": 114.190231
    },
    {
        "id": 189,
        "name": "一芳台灣水果茶",
        "address": "觀塘偉業街180號Two Habour Square地下3號舖",
        "district": "觀塘",
        "areas": "九龍區",
        "desc": "其實呢作為一芳總部員工我會選擇同大家講事實。請大家善用起底功能起我底同我老闆底。大家睇完我講既野想罷既仍然可以罷\n係呢一刻我可以同大家講選擇同我地割蓆既係台灣總代理同大陸代理而佢地都係同一個人。我老闆係極深黃。\n以我老闆即係一芳香港總代理由612到今日佢都全力去支持我比我選擇罷工。甚至我去到示威現場佢都關心我有冇事叫我唔好衝。\n咁我想問下作為香港人既我地立場夠唔夠明顯？\n點解要信用簡體字出聲明既人？\n香港人係唔用微博攪清楚\n我可以選擇唔出聲。但我唔想做港豬做既野\n\n--------------------------------\n\n「一芳台灣水果茶」5日發聲明指出，有部分網路用戶拍攝，並傳播一芳門店撰寫（與香港人同行）店休說明，並張貼在門店的畫面。他們在官方微博上發文支持一國兩制，同時譴責香港暴力罷工，並對違約門店即刻採取解約關店動作。\n\n原文網址: 「三罷」重創香港！一芳台灣水果茶「20家」港門店堅持營業：支持一國兩制 | ETtoday大陸 | ETtoday新聞雲 https://www.ettoday.net/news/20190805/1506424.htm#ixzz5vjKvH0K5 ",
        "image": "https://na.cx/i/e3QTmCh.png",
        "brand": "一芳台灣水果茶",
        "lat": 22.309732,
        "lon": 114.221281
    },
    {
        "id": 191,
        "name": "一芳台灣水果茶",
        "address": "深水埗深旺道28號V Walk 2樓L2-108號舖",
        "district": "深水埗",
        "areas": "九龍區",
        "desc": "其實呢作為一芳總部員工我會選擇同大家講事實。請大家善用起底功能起我底同我老闆底。大家睇完我講既野想罷既仍然可以罷\n係呢一刻我可以同大家講選擇同我地割蓆既係台灣總代理同大陸代理而佢地都係同一個人。我老闆係極深黃。\n以我老闆即係一芳香港總代理由612到今日佢都全力去支持我比我選擇罷工。甚至我去到示威現場佢都關心我有冇事叫我唔好衝。\n咁我想問下作為香港人既我地立場夠唔夠明顯？\n點解要信用簡體字出聲明既人？\n香港人係唔用微博攪清楚\n我可以選擇唔出聲。但我唔想做港豬做既野\n\n--------------------------------\n\n「一芳台灣水果茶」5日發聲明指出，有部分網路用戶拍攝，並傳播一芳門店撰寫（與香港人同行）店休說明，並張貼在門店的畫面。他們在官方微博上發文支持一國兩制，同時譴責香港暴力罷工，並對違約門店即刻採取解約關店動作。\n\n原文網址: 「三罷」重創香港！一芳台灣水果茶「20家」港門店堅持營業：支持一國兩制 | ETtoday大陸 | ETtoday新聞雲 https://www.ettoday.net/news/20190805/1506424.htm#ixzz5vjKvH0K5 ",
        "image": "https://na.cx/i/e3QTmCh.png",
        "brand": "一芳台灣水果茶",
        "lat": 22.327128,
        "lon": 114.154021
    },
    {
        "id": 195,
        "name": "茶理史",
        "address": "觀塘協和街9號舖協和大廈",
        "district": "觀塘",
        "areas": "九龍區",
        "desc": "原文網址: https://www.weibo.com/yghwq?is_hot=1\nRainhuangwq \n8月6日 12:00 来自 iPhone客户端\n[泪]大家好，我是香港茶理史觀塘店的老闆。作為香港的一份子有義務去守護國家主權和尊嚴，但也因為是在香港本土的原因，我們這些平民百姓遭受暴徒的暴力衝擊與威脅，過去的這個月苦不堪言，我們對此恨之入骨，更在昨天被逼拉閘關門，我謹代表我自己更是迫切希望國家能為我出頭[泪]",
        "image": "https://na.cx/i/3RrLjx4.png",
        "brand": "茶理史",
        "lat": 22.316641,
        "lon": 114.226232
    },
    {
        "id": 196,
        "name": "食得樂 小廚餐廳",
        "address": "長沙灣青山道250號地舖 ",
        "district": "長沙灣",
        "areas": "九龍區",
        "desc": "有人發夢話：d小二同老闆全部深藍，稱示威者為暴徒並聲言最好開槍殺晒",
        "image": "https://na.cx/i/kbcdKrf.png",
        "brand": "食得樂 小廚餐廳",
        "lat": 22.337476,
        "lon": 114.157812
    },
    {
        "id": 201,
        "name": "極尚大喜屋日本料理",
        "address": "尖沙咀加連威老道2-6號愛賓商業大廈1樓102號舖",
        "district": "尖沙咀",
        "areas": "九龍區",
        "desc": "原文網址: https://lihkg.com/thread/1413576/page/1?post=1\n有人發夢話：沙田大喜屋 話8月5日有咩事 公司係唔會負責\n\n大喜屋集團旗下 吉壽 :\n有人發夢話：我頭喺呢間吉壽食緊飯， 樓下差佬掃旺進行中，\n 吉壽有服務員大叔不斷四圍同食客話: 最好出解放軍打死哂樓下啲示威者 \n已經無人想答佢，佢仲不停講，十分煩嫌！ \n本身個個星期去，宜家永不再去幫親。 \n\n吉壽日本料理 吉壽本格御品放題 有冇咩回應\nAdmin已inbox呢兩個page，但尚未有回復",
        "image": "https://na.cx/i/kbcdKrf.png",
        "brand": "大喜屋",
        "lat": 22.299441,
        "lon": 114.172615
    },
    {
        "id": 202,
        "name": "殿 大喜屋日本料理",
        "address": "尖沙咀金巴利道26號1樓",
        "district": "尖沙咀",
        "areas": "九龍區",
        "desc": "原文網址: https://lihkg.com/thread/1413576/page/1?post=1\n有人發夢話：沙田大喜屋 話8月5日有咩事 公司係唔會負責\n\n大喜屋集團旗下 吉壽 :\n有人發夢話：我頭喺呢間吉壽食緊飯， 樓下差佬掃旺進行中，\n 吉壽有服務員大叔不斷四圍同食客話: 最好出解放軍打死哂樓下啲示威者 \n已經無人想答佢，佢仲不停講，十分煩嫌！ \n本身個個星期去，宜家永不再去幫親。 \n\n吉壽日本料理 吉壽本格御品放題 有冇咩回應\nAdmin已inbox呢兩個page，但尚未有回復",
        "image": "https://na.cx/i/kbcdKrf.png",
        "brand": "大喜屋",
        "lat": 22.300563,
        "lon": 114.17343
    },
    {
        "id": 203,
        "name": "樂天大喜屋日本料理",
        "address": "旺角彌敦道593-601號創興廣場2樓",
        "district": "旺角",
        "areas": "九龍區",
        "desc": "原文網址: https://lihkg.com/thread/1413576/page/1?post=1\n有人發夢話：沙田大喜屋 話8月5日有咩事 公司係唔會負責\n\n大喜屋集團旗下 吉壽 :\n有人發夢話：我頭喺呢間吉壽食緊飯， 樓下差佬掃旺進行中，\n 吉壽有服務員大叔不斷四圍同食客話: 最好出解放軍打死哂樓下啲示威者 \n已經無人想答佢，佢仲不停講，十分煩嫌！ \n本身個個星期去，宜家永不再去幫親。 \n\n吉壽日本料理 吉壽本格御品放題 有冇咩回應\nAdmin已inbox呢兩個page，但尚未有回復",
        "image": "https://na.cx/i/kbcdKrf.png",
        "brand": "大喜屋",
        "lat": 22.316259,
        "lon": 114.169728
    },
    {
        "id": 205,
        "name": "大喜屋日本料理 ",
        "address": "尖沙咀彌敦道74-78號文遜大厦5樓",
        "district": "尖沙咀",
        "areas": "九龍區",
        "desc": "原文網址: https://lihkg.com/thread/1413576/page/1?post=1\n有人發夢話：沙田大喜屋 話8月5日有咩事 公司係唔會負責\n\n大喜屋集團旗下 吉壽 :\n有人發夢話：我頭喺呢間吉壽食緊飯， 樓下差佬掃旺進行中，\n 吉壽有服務員大叔不斷四圍同食客話: 最好出解放軍打死哂樓下啲示威者 \n已經無人想答佢，佢仲不停講，十分煩嫌！ \n本身個個星期去，宜家永不再去幫親。 \n\n吉壽日本料理 吉壽本格御品放題 有冇咩回應\nAdmin已inbox呢兩個page，但尚未有回復",
        "image": "https://na.cx/i/kbcdKrf.png",
        "brand": "大喜屋",
        "lat": 22.298413,
        "lon": 114.172482
    },
    {
        "id": 208,
        "name": "極尚大瀛喜日本料理",
        "address": "觀塘觀塘道414號號 5 樓 One Pacific Centre",
        "district": "觀塘",
        "areas": "九龍區",
        "desc": "原文網址: https://lihkg.com/thread/1413576/page/1?post=1\n有人發夢話：沙田大喜屋 話8月5日有咩事 公司係唔會負責\n\n大喜屋集團旗下 吉壽 :\n有人發夢話：我頭喺呢間吉壽食緊飯， 樓下差佬掃旺進行中，\n 吉壽有服務員大叔不斷四圍同食客話: 最好出解放軍打死哂樓下啲示威者 \n已經無人想答佢，佢仲不停講，十分煩嫌！ \n本身個個星期去，宜家永不再去幫親。 \n\n吉壽日本料理 吉壽本格御品放題 有冇咩回應\nAdmin已inbox呢兩個page，但尚未有回復",
        "image": "https://na.cx/i/kbcdKrf.png",
        "brand": "大喜屋",
        "lat": 22.312576,
        "lon": 114.224485
    },
    {
        "id": 211,
        "name": "大滿喜",
        "address": "觀塘觀塘道414, Kwun Tong號10/F One Pacific Centre",
        "district": "觀塘",
        "areas": "九龍區",
        "desc": "原文網址: https://lihkg.com/thread/1413576/page/1?post=1\n有人發夢話：沙田大喜屋 話8月5日有咩事 公司係唔會負責\n\n大喜屋集團旗下 吉壽 :\n有人發夢話：我頭喺呢間吉壽食緊飯， 樓下差佬掃旺進行中，\n 吉壽有服務員大叔不斷四圍同食客話: 最好出解放軍打死哂樓下啲示威者 \n已經無人想答佢，佢仲不停講，十分煩嫌！ \n本身個個星期去，宜家永不再去幫親。 \n\n吉壽日本料理 吉壽本格御品放題 有冇咩回應\nAdmin已inbox呢兩個page，但尚未有回復",
        "image": "https://na.cx/i/kbcdKrf.png",
        "brand": "大喜屋",
        "lat": 22.312568,
        "lon": 114.224624
    },
    {
        "id": 212,
        "name": "大滿喜",
        "address": "旺角彌敦道601號創興廣場8樓",
        "district": "旺角",
        "areas": "九龍區",
        "desc": "原文網址: https://lihkg.com/thread/1413576/page/1?post=1\n有人發夢話：沙田大喜屋 話8月5日有咩事 公司係唔會負責\n\n大喜屋集團旗下 吉壽 :\n有人發夢話：我頭喺呢間吉壽食緊飯， 樓下差佬掃旺進行中，\n 吉壽有服務員大叔不斷四圍同食客話: 最好出解放軍打死哂樓下啲示威者 \n已經無人想答佢，佢仲不停講，十分煩嫌！ \n本身個個星期去，宜家永不再去幫親。 \n\n吉壽日本料理 吉壽本格御品放題 有冇咩回應\nAdmin已inbox呢兩個page，但尚未有回復",
        "image": "https://na.cx/i/kbcdKrf.png",
        "brand": "大喜屋",
        "lat": 22.316224,
        "lon": 114.169804
    }
]