[
    {
        "id": 1,
        "name": "14 天家居檢疫人士",
        "brand": "14 天家居檢疫人士",
        "address": "德福道西334-350號恒裕大廈",
        "district": "中西區",
        "areas": "香港島",
        "desc": "正在接受 14 天家居檢疫人士所居住的大廈名單\nhttps://www.chp.gov.hk/files/pdf/list_of_buildings_tc.pdf",
        "lat": 22.2870178,
        "lon": 114.1382124
    },
    {
        "id": 2,
        "name": "14 天家居檢疫人士",
        "brand": "14 天家居檢疫人士",
        "address": "德輔道西464號碧華閣",
        "district": "中西區",
        "areas": "香港島",
        "desc": "正在接受 14 天家居檢疫人士所居住的大廈名單\nhttps://www.chp.gov.hk/files/pdf/list_of_buildings_tc.pdf",
        "lat": 22.2869853,
        "lon": 114.1327646
    },
    {
        "id": 3,
        "name": "14 天家居檢疫人士",
        "brand": "14 天家居檢疫人士",
        "address": "德輔道西296-302號良基大廈",
        "district": "中西區",
        "areas": "香港島",
        "desc": "正在接受 14 天家居檢疫人士所居住的大廈名單\nhttps://www.chp.gov.hk/files/pdf/list_of_buildings_tc.pdf",
        "lat": 22.2873582,
        "lon": 114.1392674
    },
    {
        "id": 4,
        "name": "14 天家居檢疫人士",
        "brand": "14 天家居檢疫人士",
        "address": "香港大學第三學生村-日新學院",
        "district": "中西區",
        "areas": "香港島",
        "desc": "正在接受 14 天家居檢疫人士所居住的大廈名單\nhttps://www.chp.gov.hk/files/pdf/list_of_buildings_tc.pdf",
        "lat": 22.2795175,
        "lon": 114.1285314
    },
    {
        "id": 5,
        "name": "14 天家居檢疫人士",
        "brand": "14 天家居檢疫人士",
        "address": "鰂魚涌新威園C座",
        "district": "東區",
        "areas": "香港島",
        "desc": "正在接受 14 天家居檢疫人士所居住的大廈名單\nhttps://www.chp.gov.hk/files/pdf/list_of_buildings_tc.pdf",
        "lat": 22.2858779,
        "lon": 114.2117669
    },
    {
        "id": 6,
        "name": "14 天家居檢疫人士",
        "brand": "14 天家居檢疫人士",
        "address": "迎東邨迎悅樓",
        "district": "離島",
        "areas": "新界區",
        "desc": "正在接受 14 天家居檢疫人士所居住的大廈名單\nhttps://www.chp.gov.hk/files/pdf/list_of_buildings_tc.pdf",
        "lat": 22.2960872,
        "lon": 113.9540198
    },
    {
        "id": 7,
        "name": "14 天家居檢疫人士",
        "brand": "14 天家居檢疫人士",
        "address": "福佬村道44A號福興樓",
        "district": "九龍城",
        "areas": "九龍區",
        "desc": "正在接受 14 天家居檢疫人士所居住的大廈名單\nhttps://www.chp.gov.hk/files/pdf/list_of_buildings_tc.pdf",
        "lat": 22.329171,
        "lon": 114.187687
    },
    {
        "id": 8,
        "name": "14 天家居檢疫人士",
        "brand": "14 天家居檢疫人士",
        "address": "華豐街7-8號衡豐樓",
        "district": "九龍城",
        "areas": "九龍區",
        "desc": "正在接受 14 天家居檢疫人士所居住的大廈名單\nhttps://www.chp.gov.hk/files/pdf/list_of_buildings_tc.pdf",
        "lat": 22.3073775,
        "lon": 114.1826942
    },
    {
        "id": 9,
        "name": "14 天家居檢疫人士",
        "brand": "14 天家居檢疫人士",
        "address": "窩打老道3A號",
        "district": "九龍城",
        "areas": "九龍區",
        "desc": "正在接受 14 天家居檢疫人士所居住的大廈名單\nhttps://www.chp.gov.hk/files/pdf/list_of_buildings_tc.pdf",
        "lat": 22.3130285,
        "lon": 114.1697701
    },
    {
        "id": 10,
        "name": "14 天家居檢疫人士",
        "brand": "14 天家居檢疫人士",
        "address": "葵芳邨葵正樓",
        "district": "葵青",
        "areas": "新界區",
        "desc": "正在接受 14 天家居檢疫人士所居住的大廈名單\nhttps://www.chp.gov.hk/files/pdf/list_of_buildings_tc.pdf",
        "lat": 22.3580368,
        "lon": 114.1292112
    },
    {
        "id": 11,
        "name": "14 天家居檢疫人士",
        "brand": "14 天家居檢疫人士",
        "address": "葵涌廣埸第一座",
        "district": "葵青",
        "areas": "新界區",
        "desc": "正在接受 14 天家居檢疫人士所居住的大廈名單\nhttps://www.chp.gov.hk/files/pdf/list_of_buildings_tc.pdf",
        "lat": 22.3581336,
        "lon": 114.1276576
    },
    {
        "id": 12,
        "name": "14 天家居檢疫人士",
        "brand": "14 天家居檢疫人士",
        "address": "順天邨天池樓",
        "district": "觀塘",
        "areas": "九龍區",
        "desc": "正在接受 14 天家居檢疫人士所居住的大廈名單\nhttps://www.chp.gov.hk/files/pdf/list_of_buildings_tc.pdf",
        "lat": 22.3249163,
        "lon": 114.2264882
    },
    {
        "id": 13,
        "name": "14 天家居檢疫人士",
        "brand": "14 天家居檢疫人士",
        "address": "怡明邨怡茵樓",
        "district": "西貢",
        "areas": "新界區",
        "desc": "正在接受 14 天家居檢疫人士所居住的大廈名單\nhttps://www.chp.gov.hk/files/pdf/list_of_buildings_tc.pdf",
        "lat": 22.3059187,
        "lon": 114.263243
    },
    {
        "id": 14,
        "name": "14 天家居檢疫人士",
        "brand": "14 天家居檢疫人士",
        "address": "清水灣道大埔仔村",
        "district": "西貢",
        "areas": "新界區",
        "desc": "正在接受 14 天家居檢疫人士所居住的大廈名單\nhttps://www.chp.gov.hk/files/pdf/list_of_buildings_tc.pdf",
        "lat": 22.3375479,
        "lon": 114.2590469
    },
    {
        "id": 15,
        "name": "14 天家居檢疫人士",
        "brand": "14 天家居檢疫人士",
        "address": "水泉澳邨峻泉樓",
        "district": "沙田",
        "areas": "新界區",
        "desc": "正在接受 14 天家居檢疫人士所居住的大廈名單\nhttps://www.chp.gov.hk/files/pdf/list_of_buildings_tc.pdf",
        "lat": 22.3712638,
        "lon": 114.1995296
    },
    {
        "id": 16,
        "name": "14 天家居檢疫人士",
        "brand": "14 天家居檢疫人士",
        "address": "新港城中心4期K座",
        "district": "沙田",
        "areas": "新界區",
        "desc": "正在接受 14 天家居檢疫人士所居住的大廈名單\nhttps://www.chp.gov.hk/files/pdf/list_of_buildings_tc.pdf",
        "lat": 22.4236818,
        "lon": 114.230802
    },
    {
        "id": 17,
        "name": "14 天家居檢疫人士",
        "brand": "14 天家居檢疫人士",
        "address": "沙田第一城49座",
        "district": "沙田",
        "areas": "新界區",
        "desc": "正在接受 14 天家居檢疫人士所居住的大廈名單\nhttps://www.chp.gov.hk/files/pdf/list_of_buildings_tc.pdf",
        "lat": 22.3850579,
        "lon": 114.2028502
    },
    {
        "id": 18,
        "name": "14 天家居檢疫人士",
        "brand": "14 天家居檢疫人士",
        "address": "香港中文大學陳昆棟樓",
        "district": "沙田",
        "areas": "新界區",
        "desc": "正在接受 14 天家居檢疫人士所居住的大廈名單\nhttps://www.chp.gov.hk/files/pdf/list_of_buildings_tc.pdf",
        "lat": 22.419625,
        "lon": 114.2067606
    },
    {
        "id": 19,
        "name": "14 天家居檢疫人士",
        "brand": "14 天家居檢疫人士",
        "address": "漁安苑銀安閣",
        "district": "南區",
        "areas": "香港島",
        "desc": "正在接受 14 天家居檢疫人士所居住的大廈名單\nhttps://www.chp.gov.hk/files/pdf/list_of_buildings_tc.pdf",
        "lat": 22.2429797,
        "lon": 114.1563056
    },
    {
        "id": 20,
        "name": "14 天家居檢疫人士",
        "brand": "14 天家居檢疫人士",
        "address": "竹園南邨麗園樓",
        "district": "黃大仙",
        "areas": "九龍區",
        "desc": "正在接受 14 天家居檢疫人士所居住的大廈名單\nhttps://www.chp.gov.hk/files/pdf/list_of_buildings_tc.pdf",
        "lat": 22.344904,
        "lon": 114.194352
    },
    {
        "id": 21,
        "name": "14 天家居檢疫人士",
        "brand": "14 天家居檢疫人士",
        "address": "黃大仙下邨龍逸樓",
        "district": "黃大仙",
        "areas": "九龍區",
        "desc": "正在接受 14 天家居檢疫人士所居住的大廈名單\nhttps://www.chp.gov.hk/files/pdf/list_of_buildings_tc.pdf",
        "lat": 22.3388379,
        "lon": 114.1956285
    },
    {
        "id": 22,
        "name": "14 天家居檢疫人士",
        "brand": "14 天家居檢疫人士",
        "address": "利奧坊曉岸第二座",
        "district": "油尖旺",
        "areas": "九龍區",
        "desc": "正在接受 14 天家居檢疫人士所居住的大廈名單\nhttps://www.chp.gov.hk/files/pdf/list_of_buildings_tc.pdf",
        "lat": 22.3207471,
        "lon": 114.161429
    },
    {
        "id": 23,
        "name": "14 天家居檢疫人士",
        "brand": "14 天家居檢疫人士",
        "address": "佐敦道18-24號鴻運大廈",
        "district": "油尖旺",
        "areas": "九龍區",
        "desc": "正在接受 14 天家居檢疫人士所居住的大廈名單\nhttps://www.chp.gov.hk/files/pdf/list_of_buildings_tc.pdf",
        "lat": 22.3050121,
        "lon": 114.1707348
    },
    {
        "id": 24,
        "name": "14 天家居檢疫人士",
        "brand": "14 天家居檢疫人士",
        "address": "利奧坊曉岸第一座",
        "district": "油尖旺",
        "areas": "九龍區",
        "desc": "正在接受 14 天家居檢疫人士所居住的大廈名單\nhttps://www.chp.gov.hk/files/pdf/list_of_buildings_tc.pdf",
        "lat": 22.3207471,
        "lon": 114.161429
    },
    {
        "id": 25,
        "name": "14 天家居檢疫人士",
        "brand": "14 天家居檢疫人士",
        "address": "砵蘭街46-52號iRent油麻地公寓",
        "district": "油尖旺",
        "areas": "九龍區",
        "desc": "正在接受 14 天家居檢疫人士所居住的大廈名單\nhttps://www.chp.gov.hk/files/pdf/list_of_buildings_tc.pdf",
        "lat": 22.3132856,
        "lon": 114.1701078
    },
    {
        "id": 26,
        "name": "14 天家居檢疫人士",
        "brand": "14 天家居檢疫人士",
        "address": "錦上路牛徑村",
        "district": "元朗",
        "areas": "新界區",
        "desc": "正在接受 14 天家居檢疫人士所居住的大廈名單\nhttps://www.chp.gov.hk/files/pdf/list_of_buildings_tc.pdf",
        "lat": 22.42808,
        "lon": 114.082786
    },
    {
        "id": 27,
        "name": "14 天家居檢疫人士",
        "brand": "14 天家居檢疫人士",
        "address": "加惠臺1座",
        "district": "中西區",
        "areas": "香港島",
        "desc": "正在接受 14 天家居檢疫人士所居住的大廈名單\nhttps://www.chp.gov.hk/files/pdf/list_of_buildings_tc.pdf",
        "lat": 22.2816147,
        "lon": 114.1245019
    },
    {
        "id": 28,
        "name": "14 天家居檢疫人士",
        "brand": "14 天家居檢疫人士",
        "address": "香港大學賽馬會第三學生村宿舍B棟",
        "district": "中西區",
        "areas": "香港島",
        "desc": "正在接受 14 天家居檢疫人士所居住的大廈名單\nhttps://www.chp.gov.hk/files/pdf/list_of_buildings_tc.pdf",
        "lat": 22.2788412,
        "lon": 114.1288841
    },
    {
        "id": 29,
        "name": "14 天家居檢疫人士",
        "brand": "14 天家居檢疫人士",
        "address": "南豐新邨6座",
        "district": "東區",
        "areas": "香港島",
        "desc": "正在接受 14 天家居檢疫人士所居住的大廈名單\nhttps://www.chp.gov.hk/files/pdf/list_of_buildings_tc.pdf",
        "lat": 22.281636,
        "lon": 114.2139263
    },
    {
        "id": 30,
        "name": "14 天家居檢疫人士",
        "brand": "14 天家居檢疫人士",
        "address": "翠樂邨翠祿樓",
        "district": "東區",
        "areas": "香港島",
        "desc": "正在接受 14 天家居檢疫人士所居住的大廈名單\nhttps://www.chp.gov.hk/files/pdf/list_of_buildings_tc.pdf",
        "lat": 22.2674335,
        "lon": 114.2403965
    },
    {
        "id": 31,
        "name": "14 天家居檢疫人士",
        "brand": "14 天家居檢疫人士",
        "address": "逸東邨瑞逸樓",
        "district": "離島",
        "areas": "新界區",
        "desc": "正在接受 14 天家居檢疫人士所居住的大廈名單\nhttps://www.chp.gov.hk/files/pdf/list_of_buildings_tc.pdf",
        "lat": 22.2832277,
        "lon": 113.9348249
    },
    {
        "id": 32,
        "name": "14 天家居檢疫人士",
        "brand": "14 天家居檢疫人士",
        "address": "黃埔花園第2期10座",
        "district": "九龍城",
        "areas": "九龍區",
        "desc": "正在接受 14 天家居檢疫人士所居住的大廈名單\nhttps://www.chp.gov.hk/files/pdf/list_of_buildings_tc.pdf",
        "lat": 22.305422,
        "lon": 114.191698
    },
    {
        "id": 33,
        "name": "14 天家居檢疫人士",
        "brand": "14 天家居檢疫人士",
        "address": "必嘉圍福年新樓A座",
        "district": "九龍城",
        "areas": "九龍區",
        "desc": "正在接受 14 天家居檢疫人士所居住的大廈名單\nhttps://www.chp.gov.hk/files/pdf/list_of_buildings_tc.pdf",
        "lat": 22.3069114,
        "lon": 114.1834718
    },
    {
        "id": 34,
        "name": "14 天家居檢疫人士",
        "brand": "14 天家居檢疫人士",
        "address": "大窩口邨富賢樓",
        "district": "葵青",
        "areas": "新界區",
        "desc": "正在接受 14 天家居檢疫人士所居住的大廈名單\nhttps://www.chp.gov.hk/files/pdf/list_of_buildings_tc.pdf",
        "lat": 22.3668943,
        "lon": 114.1219976
    },
    {
        "id": 35,
        "name": "14 天家居檢疫人士",
        "brand": "14 天家居檢疫人士",
        "address": "長青邨青榕樓",
        "district": "葵青",
        "areas": "新界區",
        "desc": "正在接受 14 天家居檢疫人士所居住的大廈名單\nhttps://www.chp.gov.hk/files/pdf/list_of_buildings_tc.pdf",
        "lat": 22.3446869,
        "lon": 114.1086106
    },
    {
        "id": 36,
        "name": "14 天家居檢疫人士",
        "brand": "14 天家居檢疫人士",
        "address": "彩興苑彩薈閣",
        "district": "觀塘",
        "areas": "九龍區",
        "desc": "正在接受 14 天家居檢疫人士所居住的大廈名單\nhttps://www.chp.gov.hk/files/pdf/list_of_buildings_tc.pdf",
        "lat": 22.3317367,
        "lon": 114.21438
    },
    {
        "id": 37,
        "name": "14 天家居檢疫人士",
        "brand": "14 天家居檢疫人士",
        "address": "宜安街2-4號致昌大厦",
        "district": "觀塘",
        "areas": "九龍區",
        "desc": "正在接受 14 天家居檢疫人士所居住的大廈名單\nhttps://www.chp.gov.hk/files/pdf/list_of_buildings_tc.pdf",
        "lat": 22.3152589,
        "lon": 114.2218211
    },
    {
        "id": 38,
        "name": "14 天家居檢疫人士",
        "brand": "14 天家居檢疫人士",
        "address": "平田邨平誠樓",
        "district": "觀塘",
        "areas": "九龍區",
        "desc": "正在接受 14 天家居檢疫人士所居住的大廈名單\nhttps://www.chp.gov.hk/files/pdf/list_of_buildings_tc.pdf",
        "lat": 22.305544,
        "lon": 114.2369601
    },
    {
        "id": 39,
        "name": "14 天家居檢疫人士",
        "brand": "14 天家居檢疫人士",
        "address": "日出康城5座",
        "district": "西貢",
        "areas": "新界區",
        "desc": "正在接受 14 天家居檢疫人士所居住的大廈名單\nhttps://www.chp.gov.hk/files/pdf/list_of_buildings_tc.pdf",
        "lat": 22.2972619,
        "lon": 114.2713711
    },
    {
        "id": 40,
        "name": "14 天家居檢疫人士",
        "brand": "14 天家居檢疫人士",
        "address": "李達三葉耀珍伉儷李本俊會議大樓",
        "district": "西貢",
        "areas": "新界區",
        "desc": "正在接受 14 天家居檢疫人士所居住的大廈名單\nhttps://www.chp.gov.hk/files/pdf/list_of_buildings_tc.pdf",
        "lat": 22.3321772,
        "lon": 114.2664603
    },
    {
        "id": 41,
        "name": "14 天家居檢疫人士",
        "brand": "14 天家居檢疫人士",
        "address": "佳景路9號浩明園",
        "district": "西貢",
        "areas": "新界區",
        "desc": "正在接受 14 天家居檢疫人士所居住的大廈名單\nhttps://www.chp.gov.hk/files/pdf/list_of_buildings_tc.pdf",
        "lat": 22.3216714,
        "lon": 114.2595282
    },
    {
        "id": 42,
        "name": "14 天家居檢疫人士",
        "brand": "14 天家居檢疫人士",
        "address": "顯徑邨顯富樓",
        "district": "沙田",
        "areas": "新界區",
        "desc": "正在接受 14 天家居檢疫人士所居住的大廈名單\nhttps://www.chp.gov.hk/files/pdf/list_of_buildings_tc.pdf",
        "lat": 22.3609613,
        "lon": 114.1720353
    },
    {
        "id": 43,
        "name": "14 天家居檢疫人士",
        "brand": "14 天家居檢疫人士",
        "address": "大圍名城3期3座",
        "district": "沙田",
        "areas": "新界區",
        "desc": "正在接受 14 天家居檢疫人士所居住的大廈名單\nhttps://www.chp.gov.hk/files/pdf/list_of_buildings_tc.pdf",
        "lat": 22.370148,
        "lon": 114.176375
    },
    {
        "id": 44,
        "name": "14 天家居檢疫人士",
        "brand": "14 天家居檢疫人士",
        "address": "榮昌邨榮俊樓",
        "district": "深水埗",
        "areas": "九龍區",
        "desc": "正在接受 14 天家居檢疫人士所居住的大廈名單\nhttps://www.chp.gov.hk/files/pdf/list_of_buildings_tc.pdf",
        "lat": 22.3290203,
        "lon": 114.1557561
    },
    {
        "id": 45,
        "name": "14 天家居檢疫人士",
        "brand": "14 天家居檢疫人士",
        "address": "海麗邨海和樓",
        "district": "深水埗",
        "areas": "九龍區",
        "desc": "正在接受 14 天家居檢疫人士所居住的大廈名單\nhttps://www.chp.gov.hk/files/pdf/list_of_buildings_tc.pdf",
        "lat": 22.3319553,
        "lon": 114.1469545
    },
    {
        "id": 46,
        "name": "14 天家居檢疫人士",
        "brand": "14 天家居檢疫人士",
        "address": "楊屋道100號爵悅庭西爵",
        "district": "荃灣",
        "areas": "新界區",
        "desc": "正在接受 14 天家居檢疫人士所居住的大廈名單\nhttps://www.chp.gov.hk/files/pdf/list_of_buildings_tc.pdf",
        "lat": 22.3668447,
        "lon": 114.1170414
    },
    {
        "id": 47,
        "name": "14 天家居檢疫人士",
        "brand": "14 天家居檢疫人士",
        "address": "環宇海灣8座",
        "district": "荃灣",
        "areas": "新界區",
        "desc": "正在接受 14 天家居檢疫人士所居住的大廈名單\nhttps://www.chp.gov.hk/files/pdf/list_of_buildings_tc.pdf",
        "lat": 22.363685,
        "lon": 114.115714
    },
    {
        "id": 48,
        "name": "14 天家居檢疫人士",
        "brand": "14 天家居檢疫人士",
        "address": "美樂花園4座",
        "district": "屯門",
        "areas": "新界區",
        "desc": "正在接受 14 天家居檢疫人士所居住的大廈名單\nhttps://www.chp.gov.hk/files/pdf/list_of_buildings_tc.pdf",
        "lat": 22.373368,
        "lon": 113.961526
    },
    {
        "id": 49,
        "name": "14 天家居檢疫人士",
        "brand": "14 天家居檢疫人士",
        "address": "美樂花園10座",
        "district": "屯門",
        "areas": "新界區",
        "desc": "正在接受 14 天家居檢疫人士所居住的大廈名單\nhttps://www.chp.gov.hk/files/pdf/list_of_buildings_tc.pdf",
        "lat": 22.3754584,
        "lon": 113.9605933
    },
    {
        "id": 50,
        "name": "14 天家居檢疫人士",
        "brand": "14 天家居檢疫人士",
        "address": "鍾屋村",
        "district": "屯門",
        "areas": "新界區",
        "desc": "正在接受 14 天家居檢疫人士所居住的大廈名單\nhttps://www.chp.gov.hk/files/pdf/list_of_buildings_tc.pdf",
        "lat": 22.4297205,
        "lon": 113.992417
    },
    {
        "id": 51,
        "name": "14 天家居檢疫人士",
        "brand": "14 天家居檢疫人士",
        "address": "屯門海翠花園6座",
        "district": "屯門",
        "areas": "新界區",
        "desc": "正在接受 14 天家居檢疫人士所居住的大廈名單\nhttps://www.chp.gov.hk/files/pdf/list_of_buildings_tc.pdf",
        "lat": 22.3724002,
        "lon": 113.9677258
    },
    {
        "id": 52,
        "name": "14 天家居檢疫人士",
        "brand": "14 天家居檢疫人士",
        "address": "海華苑2期",
        "district": "灣仔",
        "areas": "香港島",
        "desc": "正在接受 14 天家居檢疫人士所居住的大廈名單\nhttps://www.chp.gov.hk/files/pdf/list_of_buildings_tc.pdf",
        "lat": 22.275802,
        "lon": 114.169291
    },
    {
        "id": 53,
        "name": "14 天家居檢疫人士",
        "brand": "14 天家居檢疫人士",
        "address": "黃大仙上邨昌善樓",
        "district": "黃大仙",
        "areas": "九龍區",
        "desc": "正在接受 14 天家居檢疫人士所居住的大廈名單\nhttps://www.chp.gov.hk/files/pdf/list_of_buildings_tc.pdf",
        "lat": 22.3424625,
        "lon": 114.1914487
    },
    {
        "id": 54,
        "name": "14 天家居檢疫人士",
        "brand": "14 天家居檢疫人士",
        "address": "凱帆軒2座",
        "district": "油尖旺",
        "areas": "九龍區",
        "desc": "正在接受 14 天家居檢疫人士所居住的大廈名單\nhttps://www.chp.gov.hk/files/pdf/list_of_buildings_tc.pdf",
        "lat": 22.3209253,
        "lon": 114.1553846
    },
    {
        "id": 55,
        "name": "14 天家居檢疫人士",
        "brand": "14 天家居檢疫人士",
        "address": "媽横路45-67號福順樓",
        "district": "元朗",
        "areas": "新界區",
        "desc": "正在接受 14 天家居檢疫人士所居住的大廈名單\nhttps://www.chp.gov.hk/files/pdf/list_of_buildings_tc.pdf",
        "lat": 22.447148,
        "lon": 114.02165
    },
    {
        "id": 56,
        "name": "14 天家居檢疫人士",
        "brand": "14 天家居檢疫人士",
        "address": "嘉湖山莊麗湖居4座",
        "district": "元朗",
        "areas": "新界區",
        "desc": "正在接受 14 天家居檢疫人士所居住的大廈名單\nhttps://www.chp.gov.hk/files/pdf/list_of_buildings_tc.pdf",
        "lat": 22.46032,
        "lon": 114.004276
    },
    {
        "id": 57,
        "name": "14 天家居檢疫人士",
        "brand": "14 天家居檢疫人士",
        "address": "峻巒1A期10A座",
        "district": "元朗",
        "areas": "新界區",
        "desc": "正在接受 14 天家居檢疫人士所居住的大廈名單\nhttps://www.chp.gov.hk/files/pdf/list_of_buildings_tc.pdf",
        "lat": 22.4512757,
        "lon": 114.0533427
    },
    {
        "id": 58,
        "name": "14 天家居檢疫人士",
        "brand": "14 天家居檢疫人士",
        "address": "嘉湖山莊賞湖居2座",
        "district": "元朗",
        "areas": "新界區",
        "desc": "正在接受 14 天家居檢疫人士所居住的大廈名單\nhttps://www.chp.gov.hk/files/pdf/list_of_buildings_tc.pdf",
        "lat": 22.4527874,
        "lon": 114.0018909
    },
    {
        "id": 59,
        "name": "14 天家居檢疫人士",
        "brand": "14 天家居檢疫人士",
        "address": "皇后大道西427-437號生昌大厦",
        "district": "中西區",
        "areas": "香港島",
        "desc": "正在接受 14 天家居檢疫人士所居住的大廈名單\nhttps://www.chp.gov.hk/files/pdf/list_of_buildings_tc.pdf",
        "lat": 22.2861327,
        "lon": 114.1356908
    },
    {
        "id": 60,
        "name": "14 天家居檢疫人士",
        "brand": "14 天家居檢疫人士",
        "address": "蕪湖街181號裕新大廈C座",
        "district": "九龍城",
        "areas": "九龍區",
        "desc": "正在接受 14 天家居檢疫人士所居住的大廈名單\nhttps://www.chp.gov.hk/files/pdf/list_of_buildings_tc.pdf",
        "lat": 22.3085012,
        "lon": 114.1837465
    },
    {
        "id": 61,
        "name": "14 天家居檢疫人士",
        "brand": "14 天家居檢疫人士",
        "address": "上水圍大元村7巷",
        "district": "北區",
        "areas": "新界區",
        "desc": "正在接受 14 天家居檢疫人士所居住的大廈名單\nhttps://www.chp.gov.hk/files/pdf/list_of_buildings_tc.pdf",
        "lat": 22.509368,
        "lon": 114.125539
    },
    {
        "id": 62,
        "name": "14 天家居檢疫人士",
        "brand": "14 天家居檢疫人士",
        "address": "清河村清照樓",
        "district": "北區",
        "areas": "新界區",
        "desc": "正在接受 14 天家居檢疫人士所居住的大廈名單\nhttps://www.chp.gov.hk/files/pdf/list_of_buildings_tc.pdf",
        "lat": 22.493156,
        "lon": 114.1252166
    },
    {
        "id": 63,
        "name": "14 天家居檢疫人士",
        "brand": "14 天家居檢疫人士",
        "address": "鴨脷洲邨利添樓",
        "district": "南區",
        "areas": "香港島",
        "desc": "正在接受 14 天家居檢疫人士所居住的大廈名單\nhttps://www.chp.gov.hk/files/pdf/list_of_buildings_tc.pdf",
        "lat": 22.2447441,
        "lon": 114.1514134
    },
    {
        "id": 64,
        "name": "14 天家居檢疫人士",
        "brand": "14 天家居檢疫人士",
        "address": "太和邨寶雅苑興和閣",
        "district": "大埔",
        "areas": "新界區",
        "desc": "正在接受 14 天家居檢疫人士所居住的大廈名單\nhttps://www.chp.gov.hk/files/pdf/list_of_buildings_tc.pdf",
        "lat": 22.4506961,
        "lon": 114.1587519
    },
    {
        "id": 65,
        "name": "14 天家居檢疫人士",
        "brand": "14 天家居檢疫人士",
        "address": "大窩口邨富德樓",
        "district": "荃灣",
        "areas": "新界區",
        "desc": "正在接受 14 天家居檢疫人士所居住的大廈名單\nhttps://www.chp.gov.hk/files/pdf/list_of_buildings_tc.pdf",
        "lat": 22.3669259,
        "lon": 114.1226154
    },
    {
        "id": 66,
        "name": "14 天家居檢疫人士",
        "brand": "14 天家居檢疫人士",
        "address": "香港理工大學勵志堂",
        "district": "油尖旺",
        "areas": "九龍區",
        "desc": "正在接受 14 天家居檢疫人士所居住的大廈名單\nhttps://www.chp.gov.hk/files/pdf/list_of_buildings_tc.pdf",
        "lat": 22.3038466,
        "lon": 114.1853182
    },
    {
        "id": 67,
        "name": "14 天家居檢疫人士",
        "brand": "14 天家居檢疫人士",
        "address": "港景峰1座",
        "district": "油尖旺",
        "areas": "九龍區",
        "desc": "正在接受 14 天家居檢疫人士所居住的大廈名單\nhttps://www.chp.gov.hk/files/pdf/list_of_buildings_tc.pdf",
        "lat": 22.3020792,
        "lon": 114.1683197
    },
    {
        "id": 68,
        "name": "14 天家居檢疫人士",
        "brand": "14 天家居檢疫人士",
        "address": "水邊圍邨泉水樓",
        "district": "元朗",
        "areas": "新界區",
        "desc": "正在接受 14 天家居檢疫人士所居住的大廈名單\nhttps://www.chp.gov.hk/files/pdf/list_of_buildings_tc.pdf",
        "lat": 22.4453068,
        "lon": 114.0204145
    },
    {
        "id": 69,
        "name": "14 天家居檢疫人士",
        "brand": "14 天家居檢疫人士",
        "address": "天富苑朗富閣",
        "district": "元朗",
        "areas": "新界區",
        "desc": "正在接受 14 天家居檢疫人士所居住的大廈名單\nhttps://www.chp.gov.hk/files/pdf/list_of_buildings_tc.pdf",
        "lat": 22.4638535,
        "lon": 113.9979272
    },
    {
        "id": 70,
        "name": "14 天家居檢疫人士",
        "brand": "14 天家居檢疫人士",
        "address": "天慈村慈平樓",
        "district": "元朗",
        "areas": "新界區",
        "desc": "正在接受 14 天家居檢疫人士所居住的大廈名單\nhttps://www.chp.gov.hk/files/pdf/list_of_buildings_tc.pdf",
        "lat": 22.4527343,
        "lon": 114.0070338
    },
    {
        "id": 71,
        "name": "14 天家居檢疫人士",
        "brand": "14 天家居檢疫人士",
        "address": "天富苑榮富閣",
        "district": "元朗",
        "areas": "新界區",
        "desc": "正在接受 14 天家居檢疫人士所居住的大廈名單\nhttps://www.chp.gov.hk/files/pdf/list_of_buildings_tc.pdf",
        "lat": 22.4646825,
        "lon": 113.998206
    },
    {
        "id": 72,
        "name": "14 天家居檢疫人士",
        "brand": "14 天家居檢疫人士",
        "address": "粉嶺中心A座",
        "district": "北區",
        "areas": "新界區",
        "desc": "正在接受 14 天家居檢疫人士所居住的大廈名單\nhttps://www.chp.gov.hk/files/pdf/list_of_buildings_tc.pdf",
        "lat": 22.490021,
        "lon": 114.14195
    },
    {
        "id": 73,
        "name": "14 天家居檢疫人士",
        "brand": "14 天家居檢疫人士",
        "address": "富豪花園富儷閣",
        "district": "沙田",
        "areas": "新界區",
        "desc": "正在接受 14 天家居檢疫人士所居住的大廈名單\nhttps://www.chp.gov.hk/files/pdf/list_of_buildings_tc.pdf",
        "lat": 22.384563,
        "lon": 114.199186
    },
    {
        "id": 74,
        "name": "14 天家居檢疫人士",
        "brand": "14 天家居檢疫人士",
        "address": "弼街69號",
        "district": "油尖旺",
        "areas": "九龍區",
        "desc": "正在接受 14 天家居檢疫人士所居住的大廈名單\nhttps://www.chp.gov.hk/files/pdf/list_of_buildings_tc.pdf",
        "lat": 22.3224908,
        "lon": 114.1706638
    },
    {
        "id": 75,
        "name": "14 天家居檢疫人士",
        "brand": "14 天家居檢疫人士",
        "address": "新都大廈A座",
        "district": "屯門",
        "areas": "新界區",
        "desc": "正在接受 14 天家居檢疫人士所居住的大廈名單\nhttps://www.chp.gov.hk/files/pdf/list_of_buildings_tc.pdf",
        "lat": 22.3910333,
        "lon": 113.9787611
    },
    {
        "id": 76,
        "name": "14 天家居檢疫人士",
        "brand": "14 天家居檢疫人士",
        "address": "朗屏邨悅屏樓",
        "district": "元朗",
        "areas": "新界區",
        "desc": "正在接受 14 天家居檢疫人士所居住的大廈名單\nhttps://www.chp.gov.hk/files/pdf/list_of_buildings_tc.pdf",
        "lat": 22.4482719,
        "lon": 114.0223625
    },
    {
        "id": 77,
        "name": "14 天家居檢疫人士",
        "brand": "14 天家居檢疫人士",
        "address": "汝洲街259號彩蘭樓",
        "district": "深水埗",
        "areas": "九龍區",
        "desc": "正在接受 14 天家居檢疫人士所居住的大廈名單\nhttps://www.chp.gov.hk/files/pdf/list_of_buildings_tc.pdf",
        "lat": 22.329867,
        "lon": 114.161362
    },
    {
        "id": 78,
        "name": "14 天家居檢疫人士",
        "brand": "14 天家居檢疫人士",
        "address": "蝴蝶邨蝶翎樓",
        "district": "屯門",
        "areas": "新界區",
        "desc": "正在接受 14 天家居檢疫人士所居住的大廈名單\nhttps://www.chp.gov.hk/files/pdf/list_of_buildings_tc.pdf",
        "lat": 22.3751641,
        "lon": 113.9628934
    },
    {
        "id": 79,
        "name": "14 天家居檢疫人士",
        "brand": "14 天家居檢疫人士",
        "address": "平田邨平誠樓",
        "district": "觀塘",
        "areas": "九龍區",
        "desc": "正在接受 14 天家居檢疫人士所居住的大廈名單\nhttps://www.chp.gov.hk/files/pdf/list_of_buildings_tc.pdf",
        "lat": 22.305544,
        "lon": 114.2369601
    },
    {
        "id": 80,
        "name": "14 天家居檢疫人士",
        "brand": "14 天家居檢疫人士",
        "address": "莆上村15號",
        "district": "北區",
        "areas": "新界區",
        "desc": "正在接受 14 天家居檢疫人士所居住的大廈名單\nhttps://www.chp.gov.hk/files/pdf/list_of_buildings_tc.pdf",
        "lat": 22.508122,
        "lon": 114.124626
    },
    {
        "id": 81,
        "name": "14 天家居檢疫人士",
        "brand": "14 天家居檢疫人士",
        "address": "牽晴間11座",
        "district": "北區",
        "areas": "新界區",
        "desc": "正在接受 14 天家居檢疫人士所居住的大廈名單\nhttps://www.chp.gov.hk/files/pdf/list_of_buildings_tc.pdf",
        "lat": 22.4877572,
        "lon": 114.1438889
    },
    {
        "id": 82,
        "name": "14 天家居檢疫人士",
        "brand": "14 天家居檢疫人士",
        "address": "銀禧花園5座",
        "district": "沙田",
        "areas": "新界區",
        "desc": "正在接受 14 天家居檢疫人士所居住的大廈名單\nhttps://www.chp.gov.hk/files/pdf/list_of_buildings_tc.pdf",
        "lat": 22.3979982,
        "lon": 114.2002727
    },
    {
        "id": 83,
        "name": "14 天家居檢疫人士",
        "brand": "14 天家居檢疫人士",
        "address": "大圍名城2期5座",
        "district": "沙田",
        "areas": "新界區",
        "desc": "正在接受 14 天家居檢疫人士所居住的大廈名單\nhttps://www.chp.gov.hk/files/pdf/list_of_buildings_tc.pdf",
        "lat": 22.368988,
        "lon": 114.175093
    },
    {
        "id": 84,
        "name": "14 天家居檢疫人士",
        "brand": "14 天家居檢疫人士",
        "address": "福華街206號榮安大廈",
        "district": "深水埗",
        "areas": "九龍區",
        "desc": "正在接受 14 天家居檢疫人士所居住的大廈名單\nhttps://www.chp.gov.hk/files/pdf/list_of_buildings_tc.pdf",
        "lat": 22.3329894,
        "lon": 114.1607259
    },
    {
        "id": 85,
        "name": "14 天家居檢疫人士",
        "brand": "14 天家居檢疫人士",
        "address": "嘉湖山莊賞湖居5座",
        "district": "元朗",
        "areas": "新界區",
        "desc": "正在接受 14 天家居檢疫人士所居住的大廈名單\nhttps://www.chp.gov.hk/files/pdf/list_of_buildings_tc.pdf",
        "lat": 22.4536637,
        "lon": 114.0021505
    },
    {
        "id": 86,
        "name": "14 天家居檢疫人士",
        "brand": "14 天家居檢疫人士",
        "address": "沙田中心廣寧大廈",
        "district": "沙田",
        "areas": "新界區",
        "desc": "正在接受 14 天家居檢疫人士所居住的大廈名單\nhttps://www.chp.gov.hk/files/pdf/list_of_buildings_tc.pdf",
        "lat": 22.3820848,
        "lon": 114.1909279
    },
    {
        "id": 87,
        "name": "14 天家居檢疫人士",
        "brand": "14 天家居檢疫人士",
        "address": "鳳德村碧鳳樓",
        "district": "黃大仙",
        "areas": "九龍區",
        "desc": "正在接受 14 天家居檢疫人士所居住的大廈名單\nhttps://www.chp.gov.hk/files/pdf/list_of_buildings_tc.pdf",
        "lat": 22.344932,
        "lon": 114.2012015
    },
    {
        "id": 88,
        "name": "14 天家居檢疫人士",
        "brand": "14 天家居檢疫人士",
        "address": "石貝街18號葵涌大廈A座",
        "district": "葵青",
        "areas": "新界區",
        "desc": "正在接受 14 天家居檢疫人士所居住的大廈名單\nhttps://www.chp.gov.hk/files/pdf/list_of_buildings_tc.pdf",
        "lat": 22.3645117,
        "lon": 114.1362715
    },
    {
        "id": 89,
        "name": "#26確診",
        "brand": "確診",
        "address": "沙田御龍山第10座",
        "district": "沙田",
        "areas": "新界區",
        "desc": "確診日期\n2020-02-07",
        "lat": 22.3955322,
        "lon": 114.199056
    },
    {
        "id": 90,
        "name": "#25確診",
        "brand": "確診",
        "address": "北區上水坑頭雍翠苑",
        "district": "北區",
        "areas": "新界區",
        "desc": "確診日期\n2020-02-07\n\n患者在珠海及香港北區坑頭雍翠苑居住，並於珠海及澳門工作，2 月 4 日出現發燒和咳嗽。他 2 月 5 日乘坐金巴經港珠澳大橋從珠海到港，其後轉乘機場巴士往上水，曾從上水的居所乘坐的士前往私家醫生的診所求醫，隨後到北區醫院。",
        "lat": 22.4942627,
        "lon": 114.1035321
    },
    {
        "id": 91,
        "name": "#24確診",
        "brand": "確診",
        "address": "沙田碩門邨瑞碩樓",
        "district": "沙田",
        "areas": "新界區",
        "desc": "確診日期\n2020-02-06\n\n患者為一名獨居於沙田碩門邨瑞碩樓、有長期病患的65歲女子，本身有甲狀腺機能低下症及高血壓。1月28日開始發燒和咳嗽，1月29日及2月1日分別向同一名私家醫生求診。她於2月5日到威爾斯親王醫院求醫並入院接受治療，現時情況嚴重。病人於潛伏期內沒有外遊，但曾於2月5日下午約12時15分，由沙田希爾頓中心坐的士去威爾斯親王醫院，呼籲該名的士司機聯絡衞生防護中心。",
        "lat": 22.385895,
        "lon": 114.2094954
    },
    {
        "id": 92,
        "name": "#23確診",
        "brand": "確診",
        "address": "筲箕灣道142至146號高望大樓",
        "district": "東區",
        "areas": "香港島",
        "desc": "確診日期\n2020-02-06\n\n患者1月26日開始咳嗽和疲倦，曾向中醫求診；2 月 5 日向私家醫生求診，再到東區醫院急症室求醫，並入院接受治療，現時情況穩定，已轉送D11隔離病房治理。女患者居於筲箕灣道142至146號高望大樓，沒有外遊，潛伏期內和病發後曾到西灣河麗濤護老院探望丈夫。",
        "lat": 22.28135,
        "lon": 114.222298
    },
    {
        "id": 93,
        "name": "#22 #21確診",
        "brand": "確診",
        "address": "青衣灝景灣一座",
        "district": "葵青",
        "areas": "新界區",
        "desc": "確診日期\n2020-02-05\n\n#21 \n男患者在青衣灝景灣一座居住，在深圳工作，長期往返兩地。患者曾在 1 月 21 日到過深圳，在 1 月 28 日乘坐飛機從香港前往東京，並在 2 月 1 日乘坐香港快運航空UO651由東京返港。他在 1 月 30 日出現發燒、咳嗽有痰及喉嚨痛，2 月 2 日曾向私家醫生求診，2 月 4 日由救護車送往瑪嘉烈醫院，直接送入隔離病房。\n\n確診日期\n2020-02-06\n\n#22\n該名女病人是第 21 宗確診個案的太太。 早前在東莞工作， 1月 17 日回港， 1 月 28 - 2 月 1 日與丈夫到日本旅遊，回港後2人有發燒、喉龍痛和肚瀉的徵狀， 2 月 2 日與丈夫一同求診，在 2 月 4 日一同到瑪嘉烈求診，當時她因情況輕微而出院，2 月 5 日得悉丈夫確診後，她坐的士到瑪嘉烈醫院急症室。 2名患者離港前曾向親友拜年。",
        "lat": 22.3620053,
        "lon": 114.1062525
    },
    {
        "id": 94,
        "name": "#17 #19 #20 確診",
        "brand": "確診",
        "address": "藍田康田苑裕康閣",
        "district": "觀塘",
        "areas": "九龍區",
        "desc": "確診日期\n2020-02-05\n#17\n男患者已退休，住在藍田康田苑裕康閣。1月22日起發燒及疲倦，1月30日有氣喘，病人分別於1月23、25、28曾向不同醫生求診，包括九龍灣卓健醫療診所。1月31日到過聯合醫院及將軍澳醫院求診，在聯合醫院急症室因等候時間太長而離院。14 天內沒有外遊。\n\n確診日期\n2020-02-05\n#19\n該名女病人是第 17 宗確診個案的女兒。 2 月 4 日發燒，到聯合醫院隔離。\n\n#20\n該名女病人是第 17 宗確診個案的妻子。 2 月 4 日發燒，到聯合醫院隔離。",
        "lat": 22.3077855,
        "lon": 114.2343596
    },
    {
        "id": 95,
        "name": "#18 確診",
        "brand": "確診",
        "address": "土瓜灣馬頭圍道183號",
        "district": "九龍城",
        "areas": "九龍區",
        "desc": "確診日期\n2020-02-05\n\n男患者住在土瓜灣馬頭圍道183號， 1 月 14 日到浸會醫院求醫，確診感染甲型流感，獲處方特敏福，惟發燒及咳嗽未退，2月3日到浸會醫院照肺片，後轉介到威院求醫。報稱近期沒有外遊。",
        "lat": 22.3194394,
        "lon": 114.1877565
    },
    {
        "id": 96,
        "name": "#16 確診",
        "brand": "確診",
        "address": "半山壹號",
        "district": "中西區",
        "areas": "香港島",
        "desc": "確診日期\n2020-02-03\n\n女患者居於半山壹號，佐敦恆豐中心開店。 1 月 23 日咳嗽，在佐敦嘉賓大廈診所求醫；1 月 30 日發燒，另外求診。2 月 1 日入住伊利沙伯醫院普通病房，2月2日伊利沙伯醫院隔離，2月3日轉送瑪嘉烈。患者過去 14 日沒有外遊紀錄。",
        "lat": 22.3194779,
        "lon": 114.186131
    },
    {
        "id": 97,
        "name": "#16 確診",
        "brand": "確診",
        "address": "佐敦恆豐中心",
        "district": "油尖旺",
        "areas": "九龍區",
        "desc": "確診日期\n2020-02-03\n\n女患者居於半山壹號，佐敦恆豐中心開店。 1 月 23 日咳嗽，在佐敦嘉賓大廈診所求醫；1 月 30 日發燒，另外求診。2 月 1 日入住伊利沙伯醫院普通病房，2月2日伊利沙伯醫院隔離，2月3日轉送瑪嘉烈。患者過去 14 日沒有外遊紀錄。",
        "lat": 22.3043193,
        "lon": 114.1719376
    },
    {
        "id": 98,
        "name": "#13 #15 確診",
        "brand": "確診",
        "address": "黃埔花園 11 期 1 座",
        "district": "九龍城",
        "areas": "九龍區",
        "desc": "確診日期\n2020-01-31\n#13\n有長期病患的男患者居於黃埔花園 11 期 1 座。1 月 21 日曾乘搭高鐵到武漢探親，1 月 23 日長沙南站乘搭高鐵回港。1 月 29 日起出現肌肉痛，1 月 31 日開始發燒，並到伊利沙伯醫院入院接受隔離治療，及後轉往瑪嘉烈醫院。他於2月4日去世。\n\n確診日期\n2020-02-02\n#15\n該名女病人是第 13 確診個案的母親。 1 月 31 日第 13 宗確診個案入院接受隔離治療，其後在隔離營發病。",
        "lat": 22.305919,
        "lon": 114.190339
    },
    {
        "id": 99,
        "name": "#14 確診",
        "brand": "確診",
        "address": "葵涌邨綠葵樓",
        "district": "葵青",
        "areas": "新界區",
        "desc": "確診日期\n2020-02-01\n\n男患者居於葵涌邨綠葵樓。1 月 10 日經羅湖口岸到內地逗留數小時， 17 日乘飛機到東京， 20 日在橫濱上郵輪， 25 日到啟德碼頭。1 月 19 日咳嗽，30 日發燒並到明愛醫院求醫。",
        "lat": 22.3681253,
        "lon": 114.1283239
    },
    {
        "id": 100,
        "name": "#12 確診",
        "brand": "確診",
        "address": "青衣長康邨康美樓",
        "district": "葵青",
        "areas": "新界區",
        "desc": "確診日期\n2020-01-30\n\n該名 75 歲男子居於青衣長康邨康美樓，於 1 月 22 日咳嗽及呼吸困難，1 月 24 日到瑪嘉烈醫院入院內科接受治療，1 月 30 日確診並接受隔離治療。他 2019 年 12 月 30 日至到 2020 年 1 月 7 日到訪順德及診所求醫，1 月 10 至 14 日到訪澳門。",
        "lat": 22.350361,
        "lon": 114.099297
    },
    {
        "id": 101,
        "name": "#9 #10 #11 確診",
        "brand": "確診",
        "address": "柯士甸道西1號天璽W酒店",
        "district": "油尖旺",
        "areas": "九龍區",
        "desc": "確診日期\n2020-01-29\n\n該名女病人是第 9 及 10 確診個案的女兒，或成為全港首宗「人傳人」個案。該患者居於香港油麻地御金國峰。於 1 月 28 日出現咳嗽，1 月 30 日到伊利沙伯醫院求醫並入院接受隔離治療。 患者表示曾在其住所作短暫逗留。\n\n該名男病人 1 月 22 日乘坐飛機到港，隨即入住過 W 酒店，數天後又轉住四季酒店，但最後只在該酒店逗留數小時，之後不適送院。",
        "lat": 22.304933,
        "lon": 114.160723
    },
    {
        "id": 102,
        "name": "#9 #10 #11 確診",
        "brand": "確診",
        "address": "中環金融街8號四季酒店",
        "district": "中西區",
        "areas": "香港島",
        "desc": "確診日期\n2020-01-29\n\n該名女病人是第 9 及 10 確診個案的女兒，或成為全港首宗「人傳人」個案。該患者居於香港油麻地御金國峰。於 1 月 28 日出現咳嗽，1 月 30 日到伊利沙伯醫院求醫並入院接受隔離治療。 患者表示曾在其住所作短暫逗留。\n\n該名男病人 1 月 22 日乘坐飛機到港，隨即入住過 W 酒店，數天後又轉住四季酒店，但最後只在該酒店逗留數小時，之後不適送院。",
        "lat": 22.2864877,
        "lon": 114.1569068
    },
    {
        "id": 103,
        "name": "#3 #8 確診",
        "brand": "確診",
        "address": "屯門倚嶺南庭",
        "district": "屯門",
        "areas": "新界區",
        "desc": "確診日期\n2020-01-26\n\n64 歲男長期病患病人居於武漢市，1 月 19 日與妻子乘搭高鐵經深圳北到達西九龍站，探望女兒及女婿並入住屯門倚嶺南庭。1 月 24 日被安排到麥理浩夫人度假村接受檢疫。他於 1 月 26 日發燒，並到屯門醫院接受隔離治療。\n\n確診日期\n2020-01-24\n\n1 月 19 日乘搭高鐵由武漢到港，入住屯門倚嶺南庭，自 1 月 20 日起出現病徵，23 日到屯門醫院急症室求醫時，因院方未有空置的負壓病房，醫生安排她轉往創傷病房等候近兩小時。潛伏期間曾於武漢到過菜市場和醫院探望有咳嗽的家人，沒有接觸野生動物。",
        "lat": 22.412407,
        "lon": 113.9837095
    },
    {
        "id": 104,
        "name": "#4 #5 確診",
        "brand": "確診",
        "address": "馬鞍山銀湖天峰",
        "district": "沙田",
        "areas": "新界區",
        "desc": "確診日期\n2020-01-24\n\n63 歲男病人與妻子 1 月 24 日從武漢來港探望居住在馬鞍山銀湖天峰的女兒，到醫院求醫，夫婦須入院隔離治療。兩名病人不是香港居民，因聽聞入院要繳交按金和住院費用昂貴，因此從急症室逃走，最終被警員在院外阻截及帶回醫院。",
        "lat": 22.4287385,
        "lon": 114.2438063
    }
]
