[
    {
        "id": 89,
        "name": "#26確診",
        "brand": "確診",
        "address": "沙田御龍山第10座",
        "district": "沙田",
        "areas": "新界區",
        "desc": "確診日期\n2020-02-07\n\n患者居於沙田御龍山第10座。2月 3 日出現發燒和咳嗽，2 月 6 日到威爾斯親王醫院求醫，並入院接受隔離治療，現時情況穩定。患者曾於1月22日，由香港前往深圳寶安國際機場，乘坐飛機到河北省，1 月 26 日由河北省乘坐飛機到廣州，同日再前往澳門，2 月 2 日由澳門乘船返港。",
        "type": "確診",
        "subType": "確診",
        "lat": 22.3955322,
        "lon": 114.199056
    },
    {
        "id": 90,
        "name": "#25確診",
        "brand": "確診",
        "address": "北區上水坑頭雍翠苑",
        "district": "北區",
        "areas": "新界區",
        "desc": "確診日期\n2020-02-07\n\n患者在珠海及香港北區坑頭雍翠苑居住，並於珠海及澳門工作，2 月 4 日出現發燒和咳嗽。他 2 月 5 日乘坐金巴經港珠澳大橋從珠海到港，其後轉乘機場巴士往上水，曾從上水的居所乘坐的士前往私家醫生的診所求醫，隨後到北區醫院。",
        "type": "確診",
        "subType": "確診",
        "lat": 22.4942627,
        "lon": 114.1035321
    },
    {
        "id": 91,
        "name": "#24確診",
        "brand": "確診",
        "address": "沙田碩門邨瑞碩樓",
        "district": "沙田",
        "areas": "新界區",
        "desc": "確診日期\n2020-02-06\n\n患者為一名獨居於沙田碩門邨瑞碩樓、有長期病患的65歲女子，本身有甲狀腺機能低下症及高血壓。1月28日開始發燒和咳嗽，1月29日及2月1日分別向同一名私家醫生求診。她於2月5日到威爾斯親王醫院求醫並入院接受治療，現時情況嚴重。病人於潛伏期內沒有外遊，但曾於2月5日下午約12時15分，由沙田希爾頓中心坐的士去威爾斯親王醫院，呼籲該名的士司機聯絡衞生防護中心。",
        "type": "確診",
        "subType": "確診",
        "lat": 22.385895,
        "lon": 114.2094954
    },
    {
        "id": 92,
        "name": "#23確診",
        "brand": "確診",
        "address": "筲箕灣道142至146號高望大樓",
        "district": "東區",
        "areas": "香港島",
        "desc": "確診日期\n2020-02-06\n\n患者1月26日開始咳嗽和疲倦，曾向中醫求診；2 月 5 日向私家醫生求診，再到東區醫院急症室求醫，並入院接受治療，現時情況穩定，已轉送D11隔離病房治理。女患者居於筲箕灣道142至146號高望大樓，沒有外遊，潛伏期內和病發後曾到西灣河麗濤護老院探望丈夫。",
        "type": "確診",
        "subType": "確診",
        "lat": 22.28135,
        "lon": 114.222298
    },
    {
        "id": 93,
        "name": "#22 #21確診",
        "brand": "確診",
        "address": "青衣灝景灣一座",
        "district": "葵青",
        "areas": "新界區",
        "desc": "確診日期\n2020-02-05\n\n#21 \n男患者在青衣灝景灣一座居住，在深圳工作，長期往返兩地。患者曾在 1 月 21 日到過深圳，在 1 月 28 日乘坐飛機從香港前往東京，並在 2 月 1 日乘坐香港快運航空UO651由東京返港。他在 1 月 30 日出現發燒、咳嗽有痰及喉嚨痛，2 月 2 日曾向私家醫生求診，2 月 4 日由救護車送往瑪嘉烈醫院，直接送入隔離病房。\n\n確診日期\n2020-02-06\n\n#22\n該名女病人是第 21 宗確診個案的太太。 早前在東莞工作， 1月 17 日回港， 1 月 28 - 2 月 1 日與丈夫到日本旅遊，回港後2人有發燒、喉龍痛和肚瀉的徵狀， 2 月 2 日與丈夫一同求診，在 2 月 4 日一同到瑪嘉烈求診，當時她因情況輕微而出院，2 月 5 日得悉丈夫確診後，她坐的士到瑪嘉烈醫院急症室。 2名患者離港前曾向親友拜年。",
        "type": "確診",
        "subType": "確診",
        "lat": 22.3620053,
        "lon": 114.1062525
    },
    {
        "id": 94,
        "name": "#17 #19 #20 確診",
        "brand": "確診",
        "address": "藍田康田苑裕康閣",
        "district": "觀塘",
        "areas": "九龍區",
        "desc": "確診日期\n2020-02-05\n#17\n男患者已退休，住在藍田康田苑裕康閣。1月22日起發燒及疲倦，1月30日有氣喘，病人分別於1月23、25、28曾向不同醫生求診，包括九龍灣卓健醫療診所。1月31日到過聯合醫院及將軍澳醫院求診，在聯合醫院急症室因等候時間太長而離院。14 天內沒有外遊。\n\n確診日期\n2020-02-05\n#19\n該名女病人是第 17 宗確診個案的女兒。 2 月 4 日發燒，到聯合醫院隔離。\n\n#20\n該名女病人是第 17 宗確診個案的妻子。 2 月 4 日發燒，到聯合醫院隔離。",
        "type": "確診",
        "subType": "確診",
        "lat": 22.3077855,
        "lon": 114.2343596
    },
    {
        "id": 95,
        "name": "#18 確診",
        "brand": "確診",
        "address": "土瓜灣馬頭圍道183號",
        "district": "九龍城",
        "areas": "九龍區",
        "desc": "確診日期\n2020-02-05\n\n男患者住在土瓜灣馬頭圍道183號， 1 月 14 日到浸會醫院求醫，確診感染甲型流感，獲處方特敏福，惟發燒及咳嗽未退，2月3日到浸會醫院照肺片，後轉介到威院求醫。報稱近期沒有外遊。",
        "type": "確診",
        "subType": "確診",
        "lat": 22.3194394,
        "lon": 114.1877565
    },
    {
        "id": 96,
        "name": "#16 確診",
        "brand": "確診",
        "address": "半山壹號",
        "district": "中西區",
        "areas": "香港島",
        "desc": "確診日期\n2020-02-03\n\n女患者居於半山壹號，佐敦恆豐中心開店。 1 月 23 日咳嗽，在佐敦嘉賓大廈診所求醫；1 月 30 日發燒，另外求診。2 月 1 日入住伊利沙伯醫院普通病房，2月2日伊利沙伯醫院隔離，2月3日轉送瑪嘉烈。患者過去 14 日沒有外遊紀錄。",
        "type": "確診",
        "subType": "確診",
        "lat": 22.3194779,
        "lon": 114.186131
    },
    {
        "id": 97,
        "name": "#16 確診",
        "brand": "確診",
        "address": "佐敦恆豐中心",
        "district": "油尖旺",
        "areas": "九龍區",
        "desc": "確診日期\n2020-02-03\n\n女患者居於半山壹號，佐敦恆豐中心開店。 1 月 23 日咳嗽，在佐敦嘉賓大廈診所求醫；1 月 30 日發燒，另外求診。2 月 1 日入住伊利沙伯醫院普通病房，2月2日伊利沙伯醫院隔離，2月3日轉送瑪嘉烈。患者過去 14 日沒有外遊紀錄。",
        "type": "確診",
        "subType": "確診",
        "lat": 22.3043193,
        "lon": 114.1719376
    },
    {
        "id": 98,
        "name": "#13 #15 確診",
        "brand": "確診",
        "address": "黃埔花園 11 期 1 座",
        "district": "九龍城",
        "areas": "九龍區",
        "desc": "確診日期\n2020-01-31\n#13\n有長期病患的男患者居於黃埔花園 11 期 1 座。1 月 21 日曾乘搭高鐵到武漢探親，1 月 23 日長沙南站乘搭高鐵回港。1 月 29 日起出現肌肉痛，1 月 31 日開始發燒，並到伊利沙伯醫院入院接受隔離治療，及後轉往瑪嘉烈醫院。他於2月4日去世。\n\n確診日期\n2020-02-02\n#15\n該名女病人是第 13 確診個案的母親。 1 月 31 日第 13 宗確診個案入院接受隔離治療，其後在隔離營發病。",
        "type": "確診",
        "subType": "確診",
        "lat": 22.305919,
        "lon": 114.190339
    },
    {
        "id": 99,
        "name": "#14 確診",
        "brand": "確診",
        "address": "葵涌邨綠葵樓",
        "district": "葵青",
        "areas": "新界區",
        "desc": "確診日期\n2020-02-01\n\n男患者居於葵涌邨綠葵樓。1 月 10 日經羅湖口岸到內地逗留數小時， 17 日乘飛機到東京， 20 日在橫濱上郵輪， 25 日到啟德碼頭。1 月 19 日咳嗽，30 日發燒並到明愛醫院求醫。",
        "type": "確診",
        "subType": "確診",
        "lat": 22.3681253,
        "lon": 114.1283239
    },
    {
        "id": 100,
        "name": "#12 #42 #48 #49 確診",
        "brand": "確診",
        "address": "青衣長康邨康美樓",
        "district": "葵青",
        "areas": "新界區",
        "desc": "確診日期\n2020-01-30\n#12\n該名 75 歲男子居於青衣長康邨康美樓，於 1 月 22 日咳嗽及呼吸困難，1 月 24 日到瑪嘉烈醫院入院內科接受治療，1 月 30 日確診並接受隔離治療。他 2019 年 12 月 30 日至到 2020 年 1 月 7 日到訪順德及診所求醫，1 月 10 至 14 日到訪澳門。\n\n# 42,48,49\nhttps://hk.news.appledaily.com/local/20200211/CICWZMQQZG4KF46ILRXN7E6NNU/\n青衣長康邨康美樓或成本港首棟「疫廈」，恐淪2003年淘大花園E座翻版！青衣長康邨康美樓一名62歲女子昨日（10日）確診感染武漢肺炎，由於她與第12宗確診個案均住在康美樓，而康美樓的廁所是U型渠設計，專家不排除因此散播病毒，政府決定緊急疏散康美樓所有與患者居同一座向單位的人士，料涉百多人。\n\n葵青區議會盛康選區區梁嘉銘表示，港大醫學院微生物學系講座教授袁國勇、衞生防護中心傳染病處主任張竹君等人，晚上趕抵康美樓現場視察，包括先後到兩名患者居住的單位了解。據了解，2名患者分別居於高層及低層的同一座向單位。梁表示，由於康美樓的廁所是U型渠設計，專家指不排除因此有散播病毒風險，決定緊急疏散康美樓所有與患者居同一座向單位的人士，料涉百多人。她稱，據了解疏散者會被送往隔離營接受醫學監察，若有病徵會即時送去醫院。",
        "type": "確診",
        "subType": "確診",
        "lat": 22.350361,
        "lon": 114.099297
    },
    {
        "id": 101,
        "name": "#9 #10 #11 確診",
        "brand": "確診",
        "address": "柯士甸道西1號天璽W酒店",
        "district": "油尖旺",
        "areas": "九龍區",
        "desc": "確診日期\n2020-01-29\n\n該名女病人是第 9 及 10 確診個案的女兒，或成為全港首宗「人傳人」個案。該患者居於香港油麻地御金國峰。於 1 月 28 日出現咳嗽，1 月 30 日到伊利沙伯醫院求醫並入院接受隔離治療。 患者表示曾在其住所作短暫逗留。\n\n該名男病人 1 月 22 日乘坐飛機到港，隨即入住過 W 酒店，數天後又轉住四季酒店，但最後只在該酒店逗留數小時，之後不適送院。",
        "type": "確診",
        "subType": "確診",
        "lat": 22.304933,
        "lon": 114.160723
    },
    {
        "id": 102,
        "name": "#9 #10 #11 確診",
        "brand": "確診",
        "address": "中環金融街8號四季酒店",
        "district": "中西區",
        "areas": "香港島",
        "desc": "確診日期\n2020-01-29\n\n該名女病人是第 9 及 10 確診個案的女兒，或成為全港首宗「人傳人」個案。該患者居於香港油麻地御金國峰。於 1 月 28 日出現咳嗽，1 月 30 日到伊利沙伯醫院求醫並入院接受隔離治療。 患者表示曾在其住所作短暫逗留。\n\n該名男病人 1 月 22 日乘坐飛機到港，隨即入住過 W 酒店，數天後又轉住四季酒店，但最後只在該酒店逗留數小時，之後不適送院。",
        "type": "確診",
        "subType": "確診",
        "lat": 22.2864877,
        "lon": 114.1569068
    },
    {
        "id": 102,
        "name": "#9 #10 #11 確診",
        "brand": "確診",
        "address": "御金‧國峰第二座",
        "district": "油尖旺區",
        "areas": "九龍區",
        "desc": "確診日期\n2020-01-29\n\n該名女病人是第 9 及 10 確診個案的女兒，或成為全港首宗「人傳人」個案。該患者居於香港油麻地御金國峰。於 1 月 28 日出現咳嗽，1 月 30 日到伊利沙伯醫院求醫並入院接受隔離治療。 患者表示曾在其住所作短暫逗留。\n\n該名男病人 1 月 22 日乘坐飛機到港，隨即入住過 W 酒店，數天後又轉住四季酒店，但最後只在該酒店逗留數小時，之後不適送院。",
        "type": "確診",
        "subType": "確診",
        "lat": 22.309364,
        "lon": 114.166091
    },
    {
        "id": 103,
        "name": "#3 #8 確診",
        "brand": "確診",
        "address": "屯門倚嶺南庭",
        "district": "屯門",
        "areas": "新界區",
        "desc": "確診日期\n2020-01-26\n\n64 歲男長期病患病人居於武漢市，1 月 19 日與妻子乘搭高鐵經深圳北到達西九龍站，探望女兒及女婿並入住屯門倚嶺南庭。1 月 24 日被安排到麥理浩夫人度假村接受檢疫。他於 1 月 26 日發燒，並到屯門醫院接受隔離治療。\n\n確診日期\n2020-01-24\n\n1 月 19 日乘搭高鐵由武漢到港，入住屯門倚嶺南庭，自 1 月 20 日起出現病徵，23 日到屯門醫院急症室求醫時，因院方未有空置的負壓病房，醫生安排她轉往創傷病房等候近兩小時。潛伏期間曾於武漢到過菜市場和醫院探望有咳嗽的家人，沒有接觸野生動物。",
        "type": "確診",
        "subType": "確診",
        "lat": 22.412407,
        "lon": 113.9837095
    },
    {
        "id": 104,
        "name": "#4 #5 確診",
        "brand": "確診",
        "address": "馬鞍山銀湖天峰",
        "district": "沙田",
        "areas": "新界區",
        "desc": "確診日期\n2020-01-24\n\n63 歲男病人與妻子 1 月 24 日從武漢來港探望居住在馬鞍山銀湖天峰的女兒，到醫院求醫，夫婦須入院隔離治療。兩名病人不是香港居民，因聽聞入院要繳交按金和住院費用昂貴，因此從急症室逃走，最終被警員在院外阻截及帶回醫院。",
        "type": "確診",
        "subType": "確診",
        "lat": 22.4287385,
        "lon": 114.2438063
    },
    {
        "id": 105,
        "name": "東區筲箕灣賽馬會普通科門診診所（一樓）",
        "brand": "指定診所",
        "address": "東區筲箕灣賽馬會普通科門診診所（一樓）",
        "district": "東區",
        "areas": "香港島",
        "desc": "食物及衞生局副局長徐德義於記者會上公布有關「指定診所」計劃，指由於本港社區感染風險提升，醫管局決定分階段啟用「指定診所」，於七個醫院聯網各啟動一間診所接收症狀輕微的市民，例如是輕微發燒或上呼吸道感染，有需要可於兩日內啟用。\n\n他表示設「指定診所」有助於社區找出懷疑感染個案及早處理，減低進一步傳播的機會，而公立醫院急症室會繼續接收症狀較嚴重、高危和符合衞生署呈報準則的懷疑個案。他續指，「指定診所」在軟件及硬件配套已作出安排，包括調節通風設備、安排分隔病人的配置、預備病人分流安排、實施感染控制措施等，以減低病人交叉感染的風險。\n\n指定診所會每日提供服務，按病人臨床需要提供治療，包括處方藥物和安排病毒測試、驗血或X光等。指定診所啟用後，部分普通科門診的診症額會減少，某部分病人需要前往其他診所覆診。而醫管局總行政經理（基層及社區醫療服務）夏敬恒指，本港現時有18間診所可用作「指定診所」，但首階段只會於七個醫院聯網各啟用一間，至於是哪七間則尚未公布。",
        "type": "指定診所",
        "subType": "指定診所",
        "lat": 22.2763709,
        "lon": 114.2283658
    },
    {
        "id": 106,
        "name": "灣仔區貝夫人普通科門診診所（地下）",
        "brand": "指定診所",
        "address": "灣仔區貝夫人普通科門診診所（地下）",
        "district": "灣仔",
        "areas": "香港島",
        "desc": "食物及衞生局副局長徐德義於記者會上公布有關「指定診所」計劃，指由於本港社區感染風險提升，醫管局決定分階段啟用「指定診所」，於七個醫院聯網各啟動一間診所接收症狀輕微的市民，例如是輕微發燒或上呼吸道感染，有需要可於兩日內啟用。\n\n他表示設「指定診所」有助於社區找出懷疑感染個案及早處理，減低進一步傳播的機會，而公立醫院急症室會繼續接收症狀較嚴重、高危和符合衞生署呈報準則的懷疑個案。他續指，「指定診所」在軟件及硬件配套已作出安排，包括調節通風設備、安排分隔病人的配置、預備病人分流安排、實施感染控制措施等，以減低病人交叉感染的風險。\n\n指定診所會每日提供服務，按病人臨床需要提供治療，包括處方藥物和安排病毒測試、驗血或X光等。指定診所啟用後，部分普通科門診的診症額會減少，某部分病人需要前往其他診所覆診。而醫管局總行政經理（基層及社區醫療服務）夏敬恒指，本港現時有18間診所可用作「指定診所」，但首階段只會於七個醫院聯網各啟用一間，至於是哪七間則尚未公布。",
        "type": "指定診所",
        "subType": "指定診所",
        "lat": 22.275319,
        "lon": 114.1776591
    },
    {
        "id": 107,
        "name": "中西區堅尼地城賽馬會普通科門診診所",
        "brand": "指定診所",
        "address": "中西區堅尼地城賽馬會普通科門診診所",
        "district": "中西區",
        "areas": "香港島",
        "desc": "食物及衞生局副局長徐德義於記者會上公布有關「指定診所」計劃，指由於本港社區感染風險提升，醫管局決定分階段啟用「指定診所」，於七個醫院聯網各啟動一間診所接收症狀輕微的市民，例如是輕微發燒或上呼吸道感染，有需要可於兩日內啟用。\n\n他表示設「指定診所」有助於社區找出懷疑感染個案及早處理，減低進一步傳播的機會，而公立醫院急症室會繼續接收症狀較嚴重、高危和符合衞生署呈報準則的懷疑個案。他續指，「指定診所」在軟件及硬件配套已作出安排，包括調節通風設備、安排分隔病人的配置、預備病人分流安排、實施感染控制措施等，以減低病人交叉感染的風險。\n\n指定診所會每日提供服務，按病人臨床需要提供治療，包括處方藥物和安排病毒測試、驗血或X光等。指定診所啟用後，部分普通科門診的診症額會減少，某部分病人需要前往其他診所覆診。而醫管局總行政經理（基層及社區醫療服務）夏敬恒指，本港現時有18間診所可用作「指定診所」，但首階段只會於七個醫院聯網各啟用一間，至於是哪七間則尚未公布。",
        "type": "指定診所",
        "subType": "指定診所",
        "lat": 22.281825,
        "lon": 114.124025
    },
    {
        "id": 108,
        "name": "南區香港仔賽馬會普通科門診診所",
        "brand": "指定診所",
        "address": "南區香港仔賽馬會普通科門診診所",
        "district": "南區",
        "areas": "香港島",
        "desc": "食物及衞生局副局長徐德義於記者會上公布有關「指定診所」計劃，指由於本港社區感染風險提升，醫管局決定分階段啟用「指定診所」，於七個醫院聯網各啟動一間診所接收症狀輕微的市民，例如是輕微發燒或上呼吸道感染，有需要可於兩日內啟用。\n\n他表示設「指定診所」有助於社區找出懷疑感染個案及早處理，減低進一步傳播的機會，而公立醫院急症室會繼續接收症狀較嚴重、高危和符合衞生署呈報準則的懷疑個案。他續指，「指定診所」在軟件及硬件配套已作出安排，包括調節通風設備、安排分隔病人的配置、預備病人分流安排、實施感染控制措施等，以減低病人交叉感染的風險。\n\n指定診所會每日提供服務，按病人臨床需要提供治療，包括處方藥物和安排病毒測試、驗血或X光等。指定診所啟用後，部分普通科門診的診症額會減少，某部分病人需要前往其他診所覆診。而醫管局總行政經理（基層及社區醫療服務）夏敬恒指，本港現時有18間診所可用作「指定診所」，但首階段只會於七個醫院聯網各啟用一間，至於是哪七間則尚未公布。",
        "type": "指定診所",
        "subType": "指定診所",
        "lat": 22.2497404,
        "lon": 114.1563844
    },
    {
        "id": 109,
        "name": "九龍城區中九龍診所",
        "brand": "指定診所",
        "address": "九龍城區中九龍診所",
        "district": "九龍城",
        "areas": "九龍區",
        "desc": "食物及衞生局副局長徐德義於記者會上公布有關「指定診所」計劃，指由於本港社區感染風險提升，醫管局決定分階段啟用「指定診所」，於七個醫院聯網各啟動一間診所接收症狀輕微的市民，例如是輕微發燒或上呼吸道感染，有需要可於兩日內啟用。\n\n他表示設「指定診所」有助於社區找出懷疑感染個案及早處理，減低進一步傳播的機會，而公立醫院急症室會繼續接收症狀較嚴重、高危和符合衞生署呈報準則的懷疑個案。他續指，「指定診所」在軟件及硬件配套已作出安排，包括調節通風設備、安排分隔病人的配置、預備病人分流安排、實施感染控制措施等，以減低病人交叉感染的風險。\n\n指定診所會每日提供服務，按病人臨床需要提供治療，包括處方藥物和安排病毒測試、驗血或X光等。指定診所啟用後，部分普通科門診的診症額會減少，某部分病人需要前往其他診所覆診。而醫管局總行政經理（基層及社區醫療服務）夏敬恒指，本港現時有18間診所可用作「指定診所」，但首階段只會於七個醫院聯網各啟用一間，至於是哪七間則尚未公布。",
        "type": "指定診所",
        "subType": "指定診所",
        "lat": 22.3223748,
        "lon": 114.1790013
    },
    {
        "id": 110,
        "name": "黃大仙區東九龍普通科門診診所",
        "brand": "指定診所",
        "address": "黃大仙區東九龍普通科門診診所",
        "district": "黃大仙",
        "areas": "九龍區",
        "desc": "食物及衞生局副局長徐德義於記者會上公布有關「指定診所」計劃，指由於本港社區感染風險提升，醫管局決定分階段啟用「指定診所」，於七個醫院聯網各啟動一間診所接收症狀輕微的市民，例如是輕微發燒或上呼吸道感染，有需要可於兩日內啟用。\n\n他表示設「指定診所」有助於社區找出懷疑感染個案及早處理，減低進一步傳播的機會，而公立醫院急症室會繼續接收症狀較嚴重、高危和符合衞生署呈報準則的懷疑個案。他續指，「指定診所」在軟件及硬件配套已作出安排，包括調節通風設備、安排分隔病人的配置、預備病人分流安排、實施感染控制措施等，以減低病人交叉感染的風險。\n\n指定診所會每日提供服務，按病人臨床需要提供治療，包括處方藥物和安排病毒測試、驗血或X光等。指定診所啟用後，部分普通科門診的診症額會減少，某部分病人需要前往其他診所覆診。而醫管局總行政經理（基層及社區醫療服務）夏敬恒指，本港現時有18間診所可用作「指定診所」，但首階段只會於七個醫院聯網各啟用一間，至於是哪七間則尚未公布。",
        "type": "指定診所",
        "subType": "指定診所",
        "lat": 22.3395928,
        "lon": 114.2078033
    },
    {
        "id": 111,
        "name": "油尖旺區油麻地賽馬會普通科門診診所",
        "brand": "指定診所",
        "address": "油尖旺區油麻地賽馬會普通科門診診所",
        "district": "油尖旺",
        "areas": "九龍區",
        "desc": "食物及衞生局副局長徐德義於記者會上公布有關「指定診所」計劃，指由於本港社區感染風險提升，醫管局決定分階段啟用「指定診所」，於七個醫院聯網各啟動一間診所接收症狀輕微的市民，例如是輕微發燒或上呼吸道感染，有需要可於兩日內啟用。\n\n他表示設「指定診所」有助於社區找出懷疑感染個案及早處理，減低進一步傳播的機會，而公立醫院急症室會繼續接收症狀較嚴重、高危和符合衞生署呈報準則的懷疑個案。他續指，「指定診所」在軟件及硬件配套已作出安排，包括調節通風設備、安排分隔病人的配置、預備病人分流安排、實施感染控制措施等，以減低病人交叉感染的風險。\n\n指定診所會每日提供服務，按病人臨床需要提供治療，包括處方藥物和安排病毒測試、驗血或X光等。指定診所啟用後，部分普通科門診的診症額會減少，某部分病人需要前往其他診所覆診。而醫管局總行政經理（基層及社區醫療服務）夏敬恒指，本港現時有18間診所可用作「指定診所」，但首階段只會於七個醫院聯網各啟用一間，至於是哪七間則尚未公布。",
        "type": "指定診所",
        "subType": "指定診所",
        "lat": 22.3097033,
        "lon": 114.1691924
    },
    {
        "id": 112,
        "name": "觀塘區九龍灣健康中心普通科門診診所",
        "brand": "指定診所",
        "address": "觀塘區九龍灣健康中心普通科門診診所",
        "district": "觀塘",
        "areas": "九龍區",
        "desc": "食物及衞生局副局長徐德義於記者會上公布有關「指定診所」計劃，指由於本港社區感染風險提升，醫管局決定分階段啟用「指定診所」，於七個醫院聯網各啟動一間診所接收症狀輕微的市民，例如是輕微發燒或上呼吸道感染，有需要可於兩日內啟用。\n\n他表示設「指定診所」有助於社區找出懷疑感染個案及早處理，減低進一步傳播的機會，而公立醫院急症室會繼續接收症狀較嚴重、高危和符合衞生署呈報準則的懷疑個案。他續指，「指定診所」在軟件及硬件配套已作出安排，包括調節通風設備、安排分隔病人的配置、預備病人分流安排、實施感染控制措施等，以減低病人交叉感染的風險。\n\n指定診所會每日提供服務，按病人臨床需要提供治療，包括處方藥物和安排病毒測試、驗血或X光等。指定診所啟用後，部分普通科門診的診症額會減少，某部分病人需要前往其他診所覆診。而醫管局總行政經理（基層及社區醫療服務）夏敬恒指，本港現時有18間診所可用作「指定診所」，但首階段只會於七個醫院聯網各啟用一間，至於是哪七間則尚未公布。",
        "type": "指定診所",
        "subType": "指定診所",
        "lat": 22.3286585,
        "lon": 114.2069186
    },
    {
        "id": 113,
        "name": "深水埗區長沙灣賽馬會普通科門診診所",
        "brand": "指定診所",
        "address": "深水埗區長沙灣賽馬會普通科門診診所",
        "district": "深水埗",
        "areas": "九龍區",
        "desc": "食物及衞生局副局長徐德義於記者會上公布有關「指定診所」計劃，指由於本港社區感染風險提升，醫管局決定分階段啟用「指定診所」，於七個醫院聯網各啟動一間診所接收症狀輕微的市民，例如是輕微發燒或上呼吸道感染，有需要可於兩日內啟用。\n\n他表示設「指定診所」有助於社區找出懷疑感染個案及早處理，減低進一步傳播的機會，而公立醫院急症室會繼續接收症狀較嚴重、高危和符合衞生署呈報準則的懷疑個案。他續指，「指定診所」在軟件及硬件配套已作出安排，包括調節通風設備、安排分隔病人的配置、預備病人分流安排、實施感染控制措施等，以減低病人交叉感染的風險。\n\n指定診所會每日提供服務，按病人臨床需要提供治療，包括處方藥物和安排病毒測試、驗血或X光等。指定診所啟用後，部分普通科門診的診症額會減少，某部分病人需要前往其他診所覆診。而醫管局總行政經理（基層及社區醫療服務）夏敬恒指，本港現時有18間診所可用作「指定診所」，但首階段只會於七個醫院聯網各啟用一間，至於是哪七間則尚未公布。",
        "type": "指定診所",
        "subType": "指定診所",
        "lat": 22.340628,
        "lon": 114.158532
    },
    {
        "id": 114,
        "name": "西貢區將軍澳（寶寧路）普通科門診診所",
        "brand": "指定診所",
        "address": "西貢區將軍澳（寶寧路）普通科門診診所",
        "district": "西貢",
        "areas": "新界區",
        "desc": "食物及衞生局副局長徐德義於記者會上公布有關「指定診所」計劃，指由於本港社區感染風險提升，醫管局決定分階段啟用「指定診所」，於七個醫院聯網各啟動一間診所接收症狀輕微的市民，例如是輕微發燒或上呼吸道感染，有需要可於兩日內啟用。\n\n他表示設「指定診所」有助於社區找出懷疑感染個案及早處理，減低進一步傳播的機會，而公立醫院急症室會繼續接收症狀較嚴重、高危和符合衞生署呈報準則的懷疑個案。他續指，「指定診所」在軟件及硬件配套已作出安排，包括調節通風設備、安排分隔病人的配置、預備病人分流安排、實施感染控制措施等，以減低病人交叉感染的風險。\n\n指定診所會每日提供服務，按病人臨床需要提供治療，包括處方藥物和安排病毒測試、驗血或X光等。指定診所啟用後，部分普通科門診的診症額會減少，某部分病人需要前往其他診所覆診。而醫管局總行政經理（基層及社區醫療服務）夏敬恒指，本港現時有18間診所可用作「指定診所」，但首階段只會於七個醫院聯網各啟用一間，至於是哪七間則尚未公布。",
        "type": "指定診所",
        "subType": "指定診所",
        "lat": 22.3177825,
        "lon": 114.267939
    },
    {
        "id": 115,
        "name": "荃灣區/葵青區南葵涌賽馬會普通科門診診所",
        "brand": "指定診所",
        "address": "荃灣區/葵青區南葵涌賽馬會普通科門診診所",
        "district": "葵青",
        "areas": "新界區",
        "desc": "食物及衞生局副局長徐德義於記者會上公布有關「指定診所」計劃，指由於本港社區感染風險提升，醫管局決定分階段啟用「指定診所」，於七個醫院聯網各啟動一間診所接收症狀輕微的市民，例如是輕微發燒或上呼吸道感染，有需要可於兩日內啟用。\n\n他表示設「指定診所」有助於社區找出懷疑感染個案及早處理，減低進一步傳播的機會，而公立醫院急症室會繼續接收症狀較嚴重、高危和符合衞生署呈報準則的懷疑個案。他續指，「指定診所」在軟件及硬件配套已作出安排，包括調節通風設備、安排分隔病人的配置、預備病人分流安排、實施感染控制措施等，以減低病人交叉感染的風險。\n\n指定診所會每日提供服務，按病人臨床需要提供治療，包括處方藥物和安排病毒測試、驗血或X光等。指定診所啟用後，部分普通科門診的診症額會減少，某部分病人需要前往其他診所覆診。而醫管局總行政經理（基層及社區醫療服務）夏敬恒指，本港現時有18間診所可用作「指定診所」，但首階段只會於七個醫院聯網各啟用一間，至於是哪七間則尚未公布。",
        "type": "指定診所",
        "subType": "指定診所",
        "lat": 22.3608107,
        "lon": 114.1253342
    },
    {
        "id": 116,
        "name": "伍若瑜夫人普通科門診診所",
        "brand": "指定診所",
        "address": "葵涌伍若瑜夫人普通科門診診所",
        "district": "葵青",
        "areas": "新界區",
        "desc": "食物及衞生局副局長徐德義於記者會上公布有關「指定診所」計劃，指由於本港社區感染風險提升，醫管局決定分階段啟用「指定診所」，於七個醫院聯網各啟動一間診所接收症狀輕微的市民，例如是輕微發燒或上呼吸道感染，有需要可於兩日內啟用。\n\n他表示設「指定診所」有助於社區找出懷疑感染個案及早處理，減低進一步傳播的機會，而公立醫院急症室會繼續接收症狀較嚴重、高危和符合衞生署呈報準則的懷疑個案。他續指，「指定診所」在軟件及硬件配套已作出安排，包括調節通風設備、安排分隔病人的配置、預備病人分流安排、實施感染控制措施等，以減低病人交叉感染的風險。\n\n指定診所會每日提供服務，按病人臨床需要提供治療，包括處方藥物和安排病毒測試、驗血或X光等。指定診所啟用後，部分普通科門診的診症額會減少，某部分病人需要前往其他診所覆診。而醫管局總行政經理（基層及社區醫療服務）夏敬恒指，本港現時有18間診所可用作「指定診所」，但首階段只會於七個醫院聯網各啟用一間，至於是哪七間則尚未公布。",
        "type": "指定診所",
        "subType": "指定診所",
        "lat": 22.3760548,
        "lon": 114.1367165
    },
    {
        "id": 117,
        "name": "沙田區圓洲角普通科門診診所",
        "brand": "指定診所",
        "address": "沙田區圓洲角普通科門診診所",
        "district": "沙田",
        "areas": "新界區",
        "desc": "食物及衞生局副局長徐德義於記者會上公布有關「指定診所」計劃，指由於本港社區感染風險提升，醫管局決定分階段啟用「指定診所」，於七個醫院聯網各啟動一間診所接收症狀輕微的市民，例如是輕微發燒或上呼吸道感染，有需要可於兩日內啟用。\n\n他表示設「指定診所」有助於社區找出懷疑感染個案及早處理，減低進一步傳播的機會，而公立醫院急症室會繼續接收症狀較嚴重、高危和符合衞生署呈報準則的懷疑個案。他續指，「指定診所」在軟件及硬件配套已作出安排，包括調節通風設備、安排分隔病人的配置、預備病人分流安排、實施感染控制措施等，以減低病人交叉感染的風險。\n\n指定診所會每日提供服務，按病人臨床需要提供治療，包括處方藥物和安排病毒測試、驗血或X光等。指定診所啟用後，部分普通科門診的診症額會減少，某部分病人需要前往其他診所覆診。而醫管局總行政經理（基層及社區醫療服務）夏敬恒指，本港現時有18間診所可用作「指定診所」，但首階段只會於七個醫院聯網各啟用一間，至於是哪七間則尚未公布。",
        "type": "指定診所",
        "subType": "指定診所",
        "lat": 22.3823286,
        "lon": 114.2015867
    },
    {
        "id": 118,
        "name": "馬鞍山家庭醫學中心",
        "brand": "指定診所",
        "address": "馬鞍山家庭醫學中心",
        "district": "沙田",
        "areas": "新界區",
        "desc": "食物及衞生局副局長徐德義於記者會上公布有關「指定診所」計劃，指由於本港社區感染風險提升，醫管局決定分階段啟用「指定診所」，於七個醫院聯網各啟動一間診所接收症狀輕微的市民，例如是輕微發燒或上呼吸道感染，有需要可於兩日內啟用。\n\n他表示設「指定診所」有助於社區找出懷疑感染個案及早處理，減低進一步傳播的機會，而公立醫院急症室會繼續接收症狀較嚴重、高危和符合衞生署呈報準則的懷疑個案。他續指，「指定診所」在軟件及硬件配套已作出安排，包括調節通風設備、安排分隔病人的配置、預備病人分流安排、實施感染控制措施等，以減低病人交叉感染的風險。\n\n指定診所會每日提供服務，按病人臨床需要提供治療，包括處方藥物和安排病毒測試、驗血或X光等。指定診所啟用後，部分普通科門診的診症額會減少，某部分病人需要前往其他診所覆診。而醫管局總行政經理（基層及社區醫療服務）夏敬恒指，本港現時有18間診所可用作「指定診所」，但首階段只會於七個醫院聯網各啟用一間，至於是哪七間則尚未公布。",
        "type": "指定診所",
        "subType": "指定診所",
        "lat": 22.4251733,
        "lon": 114.2349458
    },
    {
        "id": 119,
        "name": "大埔區大埔賽馬會普通科門診診所",
        "brand": "指定診所",
        "address": "大埔區大埔賽馬會普通科門診診所",
        "district": "大埔",
        "areas": "新界區",
        "desc": "食物及衞生局副局長徐德義於記者會上公布有關「指定診所」計劃，指由於本港社區感染風險提升，醫管局決定分階段啟用「指定診所」，於七個醫院聯網各啟動一間診所接收症狀輕微的市民，例如是輕微發燒或上呼吸道感染，有需要可於兩日內啟用。\n\n他表示設「指定診所」有助於社區找出懷疑感染個案及早處理，減低進一步傳播的機會，而公立醫院急症室會繼續接收症狀較嚴重、高危和符合衞生署呈報準則的懷疑個案。他續指，「指定診所」在軟件及硬件配套已作出安排，包括調節通風設備、安排分隔病人的配置、預備病人分流安排、實施感染控制措施等，以減低病人交叉感染的風險。\n\n指定診所會每日提供服務，按病人臨床需要提供治療，包括處方藥物和安排病毒測試、驗血或X光等。指定診所啟用後，部分普通科門診的診症額會減少，某部分病人需要前往其他診所覆診。而醫管局總行政經理（基層及社區醫療服務）夏敬恒指，本港現時有18間診所可用作「指定診所」，但首階段只會於七個醫院聯網各啟用一間，至於是哪七間則尚未公布。",
        "type": "指定診所",
        "subType": "指定診所",
        "lat": 22.4539935,
        "lon": 114.1656636
    },
    {
        "id": 120,
        "name": "北區粉嶺家庭醫學中心（一樓）",
        "brand": "指定診所",
        "address": "北區粉嶺家庭醫學中心（一樓）",
        "district": "北區",
        "areas": "新界區",
        "desc": "食物及衞生局副局長徐德義於記者會上公布有關「指定診所」計劃，指由於本港社區感染風險提升，醫管局決定分階段啟用「指定診所」，於七個醫院聯網各啟動一間診所接收症狀輕微的市民，例如是輕微發燒或上呼吸道感染，有需要可於兩日內啟用。\n\n他表示設「指定診所」有助於社區找出懷疑感染個案及早處理，減低進一步傳播的機會，而公立醫院急症室會繼續接收症狀較嚴重、高危和符合衞生署呈報準則的懷疑個案。他續指，「指定診所」在軟件及硬件配套已作出安排，包括調節通風設備、安排分隔病人的配置、預備病人分流安排、實施感染控制措施等，以減低病人交叉感染的風險。\n\n指定診所會每日提供服務，按病人臨床需要提供治療，包括處方藥物和安排病毒測試、驗血或X光等。指定診所啟用後，部分普通科門診的診症額會減少，某部分病人需要前往其他診所覆診。而醫管局總行政經理（基層及社區醫療服務）夏敬恒指，本港現時有18間診所可用作「指定診所」，但首階段只會於七個醫院聯網各啟用一間，至於是哪七間則尚未公布。",
        "type": "指定診所",
        "subType": "指定診所",
        "lat": 22.4961515,
        "lon": 114.1388298
    },
    {
        "id": 121,
        "name": "屯門區仁愛普通科門診診所",
        "brand": "指定診所",
        "address": "屯門區仁愛普通科門診診所",
        "district": "屯門",
        "areas": "新界區",
        "desc": "食物及衞生局副局長徐德義於記者會上公布有關「指定診所」計劃，指由於本港社區感染風險提升，醫管局決定分階段啟用「指定診所」，於七個醫院聯網各啟動一間診所接收症狀輕微的市民，例如是輕微發燒或上呼吸道感染，有需要可於兩日內啟用。\n\n他表示設「指定診所」有助於社區找出懷疑感染個案及早處理，減低進一步傳播的機會，而公立醫院急症室會繼續接收症狀較嚴重、高危和符合衞生署呈報準則的懷疑個案。他續指，「指定診所」在軟件及硬件配套已作出安排，包括調節通風設備、安排分隔病人的配置、預備病人分流安排、實施感染控制措施等，以減低病人交叉感染的風險。\n\n指定診所會每日提供服務，按病人臨床需要提供治療，包括處方藥物和安排病毒測試、驗血或X光等。指定診所啟用後，部分普通科門診的診症額會減少，某部分病人需要前往其他診所覆診。而醫管局總行政經理（基層及社區醫療服務）夏敬恒指，本港現時有18間診所可用作「指定診所」，但首階段只會於七個醫院聯網各啟用一間，至於是哪七間則尚未公布。",
        "type": "指定診所",
        "subType": "指定診所",
        "lat": 22.3912234,
        "lon": 113.9790479
    },
    {
        "id": 122,
        "name": "元朗區天水圍（天業路）社區健康中心（一樓）",
        "brand": "指定診所",
        "address": "元朗區天水圍（天業路）社區健康中心（一樓）",
        "district": "元朗",
        "areas": "新界區",
        "desc": "食物及衞生局副局長徐德義於記者會上公布有關「指定診所」計劃，指由於本港社區感染風險提升，醫管局決定分階段啟用「指定診所」，於七個醫院聯網各啟動一間診所接收症狀輕微的市民，例如是輕微發燒或上呼吸道感染，有需要可於兩日內啟用。\n\n他表示設「指定診所」有助於社區找出懷疑感染個案及早處理，減低進一步傳播的機會，而公立醫院急症室會繼續接收症狀較嚴重、高危和符合衞生署呈報準則的懷疑個案。他續指，「指定診所」在軟件及硬件配套已作出安排，包括調節通風設備、安排分隔病人的配置、預備病人分流安排、實施感染控制措施等，以減低病人交叉感染的風險。\n\n指定診所會每日提供服務，按病人臨床需要提供治療，包括處方藥物和安排病毒測試、驗血或X光等。指定診所啟用後，部分普通科門診的診症額會減少，某部分病人需要前往其他診所覆診。而醫管局總行政經理（基層及社區醫療服務）夏敬恒指，本港現時有18間診所可用作「指定診所」，但首階段只會於七個醫院聯網各啟用一間，至於是哪七間則尚未公布。",
        "type": "指定診所",
        "subType": "指定診所",
        "lat": 22.4655043,
        "lon": 114.0057644
    },
    {
        "id": 128,
        "name": "14 天家居檢疫人士",
        "brand": "14 天家居檢疫人士",
        "address": "汝洲街259號彩蘭樓",
        "district": "深水埗",
        "areas": "九龍區",
        "desc": "正在接受 14 天家居檢疫人士所居住的大廈名單\nhttps://www.chp.gov.hk/files/pdf/list_of_buildings_tc.pdf",
        "type": "14 天家居檢疫人士",
        "subType": "14 天家居檢疫人士",
        "lat": 22.329867,
        "lon": 114.161362
    },
    {
        "id": 129,
        "name": "14 天家居檢疫人士",
        "brand": "14 天家居檢疫人士",
        "address": "蝴蝶邨蝶翎樓",
        "district": "屯門",
        "areas": "新界區",
        "desc": "正在接受 14 天家居檢疫人士所居住的大廈名單\nhttps://www.chp.gov.hk/files/pdf/list_of_buildings_tc.pdf",
        "type": "14 天家居檢疫人士",
        "subType": "14 天家居檢疫人士",
        "lat": 22.3751641,
        "lon": 113.9628934
    },
    {
        "id": 130,
        "name": "14 天家居檢疫人士",
        "brand": "14 天家居檢疫人士",
        "address": "廣田邨廣靖樓",
        "district": "觀塘",
        "areas": "九龍區",
        "desc": "正在接受 14 天家居檢疫人士所居住的大廈名單\nhttps://www.chp.gov.hk/files/pdf/list_of_buildings_tc.pdf",
        "type": "14 天家居檢疫人士",
        "subType": "14 天家居檢疫人士",
        "lat": 22.3044081,
        "lon": 114.2386318
    },
    {
        "id": 131,
        "name": "14 天家居檢疫人士",
        "brand": "14 天家居檢疫人士",
        "address": "平田邨平誠樓",
        "district": "觀塘",
        "areas": "九龍區",
        "desc": "正在接受 14 天家居檢疫人士所居住的大廈名單\nhttps://www.chp.gov.hk/files/pdf/list_of_buildings_tc.pdf",
        "type": "14 天家居檢疫人士",
        "subType": "14 天家居檢疫人士",
        "lat": 22.305544,
        "lon": 114.2369601
    },
    {
        "id": 132,
        "name": "14 天家居檢疫人士",
        "brand": "14 天家居檢疫人士",
        "address": "莆上村15號",
        "district": "北區",
        "areas": "新界區",
        "desc": "正在接受 14 天家居檢疫人士所居住的大廈名單\nhttps://www.chp.gov.hk/files/pdf/list_of_buildings_tc.pdf",
        "type": "14 天家居檢疫人士",
        "subType": "14 天家居檢疫人士",
        "lat": 22.508122,
        "lon": 114.124626
    },
    {
        "id": 133,
        "name": "14 天家居檢疫人士",
        "brand": "14 天家居檢疫人士",
        "address": "牽晴間11座",
        "district": "北區",
        "areas": "新界區",
        "desc": "正在接受 14 天家居檢疫人士所居住的大廈名單\nhttps://www.chp.gov.hk/files/pdf/list_of_buildings_tc.pdf",
        "type": "14 天家居檢疫人士",
        "subType": "14 天家居檢疫人士",
        "lat": 22.4877572,
        "lon": 114.1438889
    },
    {
        "id": 134,
        "name": "14 天家居檢疫人士",
        "brand": "14 天家居檢疫人士",
        "address": "銀禧花園5座",
        "district": "沙田",
        "areas": "新界區",
        "desc": "正在接受 14 天家居檢疫人士所居住的大廈名單\nhttps://www.chp.gov.hk/files/pdf/list_of_buildings_tc.pdf",
        "type": "14 天家居檢疫人士",
        "subType": "14 天家居檢疫人士",
        "lat": 22.3979982,
        "lon": 114.2002727
    },
    {
        "id": 135,
        "name": "14 天家居檢疫人士",
        "brand": "14 天家居檢疫人士",
        "address": "大圍名城2期5座",
        "district": "沙田",
        "areas": "新界區",
        "desc": "正在接受 14 天家居檢疫人士所居住的大廈名單\nhttps://www.chp.gov.hk/files/pdf/list_of_buildings_tc.pdf",
        "type": "14 天家居檢疫人士",
        "subType": "14 天家居檢疫人士",
        "lat": 22.368988,
        "lon": 114.175093
    },
    {
        "id": 136,
        "name": "14 天家居檢疫人士",
        "brand": "14 天家居檢疫人士",
        "address": "福華街206號榮安大廈",
        "district": "深水埗",
        "areas": "九龍區",
        "desc": "正在接受 14 天家居檢疫人士所居住的大廈名單\nhttps://www.chp.gov.hk/files/pdf/list_of_buildings_tc.pdf",
        "type": "14 天家居檢疫人士",
        "subType": "14 天家居檢疫人士",
        "lat": 22.3329894,
        "lon": 114.1607259
    },
    {
        "id": 137,
        "name": "14 天家居檢疫人士",
        "brand": "14 天家居檢疫人士",
        "address": "嘉湖山莊賞湖居5座",
        "district": "元朗",
        "areas": "新界區",
        "desc": "正在接受 14 天家居檢疫人士所居住的大廈名單\nhttps://www.chp.gov.hk/files/pdf/list_of_buildings_tc.pdf",
        "type": "14 天家居檢疫人士",
        "subType": "14 天家居檢疫人士",
        "lat": 22.4536637,
        "lon": 114.0021505
    },
    {
        "id": 138,
        "name": "14 天家居檢疫人士",
        "brand": "14 天家居檢疫人士",
        "address": "沙田中心廣寧大廈",
        "district": "沙田",
        "areas": "新界區",
        "desc": "正在接受 14 天家居檢疫人士所居住的大廈名單\nhttps://www.chp.gov.hk/files/pdf/list_of_buildings_tc.pdf",
        "type": "14 天家居檢疫人士",
        "subType": "14 天家居檢疫人士",
        "lat": 22.3820848,
        "lon": 114.1909279
    },
    {
        "id": 139,
        "name": "14 天家居檢疫人士",
        "brand": "14 天家居檢疫人士",
        "address": "鳳德村碧鳳樓",
        "district": "黃大仙",
        "areas": "九龍區",
        "desc": "正在接受 14 天家居檢疫人士所居住的大廈名單\nhttps://www.chp.gov.hk/files/pdf/list_of_buildings_tc.pdf",
        "type": "14 天家居檢疫人士",
        "subType": "14 天家居檢疫人士",
        "lat": 22.344932,
        "lon": 114.2012015
    },
    {
        "id": 140,
        "name": "14 天家居檢疫人士",
        "brand": "14 天家居檢疫人士",
        "address": "葵涌大廈A座",
        "district": "葵青",
        "areas": "新界區",
        "desc": "正在接受 14 天家居檢疫人士所居住的大廈名單\nhttps://www.chp.gov.hk/files/pdf/list_of_buildings_tc.pdf",
        "type": "14 天家居檢疫人士",
        "subType": "14 天家居檢疫人士",
        "lat": 22.369766,
        "lon": 114.125719
    },
    {
        "id": 141,
        "name": "14 天家居檢疫人士",
        "brand": "14 天家居檢疫人士",
        "address": "灝景灣1座",
        "district": "葵青",
        "areas": "新界區",
        "desc": "正在接受 14 天家居檢疫人士所居住的大廈名單\nhttps://www.chp.gov.hk/files/pdf/list_of_buildings_tc.pdf",
        "type": "14 天家居檢疫人士",
        "subType": "14 天家居檢疫人士",
        "lat": 22.3617242,
        "lon": 114.1058003
    },
    {
        "id": 142,
        "name": "14 天家居檢疫人士",
        "brand": "14 天家居檢疫人士",
        "address": "蝶翠峰3座",
        "district": "元朗",
        "areas": "新界區",
        "desc": "正在接受 14 天家居檢疫人士所居住的大廈名單\nhttps://www.chp.gov.hk/files/pdf/list_of_buildings_tc.pdf",
        "type": "14 天家居檢疫人士",
        "subType": "14 天家居檢疫人士",
        "lat": 22.4357105,
        "lon": 114.0310769
    },
    {
        "id": 143,
        "name": "14 天家居檢疫人士",
        "brand": "14 天家居檢疫人士",
        "address": "穗禾苑H座",
        "district": "沙田",
        "areas": "新界區",
        "desc": "正在接受 14 天家居檢疫人士所居住的大廈名單\nhttps://www.chp.gov.hk/files/pdf/list_of_buildings_tc.pdf",
        "type": "14 天家居檢疫人士",
        "subType": "14 天家居檢疫人士",
        "lat": 22.392663,
        "lon": 114.1937708
    },
    {
        "id": 144,
        "name": "Lento Party Room",
        "brand": "確診",
        "address": "觀塘永興工業大廈4樓的PARTY ROOM",
        "district": "觀塘",
        "areas": "九龍區",
        "desc": "#27 , #29, #30, #32, #32, #33, #34, #35, #36, #37\n農曆年初二曾與多名親友（合共 19 人）在觀塘永興工業大廈一間派對房間參與聚會，有關地點有一個露台，他們在露台燒烤及打邊爐。在場包括 2 名從中國廣東省來港的親友，兩人均在 1 月底離開香港。及後男患者與其他家人均有肺炎症狀",
        "type": "確診",
        "subType": "確診",
        "lat": 22.3088827,
        "lon": 114.2246839
    },
    {
        "id": 145,
        "name": "#27 #29 #30 #31確診",
        "brand": "確診",
        "address": "灣仔駱克道356-362號鴻福大廈",
        "district": "灣仔",
        "areas": "香港島",
        "desc": "確診日期\n2020-02-09\n\n農曆年初二曾與多名親友（合共 19 人）在觀塘永興工業大廈一間派對房間參與聚會，有關地點有一個露台，他們在露台燒烤及打邊爐。在場包括 2 名從中國廣東省來港的親友，兩人均在 1 月底離開香港。及後男患者與其他家人均有肺炎症狀",
        "type": "確診",
        "subType": "確診",
        "lat": 22.2790733,
        "lon": 114.1791645
    },
    {
        "id": 146,
        "name": "#28確診",
        "brand": "確診",
        "address": "牛池灣彩峰苑",
        "district": "黃大仙",
        "areas": "九龍區",
        "desc": "確診日期\n2020-02-09\n\n患者住在牛池灣，本身有慢性疾病，1 月 30 日咳嗽、發冷求醫，2 月 8 日在聯合醫院隔離，報稱潛伏期間沒有外遊",
        "type": "確診",
        "subType": "確診",
        "lat": 22.3351101,
        "lon": 114.213037
    },
    {
        "id": 147,
        "name": "#32 #34 #35確診",
        "brand": "確診",
        "address": "灣仔禮頓道42-56號禮智大廈",
        "district": "灣仔",
        "areas": "香港島",
        "desc": "確診日期\n2020-02-09\n\n農曆年初二曾與多名親友（合共 19 人）在觀塘永興工業大廈一間派對房間參與聚會，有關地點有一個露台，他們在露台燒烤及打邊爐。在場包括 2 名從中國廣東省來港的親友，兩人均在 1 月底離開香港。及後男患者與其他家人均有肺炎症狀",
        "type": "確診",
        "subType": "確診",
        "lat": 22.277444,
        "lon": 114.1841107
    },
    {
        "id": 148,
        "name": "#33 #36 確診",
        "brand": "確診",
        "address": "灣仔駱克道89號中滙大廈",
        "district": "灣仔",
        "areas": "香港島",
        "desc": "確診日期\n2020-02-09\n\n農曆年初二曾與多名親友（合共 19 人）在觀塘永興工業大廈一間派對房間參與聚會，有關地點有一個露台，他們在露台燒烤及打邊爐。在場包括 2 名從中國廣東省來港的親友，兩人均在 1 月底離開香港。及後男患者與其他家人均有肺炎症狀",
        "type": "確診",
        "subType": "確診",
        "lat": 22.27831,
        "lon": 114.171812
    },
    {
        "id": 149,
        "name": "#38,39,40 確診",
        "brand": "確診",
        "address": "西灣河西灣河街長興大樓",
        "district": "東區",
        "areas": "香港島",
        "desc": "確診日期\n2020-02-09\n\n69歲男子，患有慢性病，為香港居民，與岳母及太太同住在西灣河西灣河街長興大樓\n1月30日出現咳嗽病徵，沒有發燒等其他病徵\n他上周五（7日）曾向私家醫生求診，昨日（9日）出現氣促，入住東區醫院並確診感染\n其病情較差，需要插喉，而他14日內並無外遊紀錄\n其同住的岳母及太太同樣入住東區醫院，對新型冠狀病毒初步呈陽性反應",
        "type": "確診",
        "subType": "確診",
        "lat": 22.281434,
        "lon": 114.221903
    },
    {
        "id": 150,
        "name": "隔離營（檢疫中心）",
        "brand": "隔離營（檢疫中心）",
        "address": "鯉魚門渡假村",
        "district": "東區",
        "areas": "香港島",
        "desc": "康文署示，為配合衞生防護中心應對新型冠狀病毒感染肺炎，康文署今日起暫停開放鯉魚門公園作康樂用途，以預留該設施用作檢疫中心",
        "type": "隔離營（檢疫中心）",
        "subType": "隔離營（檢疫中心）",
        "lat": 22.2785797,
        "lon": 114.2337192
    },
    {
        "id": 151,
        "name": "#37 確診",
        "brand": "確診",
        "address": "禾輋邨泰和樓",
        "district": "沙田",
        "areas": "新界區",
        "desc": "確診日期\n2020-02-09\n\n第27宗男患者的阿姨。她曾參加1月26日的家庭聚會，在1月30日開始發燒及流鼻水，曾向私家醫生求診，後被安排入住威爾斯親王醫院。",
        "type": "確診",
        "subType": "確診",
        "lat": 22.389047,
        "lon": 114.195236
    },
    {
        "id": 152,
        "name": "#43 確診",
        "brand": "確診",
        "address": "藍灣半島第三座",
        "district": "東區",
        "areas": "香港島",
        "desc": "確診日期\n2020-02-11\n\n患者為小西灣循道衛理聯合教會禧恩堂的傳道者，自2月3日有發燒、咳嗽、氣促，亦有戴口罩上班，其間參與一些教會聚會小組，亦有看私家醫生，2月10日看東區醫院求醫。",
        "type": "確診",
        "subType": "確診",
        "lat": 22.2662459,
        "lon": 114.2508717
    },
    {
        "id": 153,
        "name": "#44 確診",
        "brand": "確診",
        "address": "利東邨東平樓",
        "district": "南區",
        "areas": "香港島",
        "desc": "確診日期\n2020-02-11\n\n患者是其中一名打邊爐家庭確診者的同事。他於2月1日出現咳嗽，當知悉有人確診後，2 月 10 日與另一名同事到律敦治醫院求診，2 月 11 日確診。患者沒有外遊史。",
        "type": "確診",
        "subType": "確診",
        "lat": 22.2419349,
        "lon": 114.1576372
    },
    {
        "id": 154,
        "name": "#45 確診",
        "brand": "確診",
        "address": "寶林邨寶仁樓",
        "district": "西貢",
        "areas": "新界區",
        "desc": "確診日期\n2020-02-11\n\n患者居於寶林邨，2月5日出現發燒、咳嗽、氣促，2月10日到將軍澳醫院求醫 。他沒有外遊記錄。",
        "type": "確診",
        "subType": "確診",
        "lat": 22.326302,
        "lon": 114.252372
    },
    {
        "id": 155,
        "name": "#46 確診",
        "brand": "確診",
        "address": "田灣邨田澤樓",
        "district": "南區",
        "areas": "香港島",
        "desc": "確診日期\n2020-02-11\n\n患者為第 48 宗女患者的父親，沒有外遊史。患者於新年期間與第48位及第49位確診患者接觸。據報指他居於田灣邨田澤樓，現於瑪麗醫院留醫，情況穩定。",
        "type": "確診",
        "subType": "確診",
        "lat": 22.252404,
        "lon": 114.1509489
    },
    {
        "id": 156,
        "name": "#47 確診",
        "brand": "確診",
        "address": "良田村",
        "district": "屯門",
        "areas": "新界區",
        "desc": "確診日期\n2020-02-11\n\n患者居於屯門良田村，1月30日出現喉嚨病，2月4日發冷、咳嗽，2月7日出現發燒，有看私家醫生，2 月10日經轉介屯門醫院。患者之前曾參與一些新年聚會，但沒有外遊記錄。",
        "type": "確診",
        "subType": "確診",
        "lat": 22.3992178,
        "lon": 113.9780933
    },
    {
        "id": 157,
        "name": "#37 50確診 ",
        "brand": "確診",
        "address": "旺角新世紀廣場5樓北京樓(美心)",
        "district": "油尖旺",
        "areas": "九龍區",
        "desc": "美心證兩名確診者為集團員工　中環旺角北京樓停業14天\n\n一家19口家族年初二(1月26日)於觀塘工廈一個派對場地打邊爐及燒烤後，多人感染新冠肺炎。美心集團今(10日)表示，獲悉兩名分別於北京樓旺角新世紀廣場分店及北京樓中環歷山大廈分店的員工確診感染新型冠狀病毒，現正於醫院接受治療。他們兩人為親屬，於1月26日參與同一家庭的火鍋聚餐，部分親友亦於昨日(9日)確診感染新型冠狀病毒。",
        "type": "確診",
        "subType": "確診",
        "lat": 22.323,
        "lon": 114.171981
    },
    {
        "id": 158,
        "name": "#36確診 ",
        "brand": "確診",
        "address": "中環歷山大廈北京樓(美心)",
        "district": "中西區",
        "areas": "香港島",
        "desc": "美心證兩名確診者為集團員工　中環旺角北京樓停業14天\n\n一家19口家族年初二(1月26日)於觀塘工廈一個派對場地打邊爐及燒烤後，多人感染新冠肺炎。美心集團今(10日)表示，獲悉兩名分別於北京樓旺角新世紀廣場分店及北京樓中環歷山大廈分店的員工確診感染新型冠狀病毒，現正於醫院接受治療。他們兩人為親屬，於1月26日參與同一家庭的火鍋聚餐，部分親友亦於昨日(9日)確診感染新型冠狀病毒。",
        "type": "確診",
        "subType": "確診",
        "lat": 22.281502,
        "lon": 114.158777
    },
    {
        "id": 159,
        "name": "#27 確診",
        "brand": "確診",
        "address": "北角華懋交易廣場2期",
        "district": "東區",
        "areas": "香港島",
        "desc": "東區區議員傅佳琳早前於facebook出post指，有夜更保安透露，早前與家人打邊爐、其後確診武漢肺炎的24歲男患者，因作關係經常出入北角華懋交易廣場2期。大廈保安其後進行消毒，加強防疫措施。",
        "type": "確診",
        "subType": "確診",
        "lat": 22.2903319,
        "lon": 114.1974862
    },
    {
        "id": 160,
        "name": "確診",
        "brand": "確診",
        "address": "灣仔菲林明道陶源酒家(富臨)",
        "district": "灣仔",
        "areas": "香港島",
        "desc": "在打邊爐家庭聚會確診武漢新型冠狀病毒肺炎的其中一人，為富臨集團（1443）灣仔菲林明道陶源酒家的點心師傅。集團今日稱，已徹底清潔和消毒該分店，將已開封或經處理的食物棄置，並由今日起關閉該店14天，所有該分店員工亦會自行隔離14天。",
        "type": "確診",
        "subType": "確診",
        "lat": 22.2773331,
        "lon": 114.1746684
    },
    {
        "id": 161,
        "name": "隔離營（檢疫中心）",
        "brand": "隔離營（檢疫中心）",
        "address": "西貢戶外康樂中心",
        "district": "西貢",
        "areas": "新界區",
        "desc": "隔離營（檢疫中心）",
        "type": "隔離營（檢疫中心）",
        "subType": "隔離營（檢疫中心）",
        "lat": 22.3761386,
        "lon": 114.2657465
    },
    {
        "id": 162,
        "name": "隔離營（檢疫中心）",
        "brand": "隔離營（檢疫中心）",
        "address": "荃灣曹公潭戶外康樂中心",
        "district": "荃灣",
        "areas": "新界區",
        "desc": "隔離營（檢疫中心）",
        "type": "隔離營（檢疫中心）",
        "subType": "隔離營（檢疫中心）",
        "lat": 22.386136,
        "lon": 114.1060162
    },
    {
        "id": 163,
        "name": "隔離營（檢疫中心）",
        "brand": "隔離營（檢疫中心）",
        "address": "美孚饒宗頤文化館翠雅山房",
        "district": "深水埗",
        "areas": "九龍區",
        "desc": "隔離營（檢疫中心）",
        "type": "隔離營（檢疫中心）",
        "subType": "隔離營（檢疫中心）",
        "lat": 22.3380462,
        "lon": 114.1418898
    },
    {
        "id": 164,
        "name": "14 天家居檢疫人士",
        "brand": "14 天家居檢疫人士",
        "address": "山道 71-77 號海光大廈",
        "district": "中西區",
        "areas": "新界區",
        "desc": "正在接受 14 天家居檢疫人士所居住的大廈名單\nhttps://www.chp.gov.hk/files/pdf/list_of_buildings_tc.pdf",
        "type": "14 天家居檢疫人士",
        "subType": "14 天家居檢疫人士",
        "lat": 22.2844752,
        "lon": 114.1362482
    },
    {
        "id": 165,
        "name": "#50 確診",
        "brand": "確診",
        "address": "長安邨安濤樓",
        "district": "葵青",
        "areas": "新界區",
        "desc": "確診日期\n2020-02-12\n\n患者是第37宗確診個案的同事，同樣於食肆北京樓的廚房工作。患者於2 月 3 日發燒，2 月 10 日入住廣華醫院。（病人在發病後，於 2 月 6 至 9 日仍有上班，有戴口罩，並與同事共同進膳。）",
        "type": "確診",
        "subType": "確診",
        "lat": 22.361354,
        "lon": 114.102226
    },
    {
        "id": 166,
        "name": "#51 確診",
        "brand": "確診",
        "address": "屯門紫田村",
        "district": "屯門",
        "areas": "新界區",
        "desc": "確診日期\n2020-02-13\n\n這名男子上月29日開始咳嗽，兩日後有痾嘔，三度向不同醫生求診，於昨日經屯門醫院急症室入院，今日確診。他於上月30日曾與其餘12名家人共膳，其中一名同枱的姻親是本港第47宗確診個案患者。",
        "type": "確診",
        "subType": "確診",
        "lat": 22.41709,
        "lon": 113.975503
    },
    {
        "id": 167,
        "name": "#52 53 確診",
        "brand": "確診",
        "address": "柯布連道 28-32 號香海大廈",
        "district": "灣仔",
        "areas": "香港島",
        "desc": "確診日期\n2020-02-13\n\n67歲女病人為第46宗個案（75歲男病人）的小姨，過往健康良好，平日居於鰂魚涌康景花園，周末則居於兒子位於灣仔柯布連道28-32號香海大廈的寓所。\n\n37歲男病人過往健康良好，居於香海大廈。他於2月8日出現發燒，2月9日向私家醫生求診，2月12日到律敦治醫院求醫並入院接受治療。其呼吸道樣本證實對新型冠狀病毒呈陽性反應，現時情況穩定。病人在潛伏期內沒有外遊。",
        "type": "確診",
        "subType": "確診",
        "lat": 22.278836,
        "lon": 114.172894
    },
    {
        "id": 168,
        "name": "#52 #61確診",
        "brand": "確診",
        "address": "康柏徑 10 號康景花園 D 座",
        "district": "東區",
        "areas": "香港島",
        "desc": "確診日期\n2020-02-13\n\n#52\n67歲女病人為第46宗個案（75歲男病人）的小姨，過往健康良好，平日居於鰂魚涌康景花園，周末則居於兒子位於灣仔柯布連道28-32號香海大廈的寓所。\n\n確診日期\n2020-02-18\n#61\n菲傭與第52宗個案有關，菲傭沒有參與上月26日的北角晚宴，相信她是從家居傳播感染。\n\n張竹君說，這名菲傭本月2日開始不適，有咳和發燒，她自行服藥行自覺已經無事。她在本月14日入院，做過快速測試但結果呈陰性，不過由於她的胸肺片有陰影，醫生再安排她接受電腦掃描，仍發現有問題，昨日再取樣本接受測試，之後確診。",
        "type": "確診",
        "subType": "確診",
        "lat": 22.281994,
        "lon": 114.213082
    },
    {
        "id": 169,
        "name": "#30 #44 確診",
        "brand": "確診",
        "address": "灣仔群策大廈",
        "district": "灣仔",
        "areas": "香港島",
        "desc": "確診日期\n2020-02-11\n\n患者是其中一名打邊爐家庭確診者的同事。他於2月1日出現咳嗽，當知悉有人確診後，2 月 10 日與另一名同事到律敦治醫院求診，2 月 11 日確診。患者沒有外遊史。\n\n衞生防護中心一直拒絕公佈，第30宗武漢肺炎確診個案、「打邊爐」群組最先確診男子的68歲爸爸，與第44宗確診個案、其60歲女同事受僱於甚麼公司、在何處工作。消息指，2人均受聘於外判公司任清潔工，承辦灣仔羣策飲食中心及商業中心的清潔服務。不過清潔公司及大廈管理處於2月9日政府公佈68歲男子確診感染後沒有公佈消息，事隔3日，物管公司今午才傳真商戶有關消息，隨後政府亦宣佈男病人的60歲女同事確診\n被視為「疫廈」的群策飲食中心1至8樓，不乏受追捧的中菜館及火鍋店，如唐人佳海鮮火鍋酒家、名海閣火鍋小菜、順聯薈等，人流頻繁。有商戶質疑管理處有心隱瞞消息，置商戶安危於不顧。",
        "type": "確診",
        "subType": "確診",
        "lat": 22.279342,
        "lon": 114.17805
    },
    {
        "id": 170,
        "name": "14 天家居檢疫人士",
        "brand": "14 天家居檢疫人士",
        "address": "鱟地坊74號天保大樓",
        "district": "荃灣",
        "areas": "新界區",
        "desc": "家居檢疫最後日期:25/02/2020\n\n正在接受 14 天家居檢疫人士所居住的大廈名單\nhttps://www.chp.gov.hk/files/pdf/list_of_buildings_tc.pdf",
        "type": "14 天家居檢疫人士",
        "subType": "14 天家居檢疫人士",
        "lat": 22.3710917,
        "lon": 114.1149976
    },
    {
        "id": 171,
        "name": "14 天家居檢疫人士",
        "brand": "14 天家居檢疫人士",
        "address": "蒲飛路13-21號香港大學職工宿舍 E 座",
        "district": "南區",
        "areas": "香港島",
        "desc": "家居檢疫最後日期:26/02/2020\n\n正在接受 14 天家居檢疫人士所居住的大廈名單\nhttps://www.chp.gov.hk/files/pdf/list_of_buildings_tc.pdf",
        "type": "14 天家居檢疫人士",
        "subType": "14 天家居檢疫人士",
        "lat": 22.280952,
        "lon": 114.130225
    },
    {
        "id": 172,
        "name": "14 天家居檢疫人士",
        "brand": "14 天家居檢疫人士",
        "address": "大南街 212 號朝南樓",
        "district": "深水埗",
        "areas": "九龍區",
        "desc": "家居檢疫最後日期:26/02/2020\n\n正在接受 14 天家居檢疫人士所居住的大廈名單\nhttps://www.chp.gov.hk/files/pdf/list_of_buildings_tc.pdf",
        "type": "14 天家居檢疫人士",
        "subType": "14 天家居檢疫人士",
        "lat": 22.327591,
        "lon": 114.1630249
    },
    {
        "id": 173,
        "name": "14 天家居檢疫人士",
        "brand": "14 天家居檢疫人士",
        "address": "啟晴邨賞晴樓",
        "district": "九龍城",
        "areas": "九龍區",
        "desc": "家居檢疫最後日期:26/02/2020\n\n正在接受 14 天家居檢疫人士所居住的大廈名單\nhttps://www.chp.gov.hk/files/pdf/list_of_buildings_tc.pdf",
        "type": "14 天家居檢疫人士",
        "subType": "14 天家居檢疫人士",
        "lat": 22.3335518,
        "lon": 114.2031521
    },
    {
        "id": 174,
        "name": "#55 確診",
        "brand": "確診",
        "address": "石籬二邨石怡樓",
        "district": "葵青",
        "areas": "新界區",
        "desc": "確診日期\n2020-02-14\n\n第55宗個案是75歲獨居長者，住在石籬二邨，情況比較差，要插喉。曾因跌到入瑪嘉烈急症室，之後確診。1月22日或之前有經落馬州行蹤，即日往返。第55宗個案入院的情況已相當差，須進入深切治療部，並接受插喉。患者的血壓偏低，需使用強心針，亦需要使用暫時性腎臟替代。他聲稱自己並無離境，但使用入境處提供的系統後發現有出入境紀錄。",
        "type": "確診",
        "subType": "確診",
        "lat": 22.3652339,
        "lon": 114.1399873
    },
    {
        "id": 175,
        "name": "#54 確診",
        "brand": "確診",
        "address": "大浪灣村",
        "district": "南區",
        "areas": "香港島",
        "desc": "確診日期\n2020-02-14\n\n患者為第53宗確診個案的表姐。1 月 26 日曾出席北角明星酒家的29人家庭聚會。患者住石澳大浪灣村，在鰂魚涌從事文職。她出現咳嗽後有上班，但有戴口罩。",
        "type": "確診",
        "subType": "確診",
        "lat": 22.2453604,
        "lon": 114.2501946
    },
    {
        "id": 176,
        "name": "#56 確診",
        "brand": "確診",
        "address": "上環永樂街 233 號",
        "district": "中西區",
        "areas": "香港島",
        "desc": "本港第56宗確診個案，是一名61歲女子，居於上環永樂街，在上環的嘉豪酒家擔任點心員，2月10日有咳嗽，2月12日出現發燒，2月13日入瑪麗醫院，其丈夫在1月23至28日曾到廣東省新會探望兒子，其兒子也非確診個案，也沒有徵狀。",
        "type": "確診",
        "subType": "確診",
        "lat": 22.2877086,
        "lon": 114.1482699
    },
    {
        "id": 177,
        "name": "#52 53 確診",
        "brand": "確診",
        "address": "北角明星海鮮酒家",
        "district": "東區",
        "areas": "香港島",
        "desc": "第52及53宗個案涉及一對母子，分別為67歲及37歲。2人於1月26日晚上，與第46、48及49宗個案3名病人於北角明星海鮮酒家一同出席聚餐。第54宗患者即第53宗男患者的表姐，於2月3日發病，2月13日入住律敦治醫院，2月14日確診。",
        "type": "確診",
        "subType": "確診",
        "lat": 22.2899769,
        "lon": 114.1955764
    },
    {
        "id": 178,
        "name": "#56 確診",
        "brand": "確診",
        "address": "上環嘉豪酒家",
        "district": "中西區",
        "areas": "香港島",
        "desc": "本港第56宗確診個案，是一名61歲女子，居於上環永樂街，在上環的嘉豪酒家擔任點心員，2月10日有咳嗽，2月12日出現發燒，2月13日入瑪麗醫院，其丈夫在1月23至28日曾到廣東省新會探望兒子，其兒子也非確診個案，也沒有徵狀。",
        "type": "確診",
        "subType": "確診",
        "lat": 22.28535,
        "lon": 114.14969
    },
    {
        "id": 179,
        "name": "#57 60 確診",
        "brand": "確診",
        "address": "太古城道 22 號太古城明宫閣",
        "district": "東區",
        "areas": "香港島",
        "desc": "確診日期\n2020-02-16\n\n男患者居於太古城明宮閣高層、無外遊紀錄。他在 2 月 7 日發燒，向私家醫生求診，之後出現咳嗽，2 月 10 日到東區醫院急症室求醫，當時照 X 光片肺部清晰。2 月 13 日患者再向私家醫生覆診， 2 月15 日他再因發燒到該院急症室求醫，當時因出現肺炎病徵，被送到監察病房，隨後證實對新型冠狀病毒初步呈陽性反應，被送到隔離病房進一步檢驗，情況穩定。患者妻子於 2 月 8 日都有流鼻水、咳嗽等病徵，2 月 16 日已安排她入住東區醫院。2 人病發前後都去過筲箕灣一間小型教堂聚會。",
        "type": "確診",
        "subType": "確診",
        "lat": 22.2864569,
        "lon": 114.2159697
    },
    {
        "id": 180,
        "name": "#57 確診",
        "brand": "確診",
        "address": "太古城高志輝醫生診所",
        "district": "東區",
        "areas": "香港島",
        "desc": "確診日期\n2020-02-16\n\n曾 4 次到訪該診所，其中 2 月 10 及 15 日因患者發燒所以醫生沒為患者看病並轉介患者到急症室，2 月 13 日因患者沒發燒故有為患者看病",
        "type": "確診",
        "subType": "確診",
        "lat": 22.286418,
        "lon": 114.216315
    },
    {
        "id": 181,
        "name": "#57 #59 確診",
        "brand": "確診",
        "address": "北角英皇道 633 號 35 樓",
        "district": "東區",
        "areas": "香港島",
        "desc": "確診日期\n2020-02-16\n\n【武漢肺炎】太古城確診者是巴馬丹拿集團結構工程師 全公司員工在家工作自我隔離一周\n巴馬丹拿集團（P&T Group）回覆《明報》時證實，確診患者在該公司任職工程師，公司正了解他2月6日即最後上班日後曾否與其他同事接觸。明日（17日）起，公司會安排員工在家工作至本月23日。\nhttps://hk.appledaily.com/breaking/20200216/HYKMQNN6DGXOP5CZ7UZNDHBTDI/",
        "type": "確診",
        "subType": "確診",
        "lat": 22.2922452,
        "lon": 114.2066352
    },
    {
        "id": 182,
        "name": "14 天家居檢疫人士",
        "brand": "14 天家居檢疫人士",
        "address": "海堤灣畔 5 座",
        "district": "九龍城",
        "areas": "九龍區",
        "desc": "家居檢疫最後日期:26/02/2020\n\n正在接受 14 天家居檢疫人士所居住的大廈名單\nhttps://www.chp.gov.hk/files/pdf/list_of_buildings_tc.pdf",
        "type": "14 天家居檢疫人士",
        "subType": "14 天家居檢疫人士",
        "lat": 22.2917386,
        "lon": 113.9430985
    },
    {
        "id": 183,
        "name": "#59 確診",
        "brand": "確診",
        "address": "慈雲山 慈愛苑 愛華閣",
        "district": "黃大仙",
        "areas": "九龍區",
        "desc": "確診日期\n16/2/2020\n\n#59\n患者是 2 月 16日 確診的 54 歲住太古城的工程師的同事，同為工程師。病人住慈雲山慈愛苑，1月底曾到越南，2 月 12 日開始發病有咳嗽等徵狀，13日發燒並向私家醫生求醫，昨日入伊院求醫。",
        "type": "確診",
        "subType": "確診",
        "lat": 22.35187,
        "lon": 114.1990884
    },
    {
        "id": 184,
        "name": "#57 #59 確診",
        "brand": "確診",
        "address": "亞皆老街 147B 醫院管理局大\n樓",
        "district": "東區",
        "areas": "香港島",
        "desc": "第 57 宗患者與第 60 宗患者出席會議",
        "type": "確診",
        "subType": "確診",
        "lat": 22.3243594,
        "lon": 114.1832262
    },
    {
        "id": 185,
        "name": "#57 確診",
        "brand": "確診",
        "address": "太古城元宮閣",
        "district": "東區",
        "areas": "香港島",
        "desc": "第57宗個案患者，他曾多次向高志輝醫生求醫，診所地址「太古城元宮閣」在名單中。由於此病人與第59宗個案是巴馬丹拿集團員工，亦曾出席同一會議，其公司地址「英皇道633號」及會議地點「亞皆老街 147B 醫院管理局大樓」亦上榜。",
        "type": "確診",
        "subType": "確診",
        "lat": 22.2864854,
        "lon": 114.2163412
    },
    {
        "id": 186,
        "name": "#58 確診",
        "brand": "確診",
        "address": "長沙灣賽馬會普通科門診診所",
        "district": "深水埗",
        "areas": "九龍區",
        "desc": "第58宗個案患者是69歲男子、退休人士，本身有糖尿病及高血壓，他自2月8日起有咳嗽及有痰，同日及2月11、13向深水埗區同一名私家醫生求醫，2月15日因持續咳嗽到長沙灣賽馬會普通科門診診所，2月16日因呼吸困難向上述私家醫生求診，獲轉介至明愛醫院求醫並入院接受治療。",
        "type": "確診",
        "subType": "確診",
        "lat": 22.340628,
        "lon": 114.158532
    },
    {
        "id": 187,
        "name": "#58 確診",
        "brand": "確診",
        "address": "元州街 298 號 D",
        "district": "深水埗",
        "areas": "九龍區",
        "desc": "第58宗個案、69歲男病人曾4度求診的深水埗區診所，位於元州街298號D，署方透露該病人曾向杜偉雄醫生求診。名單上亦包括第57及59宗個案、兩名巴馬丹拿集團員工曾開會的醫院管理局總部大樓。",
        "type": "確診",
        "subType": "確診",
        "lat": 22.3358764,
        "lon": 114.1590074
    },
    {
        "id": 188,
        "name": "#57 #60 確診",
        "brand": "確診",
        "address": "西灣河街 23 號富欣閣",
        "district": "東區",
        "areas": "九龍區",
        "desc": "確診日期\n2020-02-17\n\n#60\n患者為第 57 宗個案的妻子。病人過往健康良好，居於太古城明宮閣。自 2 月 8 日起出現流鼻水，自 2 月 10 日起出現咳嗽，同日向私家醫生求診，於 2 月 16 日獲衞生防護中心轉介到東區尤德夫人那打素醫院入院接受治療。患者於潛伏期內沒有外遊。於 2 月 9 日曾與丈夫一同到筲箕灣一教會參與聚會。",
        "type": "確診",
        "subType": "確診",
        "lat": 22.2798001,
        "lon": 114.2242476
    },
    {
        "id": 189,
        "name": "#62 確診",
        "brand": "確診",
        "address": "觀塘金橋華廈",
        "district": "觀塘",
        "areas": "九龍區",
        "desc": "確診日期\n2020-02-18\n\n患者過往健康良好，獨居在觀塘康寧道金僑華廈。患者 2 月 11 日起出現發燒和發冷，其後出現咳嗽，分別在 2 月 11 及 13 日向同一名私家醫生求診，2 月 17 日到聯合醫院求診並入院接受治療。患者在 1 月 23 日至 2 月 2 日曾經到過中山，以及 2 月 5 日到過澳門。",
        "type": "確診",
        "subType": "確診",
        "lat": 22.314975,
        "lon": 114.223551
    },
    {
        "id": 190,
        "name": "#63 確診",
        "brand": "確診",
        "address": "屯門三聖街5號海天花園酒家1樓",
        "district": "屯門",
        "areas": "新界區",
        "desc": "確診日期\n2020-02-19\n\n患者是一名83歲女病人，居住在屯門海景花園1座，她是早前確診的60號病人母親，以及57號病人的岳母。女病人 2 月 14 日有輕微流鼻水。她於 2 月 15 日跌倒骨折到屯門醫院骨科病房求診，翌日接受髖關節手術，留院期間沒有發燒。醫生其後知道她的家人確診後，為她做了病毒測試，2 月 19 日呈陽性反應確診。 女患者的丈夫新年前頻繁回東莞樟木頭與朋友聚會，新年期間有咳嗽，1 月初曾經看過幾次醫生，女兒和女婿則在初三（1 月 27 日）和初五（1 月 29 日）與外父會面，目前他正在屯門醫院等待測試結果。",
        "type": "確診",
        "subType": "確診",
        "lat": 22.380162,
        "lon": 113.978871
    },
    {
        "id": 191,
        "name": "#62 確診",
        "brand": "確診",
        "address": "觀塘樂華北邨商場",
        "district": "觀塘",
        "areas": "九龍區",
        "desc": "確診日期\n2020-02-18\n\n於 2 月 11 及 13 日向黎朝輝醫生求醫",
        "type": "確診",
        "subType": "確診",
        "lat": 22.321879,
        "lon": 114.2201124
    },
    {
        "id": 192,
        "name": "#64 #65 確診",
        "brand": "確診",
        "address": "小西灣邨瑞滿樓",
        "district": "東區",
        "areas": "香港島",
        "desc": "確診日期\n2020-02-19\n\n#64 #65\n二人有長期病患，居於小西灣邨瑞滿樓，於 2 月 12 日出現咳嗽，2 月 18 日因持續咳嗽向私家醫生求診，之後到東區尤德夫人那打素醫院並入院接受治療。他 們的呼吸道樣本證實對新型冠狀病毒呈陽性反應，現時情況穩定。他們於潛伏期內沒有外遊，其同住的女兒沒有出現病徵，將被安排接受檢疫。",
        "type": "確診",
        "subType": "確診",
        "lat": 22.2622816,
        "lon": 114.2491498
    },
    {
        "id": 193,
        "name": "#63 確診",
        "brand": "確診",
        "address": "屯門海景花園 1 座",
        "district": "屯門",
        "areas": "新界區",
        "desc": "確診日期\n2020-02-19\n\n患者是一名83歲女病人，居住在屯門海景花園1座，她是早前確診的60號病人母親，以及57號病人的岳母。女病人 2 月 14 日有輕微流鼻水。她於 2 月 15 日跌倒骨折到屯門醫院骨科病房求診，翌日接受髖關節手術，留院期間沒有發燒。醫生其後知道她的家人確診後，為她做了病毒測試，2 月 19 日呈陽性反應確診。 女患者的丈夫新年前頻繁回東莞樟木頭與朋友聚會，新年期間有咳嗽，1 月初曾經看過幾次醫生，女兒和女婿則在初三（1 月 27 日）和初五（1 月 29 日）與外父會面，目前他正在屯門醫院等待測試結果。",
        "type": "確診",
        "subType": "確診",
        "lat": 22.3785943,
        "lon": 113.9837792
    },
    {
        "id": 194,
        "name": "#64 #65 確診",
        "brand": "確診",
        "address": "北角道 1-9A 號皇冠大廈",
        "district": "東區",
        "areas": "香港島",
        "desc": "確診日期\n2020-02-19\n\n#64 #65\n2 月 18 日因持續咳嗽向私家醫生求診",
        "type": "確診",
        "subType": "確診",
        "lat": 22.290621,
        "lon": 114.19649
    }
]
